timestamp(unix),attitude_roll(radians),attitude_pitch(radians),attitude_yaw(radians),rotation_rate_x(radians/s),rotation_rate_y(radians/s),rotation_rate_z(radians/s),gravity_x(G),gravity_y(G),gravity_z(G),user_acc_x(G),user_acc_y(G),user_acc_z(G),magnetic_field_x(microteslas),magnetic_field_y(microteslas),magnetic_field_z(microteslas),latitude(degree),longitude(degree),altitude(meter),speed(m/s),course(degree),timestamp(unix),User Mark
,,,,,,,,,,,,,,,,39.779282,-84.063093,290.862881,0.620000,-1.000000,1530638679.999933,
1530638699.493222,0.062984,0.131194,-0.944210,-0.042936,-0.094697,-0.109048,0.062401,-0.130818,-0.989441,0.032219,-0.004374,-0.011979,14.550528,10.296196,-47.016205,,,,,,,
1530638699.513191,0.057550,0.131526,-0.945884,0.022690,-0.366701,-0.048507,0.057021,-0.131147,-0.989722,0.048066,-0.040362,-0.019769,14.286627,10.231049,-47.368683,,,,,,,
1530638699.533160,0.051806,0.129959,-0.945590,-0.162692,-0.182947,0.047106,0.051346,-0.129594,-0.990237,0.048035,-0.030471,0.015658,14.204527,10.193619,-46.802109,,,,,,,
,,,,,,,,,,,,,,,,39.779282,-84.063093,290.862881,0.620000,-1.000000,1530638687.999933,
1530638699.553129,0.051630,0.123121,-0.942687,-0.475258,0.103275,0.176932,0.051216,-0.122810,-0.991108,0.028617,-0.041527,-0.002377,14.053308,10.512268,-46.912918,,,,,,,
1530638699.573098,0.054252,0.110764,-0.936505,-0.701036,0.164024,0.342484,0.053893,-0.110537,-0.992410,0.014299,-0.073224,-0.000449,14.155870,10.824364,-46.773315,,,,,,,
1530638699.593067,0.054768,0.097534,-0.928028,-0.622661,0.026854,0.379817,0.054481,-0.097379,-0.993755,0.010400,-0.008639,-0.043660,14.512743,11.174202,-46.330933,,,,,,,
,,,,,,,,,,,,,,,,39.779282,-84.063093,290.862885,-1.000000,-1.000000,1530638699.566500,
,,,,,,,,,,,,,,,,39.779282,-84.063093,290.862885,-1.000000,-1.000000,1530638699.571740,
1530638699.613036,0.053732,0.089342,-0.920783,-0.320984,-0.051031,0.294254,0.053492,-0.089223,-0.994574,0.017782,0.035467,-0.044656,14.538752,11.687325,-46.047363,,,,,,,
1530638699.633005,0.051840,0.086348,-0.916113,-0.083194,-0.073624,0.197780,0.051624,-0.086241,-0.994936,0.017651,0.038923,-0.025679,14.486219,11.903908,-46.336441,,,,,,,
,,,,,,,,,,,,,,,,39.779282,-84.063093,290.862885,-1.000000,-1.000000,1530638699.610617,
,,,,,,,,,,,,,,,,39.779282,-84.063093,290.862885,-1.000000,-1.000000,1530638699.615177,
1530638699.652974,0.050178,0.086825,-0.912806,0.049411,-0.088724,0.140213,0.049968,-0.086716,-0.994979,0.007588,0.012818,0.002105,14.438074,11.951256,-46.198990,,,,,,,
1530638699.672944,0.047238,0.089271,-0.911579,0.157234,-0.158691,0.036262,0.047032,-0.089152,-0.994907,0.016048,0.032252,-0.022885,14.321566,11.931709,-46.389771,,,,,,,
1530638699.692913,0.044811,0.093814,-0.910314,0.261438,-0.078686,0.115346,0.044599,-0.093676,-0.994603,0.025256,-0.002195,-0.009166,14.340391,11.680824,-46.416855,,,,,,,
1530638699.712882,0.043555,0.100109,-0.907289,0.352221,-0.031623,0.169611,0.043323,-0.099942,-0.994050,0.009030,-0.010669,0.038956,14.306017,11.759300,-46.698318,,,,,,,
1530638699.732851,0.041118,0.108142,-0.905764,0.423680,-0.200661,0.026747,0.040866,-0.107932,-0.993318,0.004590,0.050726,0.015382,14.149385,11.107849,-46.782471,,,,,,,
1530638699.752820,0.035668,0.116080,-0.907870,0.377918,-0.345176,-0.144948,0.035421,-0.115819,-0.992638,-0.007268,0.081548,0.005181,13.954855,10.767685,-47.095581,,,,,,,
1530638699.772789,0.029182,0.121909,-0.910909,0.233998,-0.289036,-0.115098,0.028961,-0.121608,-0.992156,0.012085,-0.006078,-0.011720,13.744417,10.375549,-47.155533,,,,,,,
1530638699.792758,0.026348,0.123766,-0.912528,0.025907,-0.109386,-0.063478,0.026143,-0.123451,-0.992006,-0.012685,-0.014672,0.041613,13.661093,10.333160,-47.189117,,,,,,,
1530638699.812727,0.025395,0.123345,-0.913452,-0.023660,-0.031214,-0.031299,0.025200,-0.123032,-0.992083,-0.015053,-0.005309,0.029146,13.579992,10.437904,-47.369781,,,,,,,
1530638699.832696,0.024793,0.122950,-0.913676,-0.006065,-0.040251,-0.002407,0.024603,-0.122640,-0.992146,0.007990,0.001074,0.005131,13.536554,10.645653,-47.305054,,,,,,,
1530638699.852665,0.023769,0.122931,-0.913712,0.002301,-0.050210,0.000691,0.023587,-0.122622,-0.992173,0.002383,0.008059,0.010896,13.378653,10.482819,-47.267838,,,,,,,
1530638699.872634,0.023365,0.123053,-0.913316,0.006200,0.001433,0.035408,0.023186,-0.122743,-0.992168,0.014655,-0.000060,0.009028,13.428019,10.583282,-47.483627,,,,,,,
1530638699.892603,0.022631,0.123117,-0.912537,-0.003214,-0.059271,0.034139,0.022457,-0.122806,-0.992177,0.012699,0.004153,-0.002056,13.387259,10.621185,-47.266891,,,,,,,
1530638699.912572,0.021006,0.123165,-0.911901,0.008300,-0.079166,0.037156,0.020845,-0.122854,-0.992206,0.007506,0.000494,0.000400,13.335279,10.447960,-47.259644,,,,,,,
1530638699.932541,0.019610,0.123416,-0.911060,0.013468,-0.054942,0.045846,0.019460,-0.123103,-0.992203,0.007411,0.003337,0.001847,13.257593,10.533249,-47.340317,,,,,,,
1530638699.952510,0.018586,0.123956,-0.909972,0.033299,-0.057237,0.057488,0.018442,-0.123639,-0.992156,0.018332,0.002072,-0.009507,13.246965,10.564316,-47.354385,,,,,,,
,,,,,,,,,,,,,,,,39.779334,-84.063521,291.460052,-1.000000,-1.000000,1530638699.902100,
1530638699.972479,0.016799,0.124533,-0.908698,0.020621,-0.083808,0.069353,0.016668,-0.124212,-0.992116,0.013133,-0.002085,-0.006587,13.146856,10.561569,-47.280151,,,,,,,
1530638699.992448,0.015406,0.124684,-0.907120,-0.002571,-0.050784,0.083786,0.015286,-0.124362,-0.992119,0.003605,-0.007749,0.000618,13.059343,10.623100,-47.308411,,,,,,,
1530638700.012418,0.014078,0.124363,-0.905634,-0.024479,-0.067239,0.069915,0.013969,-0.124042,-0.992179,0.002404,-0.003430,0.003150,13.031439,10.560432,-47.055206,,,,,,,
1530638700.032387,0.012181,0.123540,-0.904292,-0.048583,-0.101445,0.068929,0.012088,-0.123226,-0.992305,0.017605,-0.010625,-0.002476,13.035170,10.642372,-47.436172,,,,,,,
1530638700.052356,0.009963,0.122591,-0.902611,-0.042500,-0.101626,0.094750,0.009888,-0.122285,-0.992446,0.026138,-0.002654,-0.016511,12.975245,10.567215,-47.425461,,,,,,,
1530638700.072325,0.008396,0.122092,-0.900626,-0.018428,-0.037638,0.099120,0.008333,-0.121789,-0.992521,0.007185,-0.000556,-0.018404,12.955606,10.401405,-47.391617,,,,,,,
1530638700.092294,0.008608,0.121747,-0.898656,-0.019508,0.047354,0.100615,0.008544,-0.121447,-0.992561,0.003983,0.000963,-0.003624,12.874918,10.450089,-47.472046,,,,,,,
1530638700.112263,0.009208,0.121868,-0.896175,0.021095,0.040467,0.136817,0.009139,-0.121566,-0.992541,0.028214,-0.007401,-0.021939,13.041624,10.360092,-47.545593,,,,,,,
1530638700.132232,0.009615,0.122642,-0.893592,0.035905,0.022906,0.121474,0.009542,-0.122335,-0.992443,0.018839,0.013342,-0.007084,12.994177,10.370232,-47.318756,,,,,,,
1530638700.152201,0.009302,0.122952,-0.891453,0.002513,-0.015587,0.102233,0.009232,-0.122642,-0.992408,0.014450,0.000709,0.008765,13.043016,10.253036,-47.302399,,,,,,,
1530638700.172170,0.008613,0.122887,-0.889580,-0.005768,-0.025431,0.089334,0.008548,-0.122578,-0.992422,0.006192,0.000645,0.015509,13.040380,10.244781,-47.301392,,,,,,,
1530638700.192139,0.008187,0.122747,-0.887870,-0.005791,-0.002264,0.091604,0.008126,-0.122439,-0.992443,-0.000664,-0.000456,0.016750,13.076262,10.273758,-47.022690,,,,,,,
1530638700.212108,0.008031,0.122294,-0.885877,-0.040453,-0.003404,0.098438,0.007971,-0.121989,-0.992499,-0.003546,0.000941,0.005973,13.155039,10.179451,-47.299652,,,,,,,
1530638700.232077,0.007658,0.120709,-0.884067,-0.096989,-0.005515,0.087165,0.007602,-0.120416,-0.992694,-0.018573,0.007379,0.007953,13.185656,10.214272,-47.424194,,,,,,,
1530638700.252046,0.007252,0.118748,-0.882334,-0.091744,-0.015451,0.087059,0.007201,-0.118469,-0.992932,-0.022109,0.012207,0.000836,13.238802,10.345703,-47.337189,,,,,,,
1530638700.272015,0.006497,0.117332,-0.880714,-0.060188,-0.036358,0.075838,0.006452,-0.117063,-0.993104,-0.030546,0.008344,0.002244,13.166121,10.362106,-47.179626,,,,,,,
1530638700.291985,0.005519,0.116398,-0.879336,-0.040173,-0.036289,0.064841,0.005482,-0.116135,-0.993218,-0.030399,0.000245,0.010476,13.124014,10.333145,-47.414062,,,,,,,
1530638700.311954,0.004799,0.116100,-0.877762,0.000554,-0.019882,0.084970,0.004767,-0.115840,-0.993256,-0.025275,0.002406,-0.003417,13.086977,10.505211,-47.184143,,,,,,,
1530638700.331923,0.004241,0.116375,-0.875979,0.015221,-0.019901,0.086975,0.004212,-0.116113,-0.993227,-0.032182,0.004022,-0.005979,13.200518,10.367744,-47.400391,,,,,,,
1530638700.351892,0.003106,0.116459,-0.874284,-0.002545,-0.065111,0.080474,0.003085,-0.116196,-0.993222,-0.030612,0.002899,-0.007419,13.141775,10.414429,-47.232742,,,,,,,
1530638700.371861,0.001122,0.116351,-0.872850,-0.007621,-0.099196,0.060952,0.001115,-0.116088,-0.993238,-0.018159,0.009613,-0.024859,13.142939,10.256256,-47.387863,,,,,,,
1530638700.391830,-0.000756,0.116127,-0.871827,-0.008553,-0.075910,0.045975,-0.000751,-0.115866,-0.993265,-0.014111,0.011618,-0.023841,13.004255,10.484314,-47.219818,,,,,,,
1530638700.411799,-0.001787,0.116155,-0.871013,0.009326,-0.030603,0.038452,-0.001775,-0.115894,-0.993260,-0.008586,0.003559,-0.017559,12.978765,10.313454,-47.328720,,,,,,,
,,,,,,,,,,,,,,,,39.779335,-84.063523,291.682892,-1.000000,-1.000000,1530638700.347276,
1530638700.431768,-0.002364,0.116510,-0.870423,0.025162,-0.019479,0.025397,-0.002348,-0.116247,-0.993218,-0.005785,0.002080,-0.014641,12.846498,10.352486,-47.050858,,,,,,,
1530638700.451737,-0.002948,0.117167,-0.869912,0.039816,-0.028335,0.028426,-0.002927,-0.116899,-0.993140,0.005201,-0.003356,-0.012048,12.766794,10.530991,-47.048874,,,,,,,
1530638700.471706,-0.003529,0.117828,-0.869382,0.022015,-0.019478,0.025430,-0.003505,-0.117556,-0.993060,0.007289,-0.005903,-0.005368,12.944456,10.326492,-47.185562,,,,,,,
1530638700.491675,-0.003625,0.117937,-0.868747,-0.003233,0.008066,0.034459,-0.003600,-0.117664,-0.993047,0.004973,-0.013440,0.006444,12.868040,10.097069,-47.365189,,,,,,,
1530638700.511645,-0.003704,0.117672,-0.868093,-0.019974,-0.002939,0.030271,-0.003678,-0.117401,-0.993078,0.006974,-0.010697,0.006917,12.838816,10.127052,-47.143448,,,,,,,
1530638700.531614,-0.003593,0.117078,-0.867541,-0.036718,0.019181,0.025160,-0.003569,-0.116811,-0.993148,0.009123,-0.013362,0.013183,12.929304,10.305565,-47.186066,,,,,,,
1530638700.551583,-0.003345,0.116255,-0.867170,-0.043959,0.003810,0.013299,-0.003322,-0.115993,-0.993244,0.002498,-0.008107,0.009114,12.892485,10.598930,-47.220352,,,,,,,
1530638700.571552,-0.003402,0.115512,-0.867060,-0.037570,-0.000525,0.001344,-0.003379,-0.115256,-0.993330,0.003593,-0.007898,-0.005083,12.956102,10.324303,-47.207565,,,,,,,
1530638700.591521,-0.003200,0.114871,-0.867058,-0.028114,0.011630,-0.000850,-0.003179,-0.114618,-0.993404,0.004049,-0.000326,-0.007587,12.881323,10.402779,-47.312576,,,,,,,
1530638700.612726,-0.003277,0.114635,-0.867336,-0.005962,-0.012556,-0.016304,-0.003256,-0.114385,-0.993431,0.001714,0.000264,-0.012718,12.897848,10.331909,-47.385529,,,,,,,
1530638700.632696,-0.003423,0.114904,-0.867761,0.021357,-0.009207,-0.023052,-0.003401,-0.114651,-0.993400,0.000853,0.001782,-0.014535,12.982370,10.307823,-47.478806,,,,,,,
1530638700.652665,-0.003566,0.115459,-0.868524,0.030974,-0.014580,-0.044748,-0.003542,-0.115203,-0.993336,0.003145,-0.000428,-0.007000,12.903917,10.398918,-47.495605,,,,,,,
1530638700.672634,-0.003721,0.116118,-0.869549,0.035229,-0.013424,-0.052340,-0.003696,-0.115857,-0.993259,0.000430,-0.001911,-0.010815,12.865778,10.303558,-47.430191,,,,,,,
1530638700.692603,-0.003845,0.116842,-0.870683,0.037380,-0.013380,-0.058833,-0.003818,-0.116577,-0.993174,0.003055,0.000228,-0.015218,12.848330,10.176170,-47.568451,,,,,,,
1530638700.712572,-0.003867,0.117881,-0.871772,0.062452,-0.005742,-0.047198,-0.003840,-0.117609,-0.993053,0.015391,0.001520,-0.022466,12.842524,10.120178,-47.541229,,,,,,,
1530638700.732541,-0.004072,0.119427,-0.872534,0.081227,-0.021290,-0.034533,-0.004043,-0.119143,-0.992869,0.009002,0.002444,-0.016943,12.860788,10.021004,-47.736877,,,,,,,
1530638700.752510,-0.004752,0.121168,-0.873247,0.092813,-0.045541,-0.040167,-0.004717,-0.120871,-0.992657,0.005480,-0.001153,-0.002964,12.770357,10.028122,-47.497787,,,,,,,
1530638700.772479,-0.005902,0.123196,-0.873919,0.104277,-0.073208,-0.030714,-0.005858,-0.122885,-0.992404,0.005934,-0.003626,0.003665,12.678408,9.922989,-47.714569,,,,,,,
1530638700.792448,-0.007331,0.125104,-0.874433,0.086386,-0.072152,-0.022971,-0.007274,-0.124777,-0.992158,0.011211,-0.003885,0.008699,12.694860,9.847710,-47.644897,,,,,,,
1530638700.812418,-0.008279,0.126547,-0.874856,0.060168,-0.035710,-0.023592,-0.008212,-0.126210,-0.991970,0.002612,-0.005764,0.024181,12.634970,10.047188,-47.771652,,,,,,,
1530638700.832387,-0.008265,0.127283,-0.875400,0.025572,0.011789,-0.026235,-0.008198,-0.126939,-0.991877,-0.003323,-0.008421,0.021601,12.539492,10.079918,-47.729599,,,,,,,
1530638700.852356,-0.007820,0.127684,-0.875683,0.020142,0.014945,-0.003514,-0.007757,-0.127337,-0.991829,0.005239,-0.004865,0.001930,12.612677,9.943405,-47.670685,,,,,,,
1530638700.872325,-0.007826,0.127995,-0.875679,0.006506,-0.012656,-0.002424,-0.007762,-0.127646,-0.991789,0.003871,0.008215,-0.001542,12.502642,10.023918,-47.709305,,,,,,,
1530638700.892294,-0.007946,0.127523,-0.876014,-0.053106,-0.001461,-0.022221,-0.007881,-0.127177,-0.991849,-0.001778,0.011256,-0.001163,12.378229,9.873627,-47.604263,,,,,,,
1530638700.912263,-0.007715,0.126210,-0.876427,-0.067873,0.011723,-0.012297,-0.007654,-0.125875,-0.992017,-0.005560,0.006689,-0.011905,12.436102,10.163628,-47.400253,,,,,,,
1530638700.932232,-0.007661,0.124997,-0.876839,-0.063575,-0.006962,-0.024293,-0.007601,-0.124671,-0.992169,-0.004576,0.004539,-0.006336,12.529032,10.047501,-47.441422,,,,,,,
1530638700.952201,-0.008021,0.124096,-0.877132,-0.024941,-0.040237,-0.003298,-0.007960,-0.123777,-0.992278,-0.001974,-0.000277,-0.014848,12.790464,9.974495,-47.376526,,,,,,,
1530638700.972171,-0.009607,0.124406,-0.876908,0.039868,-0.097850,0.023776,-0.009532,-0.124086,-0.992226,-0.005894,-0.000273,-0.018608,12.457026,10.035065,-47.363876,,,,,,,
1530638700.992140,-0.011511,0.125629,-0.876152,0.064873,-0.073705,0.043036,-0.011420,-0.125299,-0.992053,-0.012918,-0.002845,0.002963,12.389013,9.964134,-47.522705,,,,,,,
1530638701.012109,-0.012396,0.126440,-0.875374,0.024033,-0.026168,0.035079,-0.012297,-0.126103,-0.991941,-0.009737,-0.002971,0.005536,12.471727,9.848923,-47.519012,,,,,,,
1530638701.032078,-0.013263,0.126913,-0.874293,0.032300,-0.036209,0.050036,-0.013156,-0.126573,-0.991870,-0.004346,0.001954,-0.013654,12.367155,9.917244,-47.846024,,,,,,,
1530638701.052047,-0.014172,0.128167,-0.873525,0.081736,-0.052661,0.032174,-0.014055,-0.127816,-0.991698,0.008379,0.008950,-0.020860,12.384691,9.778732,-47.844818,,,,,,,
1530638701.072016,-0.015404,0.130335,-0.872849,0.121621,-0.042706,0.027482,-0.015272,-0.129967,-0.991401,0.011229,-0.000923,0.000861,12.258783,10.023125,-47.849426,,,,,,,
1530638701.091985,-0.015728,0.132381,-0.872750,0.076859,-0.001561,-0.013902,-0.015590,-0.131995,-0.991128,0.003886,-0.006814,0.011788,12.299490,9.948898,-47.780701,,,,,,,
1530638701.111954,-0.015294,0.133130,-0.873349,0.018298,0.025097,-0.034721,-0.015158,-0.132737,-0.991035,0.008490,-0.008910,0.002556,12.372602,9.782066,-47.783066,,,,,,,
1530638701.131924,-0.014968,0.133286,-0.874111,0.003657,-0.004674,-0.039022,-0.014835,-0.132892,-0.991019,0.012881,-0.005612,-0.004922,12.221907,9.675308,-47.893677,,,,,,,
1530638701.151893,-0.015385,0.133265,-0.874966,-0.005749,-0.037766,-0.042320,-0.015248,-0.132871,-0.991016,0.014287,-0.008548,-0.006955,12.141905,9.903252,-47.912613,,,,,,,
1530638701.171862,-0.015864,0.133093,-0.875584,-0.005919,-0.019142,-0.021735,-0.015723,-0.132700,-0.991031,0.016563,-0.008352,-0.007794,12.184774,9.819672,-47.858856,,,,,,,
1530638701.191831,-0.015969,0.133062,-0.875995,-0.000679,-0.005896,-0.021728,-0.015827,-0.132669,-0.991034,0.011280,-0.006933,-0.003061,12.232500,9.783005,-48.064285,,,,,,,
1530638701.211800,-0.016068,0.133087,-0.876436,-0.001735,-0.010319,-0.020658,-0.015926,-0.132695,-0.991029,0.010097,-0.010601,0.001954,12.168344,9.598175,-47.881531,,,,,,,
1530638701.231769,-0.016357,0.133043,-0.876945,-0.001679,-0.023521,-0.027193,-0.016212,-0.132651,-0.991030,0.014045,-0.004663,-0.003339,12.070333,9.546730,-47.889771,,,,,,,
1530638701.251738,-0.016806,0.133094,-0.877377,0.003493,-0.026893,-0.018641,-0.016656,-0.132701,-0.991016,0.014352,-0.005299,-0.007977,12.253073,9.452576,-47.875473,,,,,,,
1530638701.271708,-0.017295,0.133213,-0.877774,0.003485,-0.024693,-0.017549,-0.017141,-0.132819,-0.990992,0.015096,-0.002846,-0.007787,12.161337,9.719284,-47.795303,,,,,,,
1530638701.291677,-0.017485,0.133325,-0.878158,0.003489,-0.004816,-0.018531,-0.017329,-0.132930,-0.990974,0.015651,-0.002904,-0.005807,12.080786,9.501472,-48.014282,,,,,,,
1530638701.311646,-0.017378,0.133382,-0.878589,0.004563,-0.003690,-0.021775,-0.017222,-0.132987,-0.990968,0.014812,-0.001489,-0.006880,12.130869,9.510986,-47.922302,,,,,,,
1530638701.331615,-0.017652,0.133528,-0.879083,0.005654,-0.025738,-0.026205,-0.017494,-0.133132,-0.990944,0.012000,-0.001924,-0.002876,12.053190,9.490051,-48.114929,,,,,,,
1530638701.351584,-0.018263,0.133551,-0.879651,-0.002709,-0.040063,-0.029425,-0.018099,-0.133154,-0.990930,0.012194,-0.001703,0.003564,11.954233,9.681824,-47.941025,,,,,,,
1530638701.371553,-0.018928,0.133138,-0.880332,-0.034110,-0.040003,-0.036640,-0.018759,-0.132745,-0.990973,0.004248,-0.005927,0.006262,12.007368,9.601028,-47.927521,,,,,,,
1530638701.391523,-0.019513,0.132148,-0.881159,-0.054038,-0.031167,-0.036383,-0.019341,-0.131764,-0.991092,0.012719,-0.000210,-0.007122,11.840822,9.820808,-48.080841,,,,,,,
1530638701.411492,-0.020051,0.131525,-0.881701,-0.013301,-0.036839,-0.016350,-0.019877,-0.131147,-0.991164,0.018046,-0.002963,-0.020845,11.896799,9.703377,-48.257172,,,,,,,
1530638701.431461,-0.020752,0.131567,-0.882046,0.008714,-0.034644,-0.015495,-0.020571,-0.131188,-0.991144,0.014056,-0.001594,-0.014151,11.959753,9.742966,-48.087708,,,,,,,
1530638701.451430,-0.021265,0.131919,-0.882262,0.019128,-0.024771,-0.006933,-0.021078,-0.131537,-0.991087,0.013327,-0.002054,-0.012545,11.816004,9.873856,-47.963470,,,,,,,
1530638701.471399,-0.021490,0.132646,-0.882321,0.044240,-0.004953,-0.000635,-0.021299,-0.132258,-0.990986,0.014570,-0.002249,-0.001445,11.872400,9.677864,-47.852997,,,,,,,
1530638701.491368,-0.021550,0.133881,-0.882217,0.072468,-0.002827,0.009860,-0.021356,-0.133482,-0.990821,0.020913,-0.009539,-0.001992,11.795183,9.739769,-47.950745,,,,,,,
1530638701.511337,-0.021647,0.135264,-0.881688,0.059680,0.001421,0.034823,-0.021447,-0.134852,-0.990634,0.020928,-0.001058,-0.004377,11.885248,9.596687,-48.080917,,,,,,,
1530638701.531307,-0.021628,0.135810,-0.880877,0.005098,0.005813,0.040816,-0.021427,-0.135393,-0.990560,0.011265,0.004335,-0.002405,11.921713,9.485344,-47.907898,,,,,,,
1530638701.551276,-0.021757,0.135143,-0.880209,-0.052475,-0.007329,0.028423,-0.021557,-0.134732,-0.990647,0.000362,0.003659,0.004518,11.850412,9.584625,-48.087982,,,,,,,
1530638701.571245,-0.022174,0.133852,-0.879841,-0.064939,-0.027100,0.014445,-0.021974,-0.133453,-0.990812,-0.003295,0.001266,0.000440,11.734995,9.712898,-48.030762,,,,,,,
1530638701.591214,-0.022757,0.132690,-0.879688,-0.052282,-0.028147,0.005678,-0.022555,-0.132301,-0.990953,-0.011228,0.002342,0.001680,11.815653,9.706032,-47.981049,,,,,,,
1530638701.611183,-0.023197,0.132001,-0.879628,-0.025017,-0.022634,0.005411,-0.022993,-0.131618,-0.991034,-0.012010,0.000499,-0.007013,11.983999,9.675972,-48.082611,,,,,,,
1530638701.631152,-0.023587,0.131764,-0.879422,-0.000986,-0.018299,0.015959,-0.023380,-0.131383,-0.991056,-0.011776,0.001531,-0.006640,11.804716,9.780190,-48.210983,,,,,,,
1530638701.651122,-0.023954,0.131941,-0.879057,0.015732,-0.015044,0.023346,-0.023743,-0.131558,-0.991024,-0.012923,-0.000598,-0.008121,11.691114,9.883545,-48.093231,,,,,,,
1530638701.671091,-0.024219,0.132192,-0.878405,0.010378,0.000322,0.036419,-0.024006,-0.131808,-0.990985,-0.009747,0.000613,-0.004377,11.772337,9.705307,-48.143265,,,,,,,
1530638701.691060,-0.024191,0.132226,-0.877503,-0.000188,0.007984,0.046279,-0.023978,-0.131841,-0.990981,-0.004801,-0.001261,-0.006013,11.728460,9.543297,-47.815659,,,,,,,
1530638701.711029,-0.024132,0.132127,-0.876599,-0.003318,0.009104,0.044160,-0.023919,-0.131743,-0.990995,-0.001486,-0.000765,0.000059,11.704329,9.791336,-48.071075,,,,,,,
1530638701.730998,-0.024400,0.132160,-0.875813,0.009343,-0.015125,0.035280,-0.024185,-0.131775,-0.990984,0.004333,-0.001251,-0.007703,11.897665,9.697548,-48.109879,,,,,,,
1530638701.750967,-0.024867,0.132471,-0.875200,0.017812,-0.017267,0.025469,-0.024646,-0.132084,-0.990932,0.003986,0.001255,-0.003315,11.823496,9.507408,-48.296387,,,,,,,
1530638701.770937,-0.025175,0.132521,-0.874898,-0.004082,-0.010527,0.009558,-0.024952,-0.132134,-0.990918,0.002826,0.000145,-0.005359,11.909842,9.458183,-48.177841,,,,,,,
1530638701.790906,-0.025277,0.132283,-0.874694,-0.016695,0.000493,0.012983,-0.025053,-0.131898,-0.990947,0.008177,-0.002898,-0.003774,11.875494,9.647766,-48.203018,,,,,,,
1530638701.810875,-0.025355,0.132008,-0.874475,-0.011405,-0.009406,0.007485,-0.025132,-0.131625,-0.990981,0.004349,-0.002683,-0.010713,11.760538,9.669952,-48.348846,,,,,,,
1530638701.830844,-0.025638,0.131961,-0.874246,0.002193,-0.009439,0.011654,-0.025412,-0.131578,-0.990980,0.003989,-0.002180,-0.009157,11.828596,9.647316,-48.113861,,,,,,,
1530638701.850813,-0.025660,0.132128,-0.874019,0.012668,0.004901,0.012688,-0.025434,-0.131744,-0.990957,0.007627,-0.005722,-0.013803,11.841398,9.744980,-48.171432,,,,,,,
1530638701.870782,-0.025487,0.132272,-0.873709,0.004234,0.013697,0.018218,-0.025262,-0.131886,-0.990943,0.009469,-0.005641,-0.008477,11.880884,9.815384,-48.155060,,,,,,,
1530638701.890753,-0.025118,0.132208,-0.873288,-0.010469,0.022516,0.020574,-0.024896,-0.131823,-0.990961,0.007333,-0.005490,-0.008689,11.967863,9.635658,-48.205338,,,,,,,
1530638701.910722,-0.024670,0.132059,-0.872936,-0.000985,0.021447,0.015076,-0.024453,-0.131675,-0.990991,0.008263,-0.003350,-0.010962,11.970224,9.674644,-48.036972,,,,,,,
1530638701.930691,-0.024394,0.132299,-0.872621,0.022078,0.010396,0.015849,-0.024179,-0.131914,-0.990966,0.006433,-0.004652,-0.010895,12.001474,9.659767,-48.411667,,,,,,,
1530638701.950660,-0.024287,0.132929,-0.872310,0.032569,0.008185,0.015732,-0.024070,-0.132538,-0.990886,0.005241,-0.008682,0.006633,11.986670,9.675148,-48.191040,,,,,,,
1530638701.970628,-0.024018,0.133281,-0.872020,0.006381,0.014845,0.011724,-0.023803,-0.132886,-0.990845,0.005722,-0.011157,0.007188,11.914167,9.729195,-48.264175,,,,,,,
1530638701.990597,-0.023682,0.133139,-0.871939,-0.013473,0.013806,0.003306,-0.023471,-0.132746,-0.990872,0.003070,-0.008368,-0.002277,11.879526,9.644806,-48.097244,,,,,,,
1530638702.010567,-0.023480,0.132932,-0.871804,-0.007241,0.007129,0.010756,-0.023271,-0.132541,-0.990904,0.005830,-0.003003,-0.015321,11.914709,9.669701,-48.104218,,,,,,,
1530638702.030536,-0.023357,0.133053,-0.871481,0.013647,0.007049,0.021318,-0.023149,-0.132661,-0.990891,0.002488,0.000932,-0.017898,11.947912,9.682655,-48.256836,,,,,,,
1530638702.050505,-0.023216,0.133456,-0.871043,0.022017,0.015863,0.023429,-0.023008,-0.133061,-0.990841,0.000943,-0.001766,-0.008335,11.924288,9.518517,-48.220932,,,,,,,
1530638702.070474,-0.022695,0.133862,-0.870517,0.022003,0.034621,0.024597,-0.022490,-0.133463,-0.990799,0.000029,-0.001257,-0.006791,11.927671,9.303009,-48.177826,,,,,,,
1530638702.090443,-0.022119,0.134340,-0.870182,0.024217,0.030302,0.010535,-0.021918,-0.133937,-0.990747,-0.000360,-0.002736,0.000422,12.060553,9.345901,-48.220978,,,,,,,
1530638702.110412,-0.021918,0.134758,-0.870208,0.019114,-0.000494,-0.005735,-0.021717,-0.134350,-0.990696,0.002613,-0.007221,0.003162,12.080061,9.531395,-47.997269,,,,,,,
1530638702.130383,-0.021973,0.134986,-0.870294,0.008589,-0.007143,-0.001349,-0.021771,-0.134576,-0.990664,0.003324,0.003885,-0.011671,12.010820,9.220604,-48.070084,,,,,,,
1530638702.150352,-0.022132,0.135205,-0.870342,0.012804,-0.008234,-0.003551,-0.021928,-0.134794,-0.990631,-0.005949,0.005918,-0.006775,11.896585,9.416832,-48.088959,,,,,,,
1530638702.170321,-0.021999,0.135644,-0.870511,0.030680,0.019403,-0.010078,-0.021795,-0.135229,-0.990575,-0.002054,-0.000743,-0.000819,12.086477,9.673302,-48.101120,,,,,,,
1530638702.190289,-0.021301,0.136816,-0.870569,0.074606,0.036958,0.003554,-0.021100,-0.136390,-0.990431,0.008771,-0.003579,-0.002367,12.059027,9.456200,-48.244492,,,,,,,
1530638702.210258,-0.020669,0.138390,-0.870253,0.075499,0.030200,0.022925,-0.020470,-0.137949,-0.990228,0.013741,0.000269,0.000054,12.003252,9.256157,-48.315475,,,,,,,
1530638702.230228,-0.020190,0.139220,-0.869620,0.018823,0.029073,0.028917,-0.019994,-0.138771,-0.990123,0.012212,0.005653,0.001429,12.076689,9.416161,-48.057953,,,,,,,
1530638702.250197,-0.020040,0.138819,-0.869292,-0.041830,-0.000575,0.008932,-0.019846,-0.138374,-0.990181,0.005960,0.002647,0.010933,11.954248,9.453796,-48.108093,,,,,,,
1530638702.270166,-0.020289,0.137665,-0.869429,-0.063664,-0.022490,-0.013591,-0.020096,-0.137231,-0.990335,0.005493,0.000482,0.004144,11.997049,9.239357,-48.207993,,,,,,,
1530638702.290135,-0.020860,0.136718,-0.869694,-0.036429,-0.033566,-0.009621,-0.020664,-0.136292,-0.990453,0.003482,-0.000442,-0.002116,11.924135,9.497192,-48.022141,,,,,,,
1530638702.310104,-0.021178,0.136552,-0.869742,0.003292,-0.004979,0.005190,-0.020979,-0.136128,-0.990469,0.000914,-0.000774,-0.002832,11.997217,9.465675,-48.142441,,,,,,,
1530638702.330073,-0.021150,0.136599,-0.869586,0.000102,0.000504,0.010645,-0.020951,-0.136175,-0.990463,-0.000823,-0.005274,0.001450,11.981264,9.613029,-48.025558,,,,,,,
1530638702.350044,-0.021229,0.136367,-0.869323,-0.018829,-0.000640,0.017310,-0.021030,-0.135945,-0.990493,0.001270,-0.008220,0.004165,11.986246,9.448074,-48.063019,,,,,,,
1530638702.370013,-0.021242,0.135739,-0.868949,-0.037742,0.002646,0.021844,-0.021045,-0.135322,-0.990578,0.005771,-0.008553,0.001442,11.958391,9.561821,-48.038681,,,,,,,
1530638702.389982,-0.021247,0.135064,-0.868616,-0.028248,-0.000623,0.015260,-0.021052,-0.134654,-0.990669,0.010051,-0.007497,0.000267,12.035673,9.509918,-48.034729,,,,,,,
1530638702.409950,-0.021517,0.134682,-0.868367,-0.011467,-0.017185,0.014995,-0.021320,-0.134275,-0.990715,0.010593,-0.008441,-0.009423,12.060625,9.440765,-48.100784,,,,,,,
1530638702.429919,-0.021869,0.134598,-0.868071,-0.004108,-0.019379,0.012747,-0.021670,-0.134192,-0.990718,0.008654,-0.009134,-0.008992,11.961569,9.238075,-48.136948,,,,,,,
1530638702.449889,-0.022262,0.134327,-0.867909,-0.026059,-0.019315,0.004358,-0.022060,-0.133923,-0.990746,0.002620,-0.012210,0.002251,11.949087,9.385277,-48.206146,,,,,,,
1530638702.469858,-0.022577,0.133399,-0.867926,-0.056412,-0.017047,-0.002857,-0.022375,-0.133004,-0.990863,0.004598,-0.013557,0.002460,12.118097,9.418877,-48.152115,,,,,,,
1530638702.489827,-0.022981,0.132251,-0.868091,-0.056350,-0.021410,-0.010429,-0.022778,-0.131866,-0.991006,-0.003208,-0.006516,-0.001838,12.053507,9.614334,-48.200821,,,,,,,
1530638702.509796,-0.023611,0.131179,-0.868423,-0.048944,-0.040126,-0.018151,-0.023406,-0.130803,-0.991132,-0.011201,-0.005168,-0.020236,11.932180,9.681587,-48.063293,,,,,,,
1530638702.529765,-0.024147,0.130326,-0.868850,-0.043686,-0.026866,-0.020300,-0.023940,-0.129957,-0.991230,-0.010744,-0.004747,-0.017818,12.113894,9.558403,-48.062805,,,,,,,
1530638702.549736,-0.024698,0.129368,-0.869285,-0.054190,-0.031293,-0.018052,-0.024489,-0.129007,-0.991341,-0.010255,-0.007773,-0.020515,11.884935,9.686333,-47.990036,,,,,,,
1530638702.569705,-0.025345,0.128188,-0.869673,-0.064630,-0.042292,-0.023386,-0.025135,-0.127837,-0.991477,-0.016278,-0.004883,-0.019159,11.813471,9.854019,-48.053452,,,,,,,
1530638702.589674,-0.026091,0.126994,-0.870363,-0.058224,-0.039989,-0.037463,-0.025878,-0.126653,-0.991609,-0.014267,-0.005473,-0.008253,11.790731,10.093956,-47.984802,,,,,,,
1530638702.609643,-0.026698,0.126055,-0.871358,-0.042362,-0.035466,-0.053790,-0.026483,-0.125721,-0.991712,-0.010840,-0.006115,-0.005938,11.860048,10.130196,-47.901459,,,,,,,
1530638702.629611,-0.027241,0.125579,-0.872603,-0.015017,-0.030990,-0.063767,-0.027023,-0.125249,-0.991757,-0.007584,-0.004283,-0.007266,11.761198,10.090553,-47.870178,,,,,,,
1530638702.649581,-0.027864,0.125689,-0.873927,0.009133,-0.042012,-0.067314,-0.027641,-0.125358,-0.991726,-0.005715,-0.004967,-0.005985,11.666162,9.919472,-47.977249,,,,,,,
1530638702.669550,-0.028356,0.125925,-0.875270,0.004934,-0.024349,-0.067184,-0.028127,-0.125593,-0.991683,-0.007761,-0.009280,0.007095,11.575518,10.082123,-47.828903,,,,,,,
1530638702.689519,-0.028451,0.125980,-0.876473,0.000611,-0.003479,-0.051938,-0.028222,-0.125647,-0.991674,0.005990,-0.012155,0.008168,11.589685,10.054375,-48.036331,,,,,,,
1530638702.709488,-0.028364,0.126178,-0.877207,0.018226,0.001857,-0.026217,-0.028135,-0.125843,-0.991651,0.017194,-0.006038,-0.000628,11.682547,9.966965,-48.238098,,,,,,,
1530638702.729457,-0.028243,0.126802,-0.877474,0.035906,0.002830,-0.008066,-0.028012,-0.126462,-0.991576,0.016782,-0.000369,0.000014,11.785063,9.979614,-48.118362,,,,,,,
1530638702.749428,-0.028168,0.127287,-0.877599,0.011777,-0.003795,-0.006762,-0.027936,-0.126944,-0.991516,0.016385,0.000372,0.004364,11.644793,10.017464,-48.286041,,,,,,,
1530638702.769397,-0.028299,0.127148,-0.877751,-0.018616,-0.012604,-0.008634,-0.028067,-0.126806,-0.991530,0.013678,0.004034,0.001906,11.656443,10.022575,-48.111618,,,,,,,
1530638702.789366,-0.028602,0.126629,-0.877980,-0.028065,-0.015920,-0.007476,-0.028370,-0.126291,-0.991587,0.012806,0.005930,-0.006765,11.484262,9.977005,-47.963440,,,,,,,
1530638702.809335,-0.028800,0.126199,-0.878053,-0.019738,-0.010454,0.000010,-0.028567,-0.125864,-0.991636,0.004016,0.008432,-0.005907,11.495600,9.838318,-48.044876,,,,,,,
1530638702.829304,-0.029008,0.125846,-0.878190,-0.017567,-0.019227,-0.008682,-0.028775,-0.125514,-0.991674,-0.001972,0.007319,-0.000360,11.436281,10.054649,-48.045227,,,,,,,
1530638702.849273,-0.029433,0.125512,-0.878544,-0.018518,-0.024664,-0.020562,-0.029197,-0.125183,-0.991704,-0.008050,0.007690,0.001714,11.449438,9.976654,-48.121277,,,,,,,
1530638702.869242,-0.029726,0.125132,-0.879066,-0.017436,-0.012492,-0.024826,-0.029489,-0.124806,-0.991743,-0.007986,0.004323,-0.004137,11.537531,9.889282,-47.793350,,,,,,,
1530638702.889211,-0.029793,0.124853,-0.879532,-0.010122,-0.004789,-0.021630,-0.029556,-0.124529,-0.991776,-0.007736,0.003878,-0.005875,11.461889,10.038521,-47.992111,,,,,,,
1530638702.909180,-0.029825,0.124640,-0.880052,-0.010082,-0.004751,-0.027030,-0.029589,-0.124317,-0.991801,-0.005948,0.002613,-0.003926,11.403894,10.099770,-48.098236,,,,,,,
1530638702.929149,-0.029984,0.124383,-0.880659,-0.013179,-0.015752,-0.032437,-0.029748,-0.124062,-0.991828,-0.008826,-0.001350,0.000190,11.396868,10.051506,-48.157745,,,,,,,
1530638702.949119,-0.030315,0.124129,-0.881389,-0.010006,-0.023457,-0.035748,-0.030078,-0.123810,-0.991850,-0.002759,-0.005935,0.000212,11.542593,10.097160,-48.119720,,,,,,,
1530638702.969088,-0.030641,0.124056,-0.882024,-0.003768,-0.016880,-0.029310,-0.030401,-0.123738,-0.991849,-0.006449,-0.011669,0.004071,11.427732,10.018089,-48.314026,,,,,,,
1530638702.989057,-0.030711,0.123827,-0.882522,-0.015377,0.000725,-0.020471,-0.030471,-0.123511,-0.991875,-0.004578,-0.006967,-0.009208,11.521292,9.912399,-48.011719,,,,,,,
1530638703.009026,-0.030597,0.123484,-0.882990,-0.018500,0.005164,-0.023655,-0.030359,-0.123170,-0.991921,0.001291,-0.003981,-0.012580,11.406420,10.196350,-47.884338,,,,,,,
1530638703.028996,-0.030282,0.123459,-0.883565,0.008822,0.016239,-0.030357,-0.030047,-0.123145,-0.991934,0.006960,-0.009820,-0.011835,11.358969,10.127525,-48.026093,,,,,,,
1530638703.048965,-0.029695,0.124291,-0.884108,0.060152,0.030533,-0.024370,-0.029462,-0.123971,-0.991848,0.018720,-0.011542,-0.018192,11.428194,10.061707,-48.044235,,,,,,,
1530638703.068934,-0.029102,0.125790,-0.884172,0.071434,0.032521,0.006799,-0.028868,-0.125459,-0.991679,0.024656,-0.010833,-0.015706,11.451742,9.961349,-48.130005,,,,,,,
1530638703.088903,-0.028527,0.126563,-0.883875,0.012616,0.029150,0.018195,-0.028295,-0.126225,-0.991598,0.019033,-0.003978,-0.005228,11.637594,9.894066,-47.974670,,,,,,,
1530638703.108872,-0.028248,0.126028,-0.883721,-0.048064,-0.000520,0.001443,-0.028020,-0.125694,-0.991673,0.011540,-0.003868,-0.001903,11.562960,9.975990,-48.093292,,,,,,,
1530638703.128842,-0.028314,0.124946,-0.883896,-0.050055,-0.008157,-0.011518,-0.028090,-0.124621,-0.991807,0.010115,-0.000333,-0.007476,11.829519,9.984360,-47.957397,,,,,,,
1530638703.148811,-0.028418,0.124479,-0.884150,-0.006043,-0.005990,-0.007663,-0.028195,-0.124158,-0.991862,0.009380,0.000409,-0.012685,11.642756,10.180138,-48.152786,,,,,,,
1530638703.168780,-0.028507,0.125006,-0.884258,0.040067,-0.007136,-0.003845,-0.028281,-0.124680,-0.991794,0.000128,-0.000777,-0.008191,11.485285,10.122368,-48.155457,,,,,,,
1530638703.188749,-0.028579,0.125906,-0.884170,0.041026,0.001620,0.006973,-0.028349,-0.125574,-0.991679,-0.002840,-0.003775,0.001643,11.604021,10.016823,-48.298813,,,,,,,
1530638703.208719,-0.028305,0.126398,-0.883897,0.016810,0.022526,0.018113,-0.028076,-0.126062,-0.991625,-0.004242,-0.004172,0.003420,11.590437,9.857155,-48.171814,,,,,,,
1530638703.228688,-0.027895,0.126336,-0.883501,-0.008402,0.023599,0.023783,-0.027669,-0.126000,-0.991644,-0.000361,-0.002952,0.001837,11.632368,9.753044,-48.373993,,,,,,,
1530638703.248657,-0.027479,0.126152,-0.883046,-0.006280,0.019206,0.020498,-0.027257,-0.125818,-0.991679,0.002278,0.000848,-0.002248,11.591913,9.914490,-48.320557,,,,,,,
1530638703.268626,-0.027294,0.126196,-0.882732,0.008460,0.009311,0.013827,-0.027073,-0.125862,-0.991678,0.000233,0.002143,-0.005697,11.549059,10.142990,-48.268661,,,,,,,
1530638703.288595,-0.027237,0.126538,-0.882634,0.017987,0.006072,0.002924,-0.027016,-0.126200,-0.991637,0.003594,-0.000326,-0.006349,11.667681,9.798820,-48.273361,,,,,,,
1530638703.308565,-0.027043,0.126793,-0.882504,0.005372,0.013780,0.006328,-0.026822,-0.126453,-0.991610,-0.001696,-0.003414,-0.002073,11.676474,9.779861,-48.378708,,,,,,,
1530638703.328534,-0.026838,0.126617,-0.882484,-0.018674,0.005014,-0.002081,-0.026620,-0.126279,-0.991638,-0.006721,-0.006045,0.007018,11.736097,9.819115,-48.114243,,,,,,,
1530638703.348503,-0.026638,0.125973,-0.882648,-0.040630,0.009495,-0.010456,-0.026424,-0.125640,-0.991724,-0.004063,-0.009217,0.009073,11.691500,9.714920,-48.019409,,,,,,,
1530638703.368472,-0.026409,0.125261,-0.882899,-0.029077,0.011715,-0.012725,-0.026199,-0.124934,-0.991819,-0.003327,-0.008153,-0.000796,11.661478,9.811005,-47.878998,,,,,,,
1530638703.388442,-0.026086,0.124906,-0.883130,-0.008112,0.018326,-0.011839,-0.025880,-0.124582,-0.991872,0.001176,-0.005743,-0.010554,11.649481,9.874947,-47.954926,,,,,,,
1530638703.408411,-0.025671,0.124936,-0.883408,0.002410,0.018353,-0.016267,-0.025468,-0.124611,-0.991879,0.001450,-0.006462,-0.009784,11.601969,9.996414,-47.885818,,,,,,,
1530638703.428380,-0.025292,0.124972,-0.883842,-0.004886,0.017288,-0.021583,-0.025092,-0.124647,-0.991884,0.004630,-0.012835,-0.003447,11.670721,10.015350,-47.810532,,,,,,,
1530638703.448349,-0.024864,0.124767,-0.884371,-0.015342,0.023944,-0.025759,-0.024669,-0.124443,-0.991920,0.006800,-0.011116,-0.010384,11.779310,9.767624,-48.020218,,,,,,,
1530638703.468318,-0.024385,0.124573,-0.884790,-0.010148,0.015067,-0.019384,-0.024193,-0.124251,-0.991956,0.006783,-0.008150,-0.012393,11.782938,9.910355,-47.989929,,,,,,,
1530638703.488288,-0.024085,0.124248,-0.885378,-0.023683,0.012944,-0.031109,-0.023897,-0.123928,-0.992003,0.004686,-0.009159,-0.009858,11.899622,10.069885,-47.998947,,,,,,,
1530638703.508257,-0.023734,0.123660,-0.886081,-0.032032,0.014088,-0.036413,-0.023550,-0.123345,-0.992084,0.004752,-0.006370,-0.008938,11.796972,9.910614,-47.972824,,,,,,,
1530638703.528226,-0.023627,0.123055,-0.886923,-0.031961,-0.013458,-0.044090,-0.023446,-0.122745,-0.992161,0.004464,-0.010067,0.002171,11.898829,10.017136,-48.113525,,,,,,,
1530638703.548195,-0.023862,0.122360,-0.888014,-0.040228,-0.021078,-0.059143,-0.023682,-0.122055,-0.992241,-0.005829,-0.007019,-0.001763,11.721918,10.053375,-48.166718,,,,,,,
1530638703.568165,-0.024256,0.121472,-0.889259,-0.049631,-0.026565,-0.063384,-0.024075,-0.121173,-0.992339,-0.012943,-0.010037,-0.004609,11.552645,10.394188,-48.189560,,,,,,,
1530638703.588134,-0.024270,0.120515,-0.890679,-0.047461,0.002203,-0.072975,-0.024092,-0.120223,-0.992454,-0.013567,0.001220,-0.020241,11.689245,10.246796,-48.198547,,,,,,,
1530638703.608103,-0.023744,0.120114,-0.892223,-0.001284,0.020987,-0.077688,-0.023571,-0.119826,-0.992515,-0.008198,-0.002138,-0.029564,11.728807,10.283760,-48.220032,,,,,,,
1530638703.628072,-0.023042,0.120674,-0.893591,0.038432,0.037423,-0.061857,-0.022873,-0.120382,-0.992464,-0.006363,0.001073,-0.017042,11.690332,9.940918,-48.193451,,,,,,,
1530638703.648042,-0.021991,0.121700,-0.894561,0.055069,0.049442,-0.044719,-0.021827,-0.121400,-0.992364,0.004676,-0.001602,-0.016303,11.643503,10.173302,-48.041580,,,,,,,
1530638703.668011,-0.021038,0.123218,-0.894577,0.088075,0.015840,0.023793,-0.020877,-0.122906,-0.992199,-0.009381,0.016949,-0.013050,11.800394,10.101418,-48.153687,,,,,,,
1530638703.687980,-0.020324,0.124921,-0.894828,0.091393,0.062359,0.001331,-0.020165,-0.124597,-0.992003,0.025047,0.008844,-0.011278,11.900007,10.024284,-48.047211,,,,,,,
1530638703.707949,-0.019738,0.126430,-0.895043,0.084220,0.063606,-0.019076,-0.019579,-0.126094,-0.991825,0.020723,-0.000630,-0.002224,11.814268,10.059540,-48.164139,,,,,,,
1530638703.727918,-0.018752,0.127696,-0.896116,0.053338,0.059691,-0.089948,-0.018598,-0.127350,-0.991684,-0.018969,-0.020264,0.022537,11.757795,9.955452,-48.099716,,,,,,,
1530638703.747888,-0.016361,0.128280,-0.898323,0.011565,0.124995,-0.112918,-0.016226,-0.127928,-0.991651,-0.015054,0.002501,0.020078,11.984179,10.011696,-48.078491,,,,,,,
1530638703.767857,-0.012816,0.128061,-0.900475,-0.027321,0.181242,-0.103600,-0.012710,-0.127711,-0.991730,-0.000794,-0.002568,0.019653,11.948099,10.032310,-47.876450,,,,,,,
1530638703.787826,-0.008448,0.127296,-0.902645,-0.037707,0.224394,-0.117307,-0.008380,-0.126952,-0.991873,-0.029569,0.000594,0.018149,12.251936,9.982803,-47.674225,,,,,,,
1530638703.807795,-0.002468,0.126625,-0.905913,-0.041241,0.328741,-0.200888,-0.002448,-0.126287,-0.991991,-0.075265,0.010076,0.037401,12.465254,10.066193,-47.570312,,,,,,,
1530638703.827765,0.005854,0.124721,-0.911935,-0.131280,0.414799,-0.349426,0.005808,-0.124398,-0.992215,-0.066447,-0.040336,0.013211,12.660063,10.194359,-47.611633,,,,,,,
1530638703.847734,0.016689,0.121140,-0.917957,-0.186314,0.581112,-0.291957,0.016566,-0.120844,-0.992533,-0.018641,0.002757,0.009364,13.037119,10.606377,-47.439468,,,,,,,
1530638703.867702,0.031586,0.119335,-0.924913,0.011614,0.776030,-0.392350,0.031356,-0.119052,-0.992393,0.046494,0.118548,-0.038308,13.529627,10.649948,-47.017090,,,,,,,
1530638703.887671,0.047857,0.120072,-0.931394,0.068145,0.748537,-0.250715,0.047494,-0.119784,-0.991663,0.268271,0.072390,0.007029,14.089205,10.523239,-46.747955,,,,,,,
1530638703.907642,0.056983,0.122924,-0.933259,0.172079,0.314015,0.002764,0.056523,-0.122615,-0.990843,0.213115,0.072474,0.053725,14.328447,10.507416,-46.731415,,,,,,,
1530638703.927611,0.062457,0.126854,-0.933749,0.209133,0.253576,-0.038907,0.061915,-0.126514,-0.990031,0.110616,0.060031,0.055964,14.695963,10.231689,-46.640518,,,,,,,
1530638703.947580,0.067409,0.131226,-0.934306,0.217892,0.259623,0.044073,0.066779,-0.130850,-0.989151,0.200951,0.012991,0.101562,14.844358,10.180656,-46.814148,,,,,,,
1530638703.967549,0.074337,0.132977,-0.931123,-0.078329,0.416292,0.230261,0.073613,-0.132586,-0.988434,0.163097,-0.125120,0.219254,15.336424,10.231438,-46.603867,,,,,,,
1530638703.987518,0.081491,0.122892,-0.923106,-0.896590,0.557842,0.392818,0.080787,-0.122583,-0.989165,0.179940,-0.142035,0.376387,15.967173,10.770149,-46.221603,,,,,,,
1530638704.007488,0.101457,0.090519,-0.911997,-2.040386,1.366672,0.336655,0.100869,-0.090396,-0.990785,0.204277,-0.139951,0.335893,17.022417,12.240059,-45.374741,,,,,,,
1530638704.027457,0.124376,0.044527,-0.908151,-2.388640,0.792601,-0.280392,0.123933,-0.044513,-0.991292,0.257079,-0.155576,0.005803,17.432837,14.297752,-44.451035,,,,,,,
1530638704.047426,0.119824,-0.003705,-0.906431,-2.409621,-0.818074,-0.111062,0.119536,0.003705,-0.992823,0.274583,-0.036221,0.054041,16.951029,16.277756,-43.817635,,,,,,,
1530638704.067394,0.093641,-0.046671,-0.898805,-1.952442,-1.472352,0.296145,0.093402,0.046654,-0.994535,0.366681,-0.211876,0.088010,15.771109,17.838234,-43.472366,,,,,,,
1530638704.087365,0.065570,-0.072556,-0.883489,-0.941332,-1.416236,0.913329,0.065350,0.072493,-0.995226,0.490695,-0.236128,0.077181,14.851572,18.259384,-43.641251,,,,,,,
1530638704.107334,0.047255,-0.069700,-0.856028,0.858562,-0.605900,1.617417,0.047123,0.069643,-0.996458,0.547894,-0.237444,0.222822,14.924658,17.405846,-44.244080,,,,,,,
1530638704.127303,0.038361,-0.031720,-0.822464,2.074193,-1.141166,1.859641,0.038332,0.031715,-0.998762,0.409743,0.018380,-0.172289,14.495684,15.119301,-45.410049,,,,,,,
1530638704.147272,-0.003460,0.014797,-0.784337,2.451720,-2.236341,2.014267,-0.003460,-0.014796,-0.999885,0.624325,-0.108998,0.076026,13.640921,12.600235,-47.094025,,,,,,,
1530638704.167242,0.029111,0.052231,-0.739731,0.937922,4.370386,2.436522,0.029067,-0.052207,-0.998213,0.292878,0.041312,0.694731,17.013353,10.694061,-46.350296,,,,,,,
1530638704.187211,0.125976,0.059291,-0.696187,0.295748,4.510518,1.837917,0.125422,-0.059256,-0.990332,-0.084178,0.534598,-0.328607,20.951242,9.611984,-45.284576,,,,,,,
1530638704.207180,0.193910,0.075566,-0.675828,0.799028,3.146786,0.594297,0.192147,-0.075494,-0.978458,-0.268471,0.790399,-0.386639,23.793043,8.639954,-43.980309,,,,,,,
1530638704.227149,0.260948,0.100436,-0.692282,1.949846,3.390213,-1.138124,0.256697,-0.100267,-0.961277,-0.450010,0.803102,-0.175304,26.083685,7.785034,-42.532249,,,,,,,
1530638704.247118,0.350768,0.146326,-0.748175,3.523788,4.696942,-2.444989,0.339947,-0.145805,-0.929073,-0.607754,0.887321,0.322643,28.921991,6.578964,-40.729706,,,,,,,
1530638704.267088,0.477245,0.189425,-0.836621,3.730874,5.970827,-3.567028,0.451117,-0.188294,-0.872375,-0.638556,0.793229,0.592285,32.161774,5.941483,-37.952721,,,,,,,
1530638704.287057,0.618826,0.200087,-0.946512,2.890135,5.864532,-4.757894,0.568507,-0.198755,-0.798309,-0.379801,0.769769,0.509170,35.074165,6.926224,-34.531128,,,,,,,
1530638704.307026,0.744199,0.167760,-1.056002,1.742067,4.862597,-5.402989,0.667873,-0.166975,-0.725303,-0.199200,0.667707,0.268669,36.750877,9.238174,-31.627655,,,,,,,
1530638704.326995,0.840435,0.106206,-1.152427,1.027791,3.762598,-5.616383,0.740736,-0.106007,-0.663380,-0.128935,0.637135,-0.013851,37.338623,12.785645,-28.855682,,,,,,,
1530638704.346965,0.913459,0.030304,-1.239216,0.871413,3.162799,-5.714677,0.791258,-0.030299,-0.610731,-0.117461,0.583049,-0.130266,36.726997,16.377068,-26.792854,,,,,,,
1530638704.366934,0.972951,-0.051015,-1.322111,1.069725,2.974030,-5.724174,0.825475,0.050992,-0.562130,-0.043005,0.537203,-0.221225,35.829185,19.684265,-24.932510,,,,,,,
1530638704.386903,1.023725,-0.131811,-1.405655,1.402172,2.912321,-5.596434,0.846643,0.131429,-0.515676,0.012793,0.472056,-0.201823,34.237152,23.113037,-23.436882,,,,,,,
1530638704.406872,1.057867,-0.213185,-1.485699,1.238701,2.148649,-5.463558,0.851586,0.211574,-0.479622,0.130485,0.535527,-0.078773,32.278870,26.098434,-22.713631,,,,,,,
1530638704.426841,1.082750,-0.298435,-1.565422,1.500616,2.281518,-5.693276,0.844209,0.294025,-0.448174,0.159819,0.388043,-0.389121,29.945753,28.828415,-22.179115,,,,,,,
1530638704.446810,1.095946,-0.383621,-1.656424,1.987355,2.118087,-5.708962,0.824718,0.374281,-0.423973,0.475178,0.231249,-0.336631,27.112303,31.415619,-22.397820,,,,,,,
1530638704.466779,1.096983,-0.458943,-1.754541,2.421310,2.056809,-5.169231,0.797756,0.443000,-0.409067,0.638005,0.069023,-0.296118,24.506418,33.069412,-22.766136,,,,,,,
1530638704.486749,1.089560,-0.518041,-1.859556,2.941120,2.119262,-4.487455,0.770116,0.495179,-0.402142,0.783702,-0.101167,-0.290942,22.179407,34.372597,-23.776070,,,,,,,
1530638704.506719,1.074689,-0.558428,-1.968603,3.272908,1.995133,-3.634169,0.745845,0.529854,-0.403695,0.981587,-0.320198,-0.202307,20.435152,34.503647,-25.300308,,,,,,,
1530638704.526688,1.057325,-0.579131,-2.071300,3.221655,1.811484,-2.616383,0.729011,0.547297,-0.411108,1.076699,-0.537531,-0.037882,19.413603,34.560616,-26.964195,,,,,,,
1530638704.546657,1.042005,-0.584200,-2.156359,2.742492,1.380607,-1.585518,0.720223,0.551532,-0.420823,1.142036,-0.660022,0.124024,18.861238,33.884987,-28.460648,,,,,,,
1530638704.566626,1.031169,-0.574902,-2.215430,2.119349,0.968495,-0.388016,0.719989,0.543753,-0.431218,1.156934,-0.829321,0.335454,19.056028,33.137367,-29.562065,,,,,,,
1530638704.586596,1.036561,-0.550536,-2.245133,1.402121,1.128807,0.887667,0.733491,0.523144,-0.433948,1.121795,-1.004895,0.582325,20.047606,32.298172,-30.431206,,,,,,,
1530638704.606565,1.059606,-0.517015,-2.238864,-0.019261,0.746374,1.981667,0.758170,0.494287,-0.425274,0.981179,-0.891901,0.765942,21.694578,31.339355,-30.206253,,,,,,,
1530638704.626534,1.080906,-0.483419,-2.190213,-1.707116,-0.667939,2.728394,0.781273,0.464809,-0.416612,0.682076,-0.609585,0.686845,22.975370,30.809418,-29.492516,,,,,,,
1530638704.646502,1.089412,-0.458488,-2.110419,-3.029444,-1.643509,2.748580,0.794815,0.442592,-0.415189,0.309098,-0.363476,0.636578,23.990686,30.641472,-28.455177,,,,,,,
1530638704.666471,1.103223,-0.438194,-2.019102,-3.088452,-0.886097,2.893067,0.808325,0.424305,-0.408137,0.312097,-0.262165,0.122600,25.226892,30.792793,-26.903023,,,,,,,
1530638704.686442,1.132713,-0.396396,-1.961178,-0.496516,0.871808,3.021660,0.835348,0.386096,-0.391311,-0.141454,0.228055,-0.041749,27.190111,29.739220,-26.075607,,,,,,,
1530638704.706411,1.180700,-0.360427,-1.942775,-0.273316,2.857983,1.062715,0.865446,0.352674,-0.355844,-0.786070,0.846927,0.916085,29.233335,28.818695,-24.646477,,,,,,,
1530638704.726380,1.253836,-0.355768,-1.934518,-0.041401,3.656134,0.250880,0.890686,0.348310,-0.292162,-0.207413,0.090136,0.369249,30.735601,28.461159,-22.487381,,,,,,,
1530638704.746349,1.314650,-0.335290,-1.944106,1.159010,2.847670,1.209163,0.913505,0.329043,-0.239246,-0.237419,0.194319,0.364475,32.313446,27.422310,-20.999466,,,,,,,
1530638704.766319,1.375107,-0.304392,-1.975382,2.051671,3.804634,1.026305,0.935821,0.299714,-0.185504,-0.263747,0.493927,0.033054,34.052155,26.170273,-19.814148,,,,,,,
1530638704.786288,1.431511,-0.289800,-2.017270,2.044971,3.166399,-0.066011,0.949020,0.285760,-0.133046,-0.481293,0.520560,-0.217830,35.189735,25.302757,-18.696396,,,,,,,
1530638704.806257,1.474039,-0.300137,-2.060247,1.968619,2.477023,-1.102822,0.950828,0.295651,-0.092288,-0.329459,0.325718,-0.199232,35.379623,25.416916,-17.919426,,,,,,,
1530638704.826226,1.502032,-0.327621,-2.097686,1.327597,1.634590,-1.690003,0.944573,0.321792,-0.065055,0.061439,0.020356,-0.006707,35.139519,25.966682,-17.661957,,,,,,,
1530638704.846196,1.508297,-0.360780,-2.108839,-0.219917,-0.052820,-1.685948,0.933795,0.353004,-0.058438,-0.028430,-0.252418,0.268475,34.164749,26.826920,-17.133736,,,,,,,
1530638704.866166,1.518467,-0.397431,-2.091322,-1.175990,0.293340,-1.732326,0.920796,0.387051,-0.048229,0.233272,-0.241970,-0.051197,33.149467,27.777908,-16.547333,,,,,,,
1530638704.886135,1.526631,-0.425751,-2.070928,-0.881495,-0.232711,-1.182564,0.909841,0.413005,-0.040210,0.490184,-0.332713,-0.292386,32.392410,28.812103,-16.125481,,,,,,,
1530638704.906104,1.515360,-0.447301,-2.049433,-1.236713,-1.748972,-0.921850,0.900233,0.432534,-0.049957,0.890630,-0.388725,-0.545991,30.801756,30.184120,-16.285149,,,,,,,
1530638704.926074,1.464879,-0.457675,-2.015113,-1.774534,-4.124320,0.020454,0.892055,0.441863,-0.094839,1.198033,-0.404632,-0.523371,29.612848,30.539200,-17.590706,,,,,,,
1530638704.946043,1.387571,-0.452967,-1.973243,-1.815356,-4.911502,0.673911,0.884102,0.437635,-0.163828,0.839592,-0.226698,-0.293936,28.670626,30.831375,-19.152687,,,,,,,
1530638704.966012,1.314038,-0.446039,-1.936070,-1.487593,-4.028936,0.580841,0.872588,0.431395,-0.229101,0.157121,0.109620,0.403876,27.932917,31.330528,-19.774963,,,,,,,
1530638704.985981,1.290629,-0.457112,-1.893678,-2.232576,-1.108880,-0.210337,0.862343,0.441359,-0.248127,-0.349526,-0.006971,0.635929,27.468981,32.058838,-19.129677,,,,,,,
1530638705.005951,1.319965,-0.474906,-1.857615,-1.392409,1.768985,-0.562413,0.861505,0.457255,-0.220741,-0.482477,-0.000574,0.477180,27.458490,32.487129,-16.740616,,,,,,,
1530638705.025920,1.386060,-0.497493,-1.846746,-0.374163,3.654280,-1.380621,0.863829,0.477224,-0.161421,-0.459761,0.067088,0.266188,27.267054,33.343208,-14.447350,,,,,,,
1530638705.045889,1.464019,-0.546393,-1.859660,0.621343,4.220953,-3.236011,0.849538,0.519608,-0.091058,-0.171743,0.366729,-0.336569,25.664370,34.677658,-12.653091,,,,,,,
1530638705.065858,1.518569,-0.620666,-1.900865,1.705608,4.000871,-3.867706,0.812382,0.581577,-0.042467,0.699032,0.433651,0.072558,23.591589,35.983677,-11.554871,,,,,,,
1530638705.085828,1.569092,-0.679932,-1.939919,1.214709,3.096597,-2.543491,0.777614,0.628740,-0.001326,0.422444,-0.006105,-0.066072,22.351629,36.735443,-11.127159,,,,,,,
1530638705.105797,1.574084,-0.689369,-1.981127,2.110460,0.366913,1.360694,0.771643,0.636050,0.002537,-0.418616,-0.207248,-0.222370,23.255350,35.754864,-12.579880,,,,,,,
1530638705.125766,1.505506,-0.640738,-2.036999,1.841068,-2.480643,1.932240,0.799946,0.597787,-0.052303,-0.845387,0.648078,0.216625,24.028650,34.581223,-14.795845,,,,,,,
1530638705.145735,1.475434,-0.629068,-2.030730,-1.399357,-1.170058,-0.023232,0.804902,0.588392,-0.076991,-0.922715,0.374743,0.215785,23.749716,34.901138,-14.392570,,,,,,,
1530638705.165704,1.492360,-0.648284,-1.977163,-2.400627,-0.605079,-1.219930,0.794670,0.603819,-0.062459,-0.766425,0.134035,-0.099086,22.694803,35.928356,-13.062912,,,,,,,
1530638705.185673,1.511873,-0.690826,-1.928914,-1.755034,-0.473052,-2.463247,0.769382,0.637174,-0.045387,-0.498431,0.009143,-0.254738,20.638765,37.313114,-11.731606,,,,,,,
1530638705.205643,1.523805,-0.757748,-1.898019,-1.078603,-0.405820,-3.756809,0.725583,0.687287,-0.034121,-0.337369,-0.152024,-0.284558,17.595083,38.739452,-10.979126,,,,,,,
1530638705.225612,1.528758,-0.841994,-1.889659,-0.081753,0.318923,-4.365759,0.665387,0.745972,-0.027989,-0.438260,-0.290864,-0.090954,14.146002,39.664997,-11.043480,,,,,,,
1530638705.245582,1.528732,-0.929224,-1.910773,0.754750,1.072474,-4.344084,0.597925,0.801156,-0.025166,-0.409220,-0.464166,-0.012294,10.514986,40.726337,-11.312683,,,,,,,
1530638705.265551,1.520117,-1.014097,-1.956830,1.286548,1.723830,-4.375733,0.527708,0.849004,-0.026767,-0.328504,-0.355931,0.061511,7.026171,40.824879,-12.239265,,,,,,,
1530638705.285520,1.494645,-1.108956,-2.033997,1.738132,2.337055,-5.115302,0.444304,0.895234,-0.033900,-0.072661,-0.223695,0.090571,3.358236,40.844746,-13.497505,,,,,,,
1530638705.305489,1.433029,-1.202512,-2.160653,2.173705,3.045822,-4.664629,0.356603,0.932947,-0.049441,0.100642,-0.337076,0.218616,0.071930,40.427872,-15.597115,,,,,,,
1530638705.325459,1.319535,-1.277851,-2.364123,2.638977,4.493726,-4.144918,0.279705,0.957398,-0.071796,0.013737,-0.557327,0.284275,-2.341259,39.386105,-17.855270,,,,,,,
1530638705.345428,1.091605,-1.345458,-2.682982,2.559653,3.397511,-4.935599,0.198271,0.974718,-0.103018,0.158480,-0.191637,-0.046945,-5.293570,38.193062,-20.270912,,,,,,,
1530638705.365396,0.635616,-1.391081,3.078115,2.492811,2.387508,-4.944072,0.106119,0.983895,-0.143841,0.376593,-0.033257,-0.026142,-7.967863,36.447563,-22.517265,,,,,,,
1530638705.385367,0.144883,-1.380958,2.541642,2.246320,1.778683,-3.892822,0.027244,0.982035,-0.186723,0.318337,0.121908,0.095140,-10.057894,34.473946,-24.628464,,,,,,,
1530638705.405336,-0.082155,-1.339411,2.244812,1.873966,3.886838,-2.391404,-0.018819,0.973350,-0.228552,0.332906,0.487451,0.000739,-10.159500,33.106621,-26.816994,,,,,,,
1530638705.425305,-0.051964,-1.306182,2.178288,1.493078,5.588953,0.038916,-0.013584,0.965194,-0.261184,0.539280,1.147096,-0.075395,-7.561939,31.958359,-28.794571,,,,,,,
1530638705.445274,0.174458,-1.285153,2.286621,0.446456,5.713233,2.230370,0.048909,0.959480,-0.277498,0.555812,1.455070,-0.809691,-3.332098,31.744301,-29.944832,,,,,,,
1530638705.465244,0.398695,-1.275677,2.460071,-0.566334,0.918831,2.451007,0.112914,0.956768,-0.268041,0.291780,0.977360,-0.910075,-0.925247,32.102135,-29.846687,,,,,,,
1530638705.485213,0.511921,-1.269094,2.609620,-0.668646,-2.505439,1.965353,0.145558,0.954832,-0.259053,0.117137,0.212450,-0.313639,-0.545547,32.523445,-29.203117,,,,,,,
1530638705.505182,0.569730,-1.258681,2.733481,-0.422230,-3.109697,1.854115,0.165636,0.951686,-0.258569,0.014906,-0.212291,0.036492,-0.875881,33.133842,-29.025673,,,,,,,
1530638705.525151,0.614726,-1.242472,2.839225,-0.160962,-2.515645,1.820760,0.185972,0.946584,-0.263426,-0.081679,-0.360967,0.161863,-1.007919,33.409164,-28.731964,,,,,,,
1530638705.545120,0.655915,-1.221711,2.923378,0.103223,-1.522317,1.677134,0.208604,0.939686,-0.271062,-0.189760,-0.315815,0.201162,-0.733812,33.399765,-28.571701,,,,,,,
1530638705.565090,0.692653,-1.199326,2.977481,0.381960,-0.207128,1.283602,0.231796,0.931794,-0.279337,-0.314666,-0.084459,0.172984,0.001205,33.320602,-28.715599,,,,,,,
1530638705.585059,0.724710,-1.180002,2.999365,0.446013,0.996644,0.728976,0.252520,0.924607,-0.285193,-0.391208,0.207809,0.296302,0.906763,33.127960,-29.132774,,,,,,,
1530638705.605028,0.775573,-1.177854,3.020913,-0.641732,1.761052,0.229804,0.268083,0.923786,-0.273404,-0.288210,0.314373,0.411602,2.101179,32.952171,-28.695213,,,,,,,
1530638705.624998,0.853181,-1.185934,3.067846,-0.958128,1.521143,0.456354,0.282840,0.926850,-0.246879,-0.108356,0.131469,-0.029717,3.211855,33.430054,-28.077599,,,,,,,
1530638705.644967,0.922111,-1.184875,3.124695,-0.681043,0.305170,0.843354,0.299954,0.926452,-0.227405,-0.143018,-0.001480,-0.157910,3.874323,33.828545,-27.631096,,,,,,,
1530638705.664936,0.954048,-1.176010,-3.111748,-0.333867,-1.098203,0.869553,0.313751,0.923079,-0.222453,-0.153778,-0.040403,-0.139043,4.219320,33.958496,-27.355095,,,,,,,
1530638705.684906,0.944778,-1.164961,-3.083827,-0.007266,-2.082992,0.708174,0.319921,0.918773,-0.231313,-0.083455,-0.042324,-0.064875,3.809523,33.991379,-27.600319,,,,,,,
1530638705.704875,0.912017,-1.152588,-3.069478,0.188268,-2.386272,0.656086,0.321138,0.913818,-0.248609,0.020247,0.027481,-0.011462,3.152704,33.864624,-27.645348,,,,,,,
1530638705.724844,0.877354,-1.140995,-3.053480,0.011814,-2.496862,0.693026,0.320455,0.909048,-0.266343,0.100199,0.042215,0.024964,2.417356,33.804489,-27.616875,,,,,,,
1530638705.744812,0.860035,-1.130726,-3.021923,-0.307876,-2.155033,0.923498,0.322852,0.904722,-0.277928,0.156335,0.006747,0.070088,1.994890,33.904633,-27.395828,,,,,,,
1530638705.764783,0.871572,-1.121203,-2.970026,-0.662534,-1.506555,1.190329,0.332616,0.900624,-0.279718,0.171687,-0.031117,0.095865,1.921125,34.118881,-27.111839,,,,,,,
1530638705.784752,0.906013,-1.111464,-2.907563,-0.797377,-0.890944,1.250822,0.348938,0.896349,-0.273497,0.159561,-0.004930,0.044249,2.419085,34.392708,-26.627266,,,,,,,
1530638705.804721,0.947708,-1.103101,-2.846211,-0.882116,-0.582909,1.089272,0.366110,0.892610,-0.263080,0.161127,-0.001024,0.000796,2.749533,34.671196,-25.879608,,,,,,,
1530638705.824690,0.988484,-1.097985,-2.788924,-0.952869,-0.511967,0.890844,0.380340,0.890291,-0.250445,0.174165,-0.009127,-0.021024,3.263514,35.216881,-25.436226,,,,,,,
1530638705.844660,1.026798,-1.094559,-2.732911,-1.010697,-0.686738,0.784920,0.392261,0.888726,-0.237270,0.134045,-0.024010,-0.059345,3.649775,35.760895,-24.588821,,,,,,,
1530638705.864628,1.053234,-1.092451,-2.683810,-0.840271,-0.953742,0.596311,0.400023,0.887758,-0.227745,0.104615,-0.067048,-0.067513,3.569086,35.952820,-24.009476,,,,,,,
1530638705.884597,1.063775,-1.089087,-2.650690,-0.429362,-0.934356,0.487403,0.405010,0.886204,-0.224964,0.060887,-0.081288,-0.056698,3.878851,35.969284,-23.806709,,,,,,,
1530638705.904567,1.059921,-1.083685,-2.636201,-0.026606,-0.785592,0.346858,0.408309,0.883689,-0.228861,0.013840,-0.063788,-0.032614,3.640947,36.242092,-23.534241,,,,,,,
1530638705.924536,1.046928,-1.077748,-2.637192,0.257719,-0.503131,0.194195,0.409837,0.880894,-0.236767,-0.004518,-0.039860,0.000225,3.626909,35.941467,-23.842003,,,,,,,
1530638705.944505,1.031518,-1.071932,-2.648257,0.419030,-0.182255,0.079695,0.410529,0.878127,-0.245681,-0.012244,-0.017745,0.018126,3.482054,35.930878,-24.134163,,,,,,,
1530638705.964474,1.016630,-1.066763,-2.664710,0.485818,0.029217,-0.013824,0.410680,0.875642,-0.254151,-0.018102,-0.009446,0.022507,3.325483,35.782547,-24.521141,,,,,,,
1530638705.984444,1.001828,-1.062474,-2.683505,0.495789,0.074937,-0.080582,0.410034,0.873562,-0.262223,-0.015625,-0.008328,0.021149,3.462103,35.304714,-24.831200,,,,,,,
1530638706.004413,0.985599,-1.058742,-2.702995,0.498113,-0.017618,-0.105856,0.408440,0.871740,-0.270641,-0.004525,-0.023977,0.024227,3.473337,35.215584,-25.304626,,,,,,,
1530638706.024382,0.965992,-1.054754,-2.723131,0.535933,-0.178772,-0.110272,0.405912,0.869779,-0.280571,0.007388,-0.039029,0.031136,3.403589,35.132183,-25.698997,,,,,,,
1530638706.044352,0.941674,-1.050044,-2.745144,0.607378,-0.323316,-0.123598,0.402277,0.867445,-0.292766,0.026098,-0.037703,0.048396,2.966360,34.986595,-26.215652,,,,,,,
1530638706.064321,0.913445,-1.044113,-2.769438,0.697556,-0.399537,-0.120609,0.397919,0.864479,-0.307142,0.050308,-0.024178,0.066740,2.650110,34.482826,-26.691818,,,,,,,
1530638706.084290,0.882213,-1.036478,-2.795819,0.795016,-0.460350,-0.111158,0.393219,0.860616,-0.323603,0.065536,-0.003240,0.086725,2.486197,34.123466,-27.076164,,,,,,,
1530638706.104259,0.848412,-1.027315,-2.823933,0.875829,-0.523254,-0.117716,0.387959,0.855914,-0.341906,0.082638,0.010938,0.121905,2.150484,33.874321,-27.743462,,,,,,,
1530638706.124229,0.812905,-1.016917,-2.852984,0.927292,-0.568474,-0.126030,0.382020,0.850490,-0.361561,0.112349,0.028950,0.168355,1.905130,33.167526,-28.504402,,,,,,,
1530638706.144198,0.777826,-1.005884,-2.881147,0.904183,-0.570705,-0.121484,0.375666,0.844636,-0.381399,0.159185,0.039428,0.283667,1.343828,33.062233,-29.085541,,,,,,,
1530638706.164167,0.768596,-1.002769,-2.888074,-0.513496,0.231862,0.102427,0.373957,0.842964,-0.386740,0.299154,0.050637,1.156851,1.316290,32.788399,-29.199249,,,,,,,
1530638706.184136,0.816405,-1.017172,-2.841818,-1.637567,0.271596,0.475910,0.383125,0.850624,-0.360074,0.238793,0.035621,0.362714,1.680178,33.285065,-28.370461,,,,,,,
1530638706.204106,0.858250,-1.030994,-2.783030,-1.552620,-0.897673,0.503873,0.388918,0.857810,-0.336012,0.204618,0.032815,0.235182,1.685877,34.352905,-26.766182,,,,,,,
1530638706.224075,0.872310,-1.041693,-2.732694,-1.165558,-1.718275,0.382544,0.386553,0.863260,-0.324590,0.289335,0.098730,0.130300,1.023424,34.904625,-26.041138,,,,,,,
1530638706.244044,0.867811,-1.047043,-2.696569,-0.695947,-1.774901,0.407464,0.381560,0.865948,-0.323336,0.451875,0.203006,0.113955,0.652412,35.215595,-25.778648,,,,,,,
1530638706.264014,0.859203,-1.044995,-2.670954,-0.273641,-1.363254,0.563492,0.380105,0.864922,-0.327765,0.553230,0.206626,0.141501,0.377186,35.516121,-25.467827,,,,,,,
1530638706.283983,0.859340,-1.036714,-2.650760,-0.092353,-0.532921,0.687433,0.385561,0.860736,-0.332379,0.552183,0.173566,0.381970,0.581373,35.798447,-25.361832,,,,,,,
1530638706.303952,0.906105,-1.034788,-2.607692,-1.492092,1.291037,0.871853,0.401982,0.859754,-0.315013,0.458507,0.244967,1.310374,1.967970,36.209370,-24.033188,,,,,,,
1530638706.323921,1.028238,-1.042283,-2.513314,-2.434120,2.197965,1.147275,0.431835,0.863558,-0.260359,0.206288,0.266325,0.669752,3.568502,37.331703,-22.277351,,,,,,,
