timestamp(unix),attitude_roll(radians),attitude_pitch(radians),attitude_yaw(radians),rotation_rate_x(radians/s),rotation_rate_y(radians/s),rotation_rate_z(radians/s),gravity_x(G),gravity_y(G),gravity_z(G),user_acc_x(G),user_acc_y(G),user_acc_z(G),magnetic_field_x(microteslas),magnetic_field_y(microteslas),magnetic_field_z(microteslas),latitude(degree),longitude(degree),altitude(meter),speed(m/s),course(degree),timestamp(unix),User Mark
,,,,,,,,,,,,,,,,39.779209,-84.064390,292.708221,-1.000000,-1.000000,1530640127.441871,
1530640144.492521,-0.086338,0.230820,-1.372592,-0.092945,-0.181460,-0.011756,-0.083943,-0.228776,-0.969853,-0.007289,-0.025619,-0.146602,6.995251,-1.266571,-15.204926,,,,,,,
,,,,,,,,,,,,,,,,39.779209,-84.064390,292.708221,-1.000000,-1.000000,1530640136.441871,
1530640144.512489,-0.087215,0.236178,-1.372929,0.457792,0.064737,-0.041253,-0.084686,-0.233989,-0.968544,-0.019180,0.009181,-0.120735,7.033558,-1.354065,-15.329880,,,,,,,
1530640144.532458,-0.082827,0.249688,-1.371745,0.773816,0.299238,0.035238,-0.080167,-0.247102,-0.965668,0.022336,0.003007,-0.083328,7.169682,-1.488770,-15.045898,,,,,,,
1530640144.552426,-0.077480,0.265117,-1.368371,0.740490,0.293034,0.135871,-0.074698,-0.262022,-0.962167,0.048392,-0.017305,-0.022285,7.280609,-1.982155,-14.980927,,,,,,,
,,,,,,,,,,,,,,,,39.779163,-84.064447,292.708221,-1.000000,-1.000000,1530640144.546864,
,,,,,,,,,,,,,,,,39.779163,-84.064447,292.708221,-1.000000,-1.000000,1530640144.552988,
1530640144.572394,-0.074452,0.276056,-1.364053,0.436085,0.164808,0.175169,-0.071567,-0.272563,-0.959473,0.042774,-0.031606,0.034561,7.507294,-2.334122,-14.830505,,,,,,,
1530640144.592363,-0.073347,0.280281,-1.360223,0.110095,0.071188,0.159861,-0.070422,-0.276625,-0.958394,0.009753,-0.035173,0.055699,7.372860,-2.499763,-14.378914,,,,,,,
,,,,,,,,,,,,,,,,39.779162,-84.064448,292.708221,-1.000000,-1.000000,1530640144.602949,
1530640144.612331,-0.073346,0.279474,-1.357443,-0.094130,0.027315,0.128390,-0.070437,-0.275850,-0.958616,-0.017606,-0.021895,0.042570,7.293686,-2.187683,-14.786400,,,,,,,
,,,,,,,,,,,,,,,,39.779162,-84.064448,292.708221,-1.000000,-1.000000,1530640144.606899,
1530640144.632300,-0.074684,0.277681,-1.354856,-0.035364,-0.051060,0.125226,-0.071756,-0.274126,-0.959013,-0.045493,-0.025923,-0.018236,7.292973,-2.543312,-14.657043,,,,,,,
1530640144.652268,-0.075743,0.278944,-1.353355,0.110119,-0.046040,0.030948,-0.072746,-0.275341,-0.958590,-0.045586,-0.053471,-0.046293,7.173824,-2.495087,-14.723099,,,,,,,
1530640144.672237,-0.078917,0.282413,-1.353614,0.186387,-0.233115,-0.058128,-0.075712,-0.278674,-0.957397,-0.061266,-0.047055,-0.082124,7.142128,-2.440994,-14.662468,,,,,,,
1530640144.692205,-0.083301,0.287075,-1.355125,0.231832,-0.218478,-0.101681,-0.079799,-0.283148,-0.955751,-0.070591,-0.018549,-0.035643,7.050926,-2.357872,-14.723953,,,,,,,
1530640144.712173,-0.086676,0.291816,-1.356955,0.217204,-0.194137,-0.108960,-0.082908,-0.287692,-0.954127,-0.069162,-0.017270,-0.024586,7.047367,-2.674911,-14.848259,,,,,,,
1530640144.732142,-0.091179,0.295729,-1.358908,0.157500,-0.286803,-0.115240,-0.087100,-0.291437,-0.952616,-0.077100,-0.023169,-0.013677,6.953220,-2.868462,-14.862587,,,,,,,
1530640144.752110,-0.096857,0.298390,-1.361540,0.098073,-0.324028,-0.156849,-0.092433,-0.293981,-0.951331,-0.094259,-0.027308,0.009025,6.807308,-2.712479,-14.726715,,,,,,,
1530640144.772079,-0.101927,0.299984,-1.365503,0.035695,-0.294842,-0.223989,-0.097206,-0.295505,-0.950383,-0.112617,-0.029553,0.023579,6.844883,-2.832565,-14.726402,,,,,,,
1530640144.792047,-0.105800,0.300450,-1.371018,-0.030864,-0.251289,-0.293172,-0.100872,-0.295950,-0.949862,-0.114826,-0.028726,0.031176,6.858795,-2.967308,-14.796188,,,,,,,
1530640144.812016,-0.107982,0.299728,-1.378117,-0.096392,-0.171315,-0.361114,-0.102967,-0.295260,-0.949852,-0.104095,-0.013929,0.040947,6.726307,-2.850731,-15.014702,,,,,,,
1530640144.831984,-0.107927,0.298158,-1.386557,-0.136880,-0.064960,-0.414095,-0.102965,-0.293760,-0.950318,-0.076448,-0.002490,0.041641,6.799892,-2.740448,-15.200485,,,,,,,
1530640144.851952,-0.106039,0.296689,-1.395302,-0.114922,0.024412,-0.408507,-0.101216,-0.292356,-0.950938,-0.039302,0.003186,0.059840,6.944759,-2.818840,-15.261284,,,,,,,
1530640144.871921,-0.103325,0.296039,-1.403243,-0.060757,0.062728,-0.364681,-0.098654,-0.291734,-0.951398,-0.003931,0.010911,0.071271,6.848953,-2.542648,-15.252037,,,,,,,
1530640144.891889,-0.100168,0.296178,-1.410043,-0.022417,0.084408,-0.308906,-0.095646,-0.291867,-0.951665,0.032765,0.019970,0.104130,6.750355,-2.503922,-15.166664,,,,,,,
,,,,,,,,,,,,,,,,39.779215,-84.064378,292.716309,-1.000000,-1.000000,1530640144.874333,
1530640144.911858,-0.097890,0.296159,-1.415666,-0.043872,0.007821,-0.247566,-0.093479,-0.291848,-0.951886,0.063602,0.009256,0.104901,6.857830,-2.453392,-15.110893,,,,,,,
1530640144.931826,-0.098101,0.294854,-1.420314,-0.123925,-0.118322,-0.200945,-0.093717,-0.290600,-0.952244,0.074110,0.000149,0.084736,6.979965,-2.624046,-15.212196,,,,,,,
1530640144.951795,-0.100389,0.291614,-1.424376,-0.212309,-0.193625,-0.162615,-0.095989,-0.287498,-0.952959,0.067379,-0.009102,0.042192,7.019836,-2.248199,-15.388641,,,,,,,
1530640144.971763,-0.103230,0.287086,-1.427823,-0.249280,-0.194943,-0.129874,-0.098829,-0.283159,-0.953967,0.055632,-0.011763,-0.002728,6.947472,-2.480782,-15.532120,,,,,,,
1530640144.991731,-0.105545,0.282736,-1.430751,-0.215901,-0.133276,-0.109438,-0.101166,-0.278984,-0.954952,0.033463,-0.012748,-0.023548,7.004021,-2.225227,-15.585251,,,,,,,
1530640145.011700,-0.106609,0.279510,-1.433334,-0.155174,-0.083691,-0.099064,-0.102278,-0.275885,-0.955734,0.023084,-0.009928,-0.038956,6.862659,-2.063553,-15.340660,,,,,,,
1530640145.031668,-0.106783,0.277345,-1.435433,-0.111334,-0.027569,-0.075535,-0.102507,-0.273803,-0.956307,0.016615,-0.008057,-0.020163,6.856098,-1.904198,-15.362839,,,,,,,
1530640145.051637,-0.106992,0.275432,-1.437060,-0.114594,-0.064100,-0.060575,-0.102763,-0.271963,-0.956805,0.010615,-0.002329,-0.012296,6.991127,-1.916580,-15.382401,,,,,,,
1530640145.071605,-0.108386,0.272648,-1.438552,-0.175526,-0.103921,-0.046096,-0.104178,-0.269283,-0.957410,-0.001367,0.013851,-0.002032,6.966705,-1.795723,-15.283363,,,,,,,
1530640145.091573,-0.109095,0.268377,-1.439609,-0.251328,-0.023550,-0.011466,-0.104981,-0.265166,-0.958470,-0.003066,0.024581,0.014440,6.812580,-1.803688,-15.309319,,,,,,,
1530640145.111542,-0.109056,0.262449,-1.439955,-0.328301,-0.018362,0.040071,-0.105113,-0.259447,-0.960020,-0.010106,0.011812,-0.015749,6.947319,-1.674644,-15.678474,,,,,,,
1530640145.131510,-0.109074,0.255565,-1.439208,-0.344464,0.023232,0.092213,-0.105322,-0.252792,-0.961771,-0.028329,0.007309,-0.003119,6.891869,-1.544655,-15.577309,,,,,,,
1530640145.151479,-0.108972,0.248753,-1.437757,-0.324695,0.017573,0.111387,-0.105409,-0.246196,-0.963471,-0.041915,0.016948,0.005158,6.990093,-1.553978,-15.499397,,,,,,,
1530640145.171447,-0.109504,0.242717,-1.436250,-0.270048,-0.016572,0.097693,-0.106082,-0.240341,-0.964875,-0.052411,0.009185,0.005448,7.006210,-1.294281,-15.432571,,,,,,,
1530640145.191416,-0.110441,0.238149,-1.435209,-0.192112,-0.059374,0.057834,-0.107106,-0.235904,-0.965856,-0.039333,-0.005719,-0.008570,7.009716,-1.350410,-15.503304,,,,,,,
1530640145.211384,-0.112749,0.235232,-1.434897,-0.118370,-0.123150,0.017907,-0.109411,-0.233068,-0.966286,-0.040186,-0.008722,-0.008934,7.013359,-1.230835,-15.657799,,,,,,,
1530640145.231352,-0.115752,0.233960,-1.434885,-0.029105,-0.144049,0.002838,-0.112347,-0.231832,-0.966246,-0.039798,-0.015468,-0.022905,6.891048,-1.198158,-15.668068,,,,,,,
1530640145.251321,-0.119001,0.234586,-1.434754,0.066401,-0.144014,-0.006811,-0.115469,-0.232440,-0.965732,-0.048044,-0.011945,-0.016858,6.856403,-1.198929,-15.597481,,,,,,,
1530640145.271289,-0.121628,0.236633,-1.435167,0.106608,-0.121641,-0.051354,-0.117947,-0.234431,-0.964951,-0.045963,-0.012212,-0.002746,6.947800,-1.240608,-15.515167,,,,,,,
1530640145.291258,-0.123835,0.238466,-1.436612,0.052470,-0.122395,-0.099309,-0.120024,-0.236213,-0.964260,-0.038942,-0.016244,0.014965,6.849545,-1.278023,-15.532181,,,,,,,
1530640145.311226,-0.126095,0.238252,-1.439099,-0.079394,-0.143104,-0.131435,-0.122209,-0.236004,-0.964037,-0.034102,-0.020236,0.018038,7.025486,-1.260666,-15.635742,,,,,,,
1530640145.331195,-0.128543,0.235405,-1.442414,-0.205049,-0.157258,-0.153895,-0.124654,-0.233236,-0.964397,-0.033839,-0.024256,-0.004734,6.925659,-1.114952,-15.563690,,,,,,,
1530640145.351163,-0.130747,0.231153,-1.446834,-0.251792,-0.142508,-0.209413,-0.126907,-0.229100,-0.965095,-0.043412,-0.020839,-0.023568,6.867069,-1.161842,-15.717064,,,,,,,
1530640145.371132,-0.132063,0.227031,-1.452631,-0.236543,-0.115534,-0.279546,-0.128301,-0.225085,-0.965855,-0.036677,-0.022046,-0.045910,6.968868,-1.100845,-15.720619,,,,,,,
1530640145.391100,-0.132675,0.224063,-1.459581,-0.168963,-0.088663,-0.337299,-0.128979,-0.222193,-0.966434,-0.022831,-0.014043,-0.059582,6.924744,-0.907784,-15.805038,,,,,,,
1530640145.411068,-0.131888,0.222767,-1.466977,-0.087058,-0.005788,-0.352873,-0.128256,-0.220929,-0.966820,-0.001016,-0.010303,-0.054512,6.786358,-0.826935,-16.011711,,,,,,,
1530640145.431037,-0.130081,0.222820,-1.474297,-0.029362,0.011874,-0.355558,-0.126508,-0.220981,-0.967038,0.019544,-0.017133,-0.058719,6.990494,-0.766968,-16.159767,,,,,,,
1530640145.451005,-0.128524,0.223806,-1.481787,0.010697,-0.004523,-0.380869,-0.124974,-0.221942,-0.967018,0.023884,-0.019650,-0.044472,7.002037,-0.708900,-15.950859,,,,,,,
1530640145.470974,-0.126525,0.225031,-1.490067,0.004766,0.025597,-0.425960,-0.123006,-0.223137,-0.966995,0.023793,-0.015236,-0.021546,7.080982,-0.618134,-15.990456,,,,,,,
1530640145.490942,-0.123540,0.225498,-1.499176,-0.055848,0.048980,-0.452165,-0.120106,-0.223592,-0.967254,0.035237,-0.018794,-0.016846,7.161655,-0.839455,-16.185745,,,,,,,
1530640145.510911,-0.120492,0.224639,-1.508954,-0.124872,0.049162,-0.475153,-0.117181,-0.222755,-0.967806,0.030343,-0.018227,-0.013700,7.079277,-0.488731,-15.801605,,,,,,,
1530640145.530879,-0.116578,0.222810,-1.519155,-0.162548,0.084570,-0.485368,-0.113438,-0.220971,-0.968661,0.023061,-0.015296,-0.020078,7.227879,-0.448936,-15.996178,,,,,,,
1530640145.550848,-0.112840,0.220670,-1.529306,-0.157365,0.075685,-0.477919,-0.109871,-0.218883,-0.969546,0.022117,-0.016209,-0.032026,7.206566,-0.331451,-15.992805,,,,,,,
1530640145.570816,-0.108701,0.219213,-1.539398,-0.109086,0.106619,-0.483678,-0.105890,-0.217461,-0.970308,0.013285,-0.014686,-0.031355,7.359211,-0.411598,-16.149628,,,,,,,
1530640145.590773,-0.104283,0.218856,-1.549363,-0.048285,0.108789,-0.481079,-0.101611,-0.217113,-0.970844,0.011858,-0.011204,-0.029721,7.381329,-0.097000,-16.143600,,,,,,,
1530640145.610741,-0.099669,0.219778,-1.559222,0.017784,0.123123,-0.481711,-0.097111,-0.218013,-0.971102,0.012073,-0.010564,-0.010694,7.481369,-0.195969,-16.236389,,,,,,,
1530640145.630710,-0.095323,0.221464,-1.568821,0.044953,0.096533,-0.469188,-0.092854,-0.219658,-0.971148,0.009999,-0.013649,-0.011350,7.487122,-0.047890,-16.407806,,,,,,,
1530640145.650678,-0.091672,0.223277,-1.577956,0.044756,0.074284,-0.444488,-0.089271,-0.221427,-0.971082,0.004478,-0.019601,-0.003649,7.375919,-0.038322,-16.412041,,,,,,,
1530640145.670646,-0.088394,0.224699,-1.586702,0.024699,0.064242,-0.428147,-0.086060,-0.222813,-0.971055,-0.005325,-0.024288,0.000993,7.363239,-0.082413,-16.487495,,,,,,,
1530640145.690615,-0.085177,0.225530,-1.595372,-0.007848,0.069740,-0.423458,-0.082920,-0.223623,-0.971142,-0.017742,-0.030665,0.004834,7.307732,-0.081047,-16.812897,,,,,,,
1530640145.710583,-0.081540,0.225827,-1.604015,-0.021488,0.094029,-0.423196,-0.079381,-0.223913,-0.971371,-0.025492,-0.037424,-0.007038,7.363743,-0.277473,-16.827988,,,,,,,
1530640145.730552,-0.077192,0.226355,-1.612896,-0.003502,0.132802,-0.443692,-0.075148,-0.224427,-0.971589,-0.029314,-0.035445,-0.009124,7.387417,-0.297379,-16.779335,,,,,,,
1530640145.750520,-0.072592,0.227361,-1.622356,0.017730,0.119766,-0.475261,-0.070661,-0.225407,-0.971699,-0.019671,-0.037624,-0.016430,7.630100,-0.619995,-17.026527,,,,,,,
1530640145.770489,-0.069146,0.228522,-1.632048,0.018766,0.031426,-0.471383,-0.067295,-0.226538,-0.971675,-0.007809,-0.035761,-0.023839,7.885670,-1.004005,-17.405273,,,,,,,
1530640145.790457,-0.067483,0.229610,-1.641279,0.020651,-0.030586,-0.443657,-0.065662,-0.227597,-0.971539,-0.010204,-0.025851,-0.025730,8.176849,-1.185921,-17.459190,,,,,,,
1530640145.810426,-0.066423,0.230902,-1.650034,0.040445,-0.038430,-0.427734,-0.064612,-0.228855,-0.971314,-0.017129,-0.021435,-0.036529,8.463856,-1.041885,-17.441658,,,,,,,
1530640145.830394,-0.065083,0.232706,-1.658686,0.068767,-0.020768,-0.429026,-0.063284,-0.230611,-0.970986,-0.018320,-0.016795,-0.041679,8.745140,-1.048439,-17.369408,,,,,,,
1530640145.850363,-0.063097,0.235184,-1.667356,0.107570,0.015658,-0.430345,-0.061320,-0.233022,-0.970536,-0.016897,-0.010218,-0.029586,8.866604,-0.714546,-17.084053,,,,,,,
1530640145.870331,-0.060486,0.238409,-1.675921,0.148403,0.049816,-0.423063,-0.058740,-0.236157,-0.969938,-0.013572,-0.009586,-0.003573,8.955036,-0.261688,-17.119553,,,,,,,
1530640145.890300,-0.057541,0.242124,-1.684468,0.166295,0.032201,-0.430894,-0.055832,-0.239766,-0.969224,-0.008651,-0.010997,0.003236,9.000065,-0.333496,-17.035728,,,,,,,
1530640145.910268,-0.055446,0.246069,-1.693290,0.177965,-0.008541,-0.446313,-0.053748,-0.243593,-0.968387,-0.003732,-0.012663,0.026172,9.019047,-0.218567,-17.039078,,,,,,,
1530640145.930237,-0.053551,0.250143,-1.702446,0.176018,-0.016141,-0.464665,-0.051859,-0.247543,-0.967488,0.000270,-0.011506,0.044392,9.078716,0.009773,-16.823921,,,,,,,
1530640145.950205,-0.051805,0.253636,-1.712079,0.132137,-0.043592,-0.483740,-0.050125,-0.250925,-0.966708,0.002579,-0.023855,0.041369,8.929741,0.088310,-16.853409,,,,,,,
1530640145.970173,-0.050942,0.255951,-1.722133,0.072538,-0.099733,-0.503869,-0.049261,-0.253165,-0.966168,-0.007791,-0.031564,0.018765,8.939651,0.174622,-16.761978,,,,,,,
1530640145.990142,-0.050088,0.257591,-1.733280,0.047942,-0.077157,-0.574681,-0.048415,-0.254752,-0.965794,-0.025269,-0.018884,0.007740,8.996807,0.457413,-16.828720,,,,,,,
1530640146.010110,-0.047579,0.259119,-1.746378,0.036154,-0.020170,-0.673499,-0.045973,-0.256229,-0.965522,-0.034715,-0.009991,0.001014,8.904385,0.747223,-17.031067,,,,,,,
1530640146.030079,-0.043722,0.260389,-1.761157,0.015689,0.010080,-0.736771,-0.042234,-0.257457,-0.965366,-0.030199,-0.000752,0.000691,8.942406,0.862144,-17.016479,,,,,,,
1530640146.050047,-0.039162,0.261360,-1.776886,0.008655,0.045674,-0.775353,-0.037823,-0.258395,-0.965299,-0.022724,0.013629,0.009137,8.996204,0.861061,-16.907516,,,,,,,
1530640146.070016,-0.033299,0.262192,-1.793260,0.013070,0.112107,-0.804202,-0.032155,-0.259198,-0.965289,-0.006801,0.022962,0.018847,9.185493,0.972221,-16.842697,,,,,,,
1530640146.089984,-0.026620,0.262869,-1.809905,0.004668,0.133076,-0.802929,-0.025703,-0.259852,-0.965306,0.015373,0.023555,0.026021,9.205959,1.227715,-16.883446,,,,,,,
1530640146.109953,-0.020139,0.263028,-1.825988,-0.020833,0.114033,-0.761768,-0.019445,-0.260006,-0.965411,0.035436,0.023785,0.032886,9.384579,1.190063,-16.660141,,,,,,,
1530640146.129921,-0.014788,0.262483,-1.840984,-0.046483,0.062843,-0.701344,-0.014281,-0.259479,-0.965643,0.048354,0.025592,0.031882,9.281750,1.466087,-16.896454,,,,,,,
1530640146.149890,-0.010855,0.261411,-1.854650,-0.060623,0.010524,-0.637813,-0.010486,-0.258443,-0.965970,0.049076,0.016119,0.020504,9.406067,1.748337,-16.847961,,,,,,,
1530640146.169858,-0.007760,0.260405,-1.866894,-0.046516,-0.005426,-0.566858,-0.007498,-0.257472,-0.966257,0.044821,0.012889,0.012674,9.400127,1.799088,-17.038666,,,,,,,
1530640146.189827,-0.005008,0.259761,-1.877867,-0.026016,-0.008042,-0.508851,-0.004840,-0.256850,-0.966439,0.039920,0.005919,0.007821,9.402683,1.907829,-16.692451,,,,,,,
1530640146.209795,-0.002799,0.259260,-1.887749,-0.023265,-0.039294,-0.459415,-0.002706,-0.256365,-0.966576,0.037954,-0.007902,-0.006523,9.302349,2.268166,-16.752647,,,,,,,
1530640146.229764,-0.001773,0.258611,-1.896781,-0.035086,-0.093635,-0.422879,-0.001714,-0.255738,-0.966745,0.028157,-0.013931,-0.019187,9.315617,2.435387,-17.139755,,,,,,,
1530640146.249732,-0.001651,0.257969,-1.905222,-0.027944,-0.116990,-0.398267,-0.001596,-0.255117,-0.966909,0.020761,-0.018198,-0.029521,9.299679,2.565857,-16.939873,,,,,,,
1530640146.269701,-0.001686,0.257757,-1.913147,-0.002989,-0.103929,-0.372588,-0.001631,-0.254912,-0.966963,0.012938,-0.019640,-0.031938,9.311985,2.713959,-17.062988,,,,,,,
1530640146.289669,-0.001277,0.258125,-1.920548,0.026157,-0.065479,-0.346827,-0.001235,-0.255268,-0.966870,0.004348,-0.023342,-0.026844,9.325245,2.732201,-17.201759,,,,,,,
1530640146.309638,0.000045,0.259057,-1.927630,0.055477,-0.016946,-0.342587,0.000044,-0.256169,-0.966632,-0.004942,-0.027461,-0.008679,9.240520,2.717316,-17.007576,,,,,,,
1530640146.329606,0.001482,0.260315,-1.934951,0.064012,-0.038906,-0.360043,0.001432,-0.257385,-0.966308,-0.002775,-0.029892,0.004699,9.073681,3.047188,-16.979034,,,,,,,
1530640146.349575,0.001977,0.261444,-1.942732,0.045344,-0.101658,-0.383872,0.001910,-0.258476,-0.966016,0.002164,-0.025963,0.013043,9.126827,3.024483,-17.193939,,,,,,,
1530640146.369543,0.001551,0.261990,-1.951022,0.014091,-0.137907,-0.408522,0.001498,-0.259003,-0.965875,0.009961,-0.018279,0.015360,9.073807,2.855148,-17.132629,,,,,,,
1530640146.389512,0.001168,0.261993,-1.959582,-0.013119,-0.120186,-0.415695,0.001128,-0.259006,-0.965875,0.021043,-0.004986,0.015466,8.972431,2.868767,-17.278030,,,,,,,
1530640146.409480,0.001262,0.261551,-1.968020,-0.033173,-0.096000,-0.400263,0.001219,-0.258579,-0.965989,0.036455,0.007938,0.010377,8.850922,3.114578,-17.245232,,,,,,,
1530640146.429449,0.001452,0.260926,-1.975646,-0.034653,-0.096365,-0.347402,0.001403,-0.257975,-0.966151,0.054093,0.013377,0.004542,8.782898,3.394066,-17.437614,,,,,,,
1530640146.449417,0.000893,0.260740,-1.981846,-0.000646,-0.116758,-0.273446,0.000863,-0.257796,-0.966199,0.063056,0.019713,0.005140,8.711388,3.127739,-17.428665,,,,,,,
1530640146.469385,-0.000094,0.261343,-1.986667,0.039746,-0.112785,-0.211300,-0.000090,-0.258378,-0.966044,0.061278,0.022172,0.014475,8.709064,3.196495,-17.397362,,,,,,,
1530640146.489354,-0.000806,0.262397,-1.990446,0.056138,-0.076682,-0.164927,-0.000779,-0.259396,-0.965771,0.064347,0.020535,0.037456,8.517075,3.294540,-17.501404,,,,,,,
1530640146.509322,-0.001174,0.263258,-1.993378,0.031673,-0.069240,-0.122566,-0.001133,-0.260227,-0.965547,0.073414,0.014469,0.055772,8.506050,3.308250,-17.403999,,,,,,,
1530640146.529291,-0.002432,0.263014,-1.995365,-0.037911,-0.123633,-0.075714,-0.002349,-0.259992,-0.965608,0.080123,0.008512,0.056657,8.481236,3.276588,-17.569313,,,,,,,
1530640146.549259,-0.005254,0.261089,-1.996415,-0.127380,-0.197861,-0.033056,-0.005076,-0.258133,-0.966096,0.076625,0.000992,0.033220,8.452656,3.357483,-17.718315,,,,,,,
1530640146.569228,-0.010018,0.257622,-1.996969,-0.193563,-0.280747,-0.016571,-0.009687,-0.254782,-0.966950,0.067884,-0.004663,-0.011871,8.369862,3.484550,-17.397324,,,,,,,
1530640146.589196,-0.014589,0.253793,-1.997125,-0.185386,-0.205850,0.007428,-0.014121,-0.251078,-0.967864,0.054054,0.001551,-0.031541,8.352303,3.459877,-17.576645,,,,,,,
1530640146.609165,-0.016885,0.250701,-1.996840,-0.139480,-0.089029,0.033387,-0.016356,-0.248083,-0.968601,0.051574,0.005331,-0.044003,8.377560,3.423950,-17.817871,,,,,,,
1530640146.629133,-0.017608,0.248543,-1.995835,-0.091562,-0.024173,0.070934,-0.017066,-0.245992,-0.969122,0.054969,-0.006419,-0.045557,8.332565,3.497215,-17.577301,,,,,,,
1530640146.649102,-0.017931,0.247593,-1.993941,-0.021622,-0.012324,0.110154,-0.017383,-0.245071,-0.969349,0.051731,-0.014939,-0.034221,8.159714,3.551674,-17.727570,,,,,,,
1530640146.669070,-0.018833,0.247849,-1.991620,0.031804,-0.046618,0.118051,-0.018257,-0.245319,-0.969270,0.041053,-0.019543,-0.020399,8.202766,3.544167,-17.591026,,,,,,,
1530640146.689039,-0.020644,0.248477,-1.989290,0.032896,-0.083016,0.113547,-0.020008,-0.245928,-0.969081,0.029805,-0.029050,-0.011845,8.272335,3.563293,-17.745758,,,,,,,
1530640146.709007,-0.022653,0.248573,-1.987279,-0.007821,-0.083953,0.091326,-0.021955,-0.246021,-0.969016,0.013684,-0.030972,-0.007669,8.285892,3.206779,-17.594818,,,,,,,
1530640146.728976,-0.024384,0.247659,-1.985902,-0.065223,-0.071557,0.057490,-0.023637,-0.245135,-0.969201,0.001390,-0.023359,-0.012428,8.159351,3.324371,-17.404938,,,,,,,
1530640146.748944,-0.025276,0.245937,-1.985127,-0.091253,-0.020601,0.033204,-0.024513,-0.243465,-0.969600,-0.000313,-0.013478,-0.016820,8.143330,3.235542,-17.540047,,,,,,,
1530640146.768913,-0.024194,0.244489,-1.984737,-0.057589,0.102034,0.017262,-0.023472,-0.242061,-0.969977,0.002842,0.002955,0.006217,8.217937,3.391701,-17.547966,,,,,,,
1530640146.788881,-0.021233,0.244096,-1.984320,-0.006295,0.162667,0.026712,-0.020602,-0.241680,-0.970137,0.020968,0.007182,0.033934,8.426823,3.460587,-17.737320,,,,,,,
1530640146.808850,-0.019116,0.244412,-1.983262,0.017522,0.080698,0.065970,-0.018547,-0.241986,-0.970102,0.040199,0.004025,0.048792,8.355347,3.335800,-17.738823,,,,,,,
1530640146.828818,-0.019472,0.244670,-1.981364,0.004646,-0.031060,0.104393,-0.018891,-0.242236,-0.970033,0.045045,-0.000516,0.057390,8.464828,3.312981,-17.862656,,,,,,,
1530640146.848787,-0.021693,0.244341,-1.978987,-0.029046,-0.101826,0.122746,-0.021047,-0.241917,-0.970069,0.042501,0.003407,0.051459,8.341370,3.241234,-17.631569,,,,,,,
1530640146.868755,-0.024448,0.243015,-1.976145,-0.085925,-0.103125,0.153543,-0.023727,-0.240630,-0.970327,0.046447,0.002410,0.041051,8.378410,3.219200,-17.675949,,,,,,,
1530640146.888724,-0.027516,0.240250,-1.972466,-0.160809,-0.131068,0.207058,-0.026723,-0.237945,-0.970911,0.046101,-0.004792,0.010065,8.245129,3.112198,-17.708015,,,,,,,
1530640146.908692,-0.031420,0.236436,-1.967584,-0.192744,-0.146917,0.265559,-0.030540,-0.234239,-0.971699,0.032020,-0.009032,-0.015239,8.192390,3.375061,-17.855698,,,,,,,
1530640146.928661,-0.035390,0.232729,-1.961840,-0.165714,-0.141606,0.294418,-0.034429,-0.230634,-0.972431,0.016744,-0.013522,-0.049923,8.096375,3.251701,-17.911438,,,,,,,
1530640146.948629,-0.039244,0.229907,-1.955855,-0.113314,-0.130610,0.298228,-0.038202,-0.227887,-0.972938,0.000543,-0.023852,-0.073586,8.060162,3.492386,-17.704140,,,,,,,
1530640146.968598,-0.042476,0.228204,-1.950068,-0.056567,-0.095196,0.282693,-0.041362,-0.226228,-0.973196,-0.011632,-0.022414,-0.081797,7.981434,3.548706,-17.600983,,,,,,,
1530640146.988566,-0.044542,0.227477,-1.944525,-0.011384,-0.018950,0.269636,-0.043380,-0.225521,-0.973272,-0.013078,-0.017201,-0.063410,8.031582,3.071396,-17.593758,,,,,,,
1530640147.008535,-0.044929,0.227340,-1.938920,0.011597,0.068191,0.278439,-0.043758,-0.225387,-0.973286,-0.005269,-0.013901,-0.035533,8.045147,3.046265,-17.535248,,,,,,,
1530640147.028503,-0.044661,0.227419,-1.932819,0.016567,0.074582,0.311851,-0.043497,-0.225464,-0.973280,0.007898,-0.018951,-0.017336,8.131374,3.059860,-17.630264,,,,,,,
1530640147.048472,-0.045434,0.227652,-1.925933,0.035177,0.016936,0.345888,-0.044247,-0.225690,-0.973194,0.005306,-0.022906,-0.013974,8.205288,3.072311,-17.714897,,,,,,,
1530640147.068440,-0.047552,0.228366,-1.918584,0.065507,-0.035036,0.357178,-0.046300,-0.226386,-0.972937,-0.004070,-0.018349,-0.014933,8.120026,2.819420,-17.640381,,,,,,,
1530640147.088409,-0.049654,0.229573,-1.911302,0.084446,-0.004072,0.348495,-0.048331,-0.227561,-0.972564,-0.009850,-0.013451,0.003936,8.169601,2.935753,-17.706551,,,,,,,
1530640147.108377,-0.050455,0.230787,-1.904223,0.066689,0.064447,0.338229,-0.049096,-0.228744,-0.972248,-0.010169,-0.007660,0.020969,8.189728,2.847618,-17.496223,,,,,,,
1530640147.128346,-0.050204,0.231311,-1.897469,0.023808,0.088848,0.323706,-0.048846,-0.229254,-0.972140,-0.004117,-0.003443,0.024264,8.118732,3.001205,-17.508835,,,,,,,
1530640147.148314,-0.050895,0.231179,-1.890816,0.000702,0.007122,0.330030,-0.049520,-0.229125,-0.972136,0.008169,-0.007676,0.011352,8.391373,2.743866,-17.359421,,,,,,,
1530640147.168283,-0.053555,0.231110,-1.883694,0.024624,-0.081381,0.356309,-0.052106,-0.229058,-0.972017,0.003537,-0.010276,-0.004408,8.268169,2.735031,-17.363007,,,,,,,
1530640147.188251,-0.056961,0.231806,-1.875963,0.068474,-0.059478,0.379677,-0.055407,-0.229735,-0.971675,-0.001111,-0.009645,0.010997,8.268726,2.509415,-17.469734,,,,,,,
1530640147.208220,-0.059028,0.233130,-1.868562,0.090861,0.004862,0.333374,-0.057398,-0.231024,-0.971254,-0.012747,0.005621,0.007280,8.364674,2.451408,-17.669456,,,,,,,
1530640147.228188,-0.060146,0.234516,-1.862580,0.076764,0.010884,0.261286,-0.058465,-0.232372,-0.970868,-0.010795,0.004727,-0.004840,8.388374,2.189507,-17.728027,,,,,,,
1530640147.248157,-0.060845,0.235315,-1.857724,0.037225,0.027721,0.222966,-0.059132,-0.233149,-0.970641,-0.005123,0.003443,0.001968,8.490208,2.024940,-17.603363,,,,,,,
1530640147.268125,-0.061618,0.235211,-1.853284,-0.006729,0.003521,0.212531,-0.059884,-0.233048,-0.970620,-0.000724,0.005769,-0.022682,8.462246,1.962700,-17.394234,,,,,,,
1530640147.288094,-0.062347,0.234642,-1.848922,-0.015128,0.038848,0.212792,-0.060599,-0.232495,-0.970708,-0.001382,0.008923,-0.017741,8.632019,2.111816,-17.491074,,,,,,,
1530640147.308062,-0.061620,0.234092,-1.844702,-0.010836,0.115111,0.199095,-0.059901,-0.231959,-0.970879,-0.009679,0.014949,-0.011451,8.513863,1.914902,-17.247536,,,,,,,
1530640147.328031,-0.059799,0.233680,-1.840961,-0.009594,0.142880,0.174405,-0.058139,-0.231559,-0.971082,-0.006894,0.013847,-0.014453,8.513103,1.751259,-17.323174,,,,,,,
1530640147.347999,-0.057788,0.233258,-1.837485,-0.013734,0.139614,0.167965,-0.056192,-0.231148,-0.971294,-0.003165,0.011132,-0.000217,8.588596,1.701439,-17.391190,,,,,,,
1530640147.367968,-0.055946,0.232625,-1.834095,-0.028396,0.123074,0.165883,-0.054411,-0.230533,-0.971542,-0.005969,0.012912,0.011963,8.697021,1.686462,-17.488739,,,,,,,
1530640147.387936,-0.054756,0.231516,-1.830751,-0.054587,0.083356,0.163814,-0.053268,-0.229453,-0.971861,-0.015488,0.008720,0.002882,8.701672,1.639862,-17.498817,,,,,,,
1530640147.407905,-0.054573,0.230114,-1.827510,-0.055570,0.028207,0.157088,-0.053108,-0.228089,-0.972191,-0.015526,0.003647,-0.014122,8.550175,1.679115,-17.392899,,,,,,,
1530640147.427873,-0.055067,0.229141,-1.824473,-0.024016,0.011715,0.145884,-0.053600,-0.227141,-0.972386,-0.013828,0.010039,-0.012829,8.666355,1.657677,-17.321190,,,,,,,
1530640147.447842,-0.054918,0.228905,-1.821377,0.011540,0.069033,0.156567,-0.053459,-0.226911,-0.972447,-0.008766,0.012357,0.001805,8.599331,1.871140,-17.310593,,,,,,,
1530640147.467810,-0.054112,0.229067,-1.817621,0.020631,0.090818,0.198638,-0.052673,-0.227069,-0.972453,-0.006257,0.008701,0.009395,8.786648,1.472656,-17.178299,,,,,,,
1530640147.487779,-0.054247,0.229062,-1.813122,0.006769,0.011133,0.228598,-0.052804,-0.227064,-0.972447,-0.013495,-0.001635,-0.004100,8.809032,1.618980,-17.451912,,,,,,,
1530640147.507747,-0.056216,0.228734,-1.808389,-0.005789,-0.061712,0.227303,-0.054723,-0.226745,-0.972416,-0.028483,-0.007966,-0.006924,8.859394,1.358055,-17.328651,,,,,,,
1530640147.527716,-0.058789,0.228388,-1.804103,0.002861,-0.082472,0.195834,-0.057229,-0.226408,-0.972350,-0.041587,-0.004442,-0.021196,8.648380,1.423317,-17.303307,,,,,,,
1530640147.547684,-0.060799,0.228277,-1.800421,0.012502,-0.043659,0.170036,-0.059185,-0.226299,-0.972258,-0.039494,0.001186,-0.023271,8.534813,1.137962,-17.286407,,,,,,,
1530640147.567653,-0.062156,0.228526,-1.796926,0.027143,-0.017200,0.174320,-0.060501,-0.226542,-0.972120,-0.032196,-0.000524,-0.024874,8.654568,1.030838,-17.500145,,,,,,,
1530640147.587621,-0.063611,0.228892,-1.793013,0.032197,-0.035027,0.197907,-0.061910,-0.226899,-0.971949,-0.029429,-0.006484,-0.034063,8.567429,0.891014,-17.212685,,,,,,,
1530640147.607590,-0.065937,0.229477,-1.788440,0.050818,-0.070580,0.229890,-0.064162,-0.227469,-0.971669,-0.022325,-0.004434,-0.031230,8.329544,1.054764,-17.227531,,,,,,,
1530640147.627558,-0.068564,0.230302,-1.783582,0.061324,-0.067256,0.227640,-0.066701,-0.228272,-0.971310,-0.023356,-0.002289,-0.017353,8.286400,0.835251,-17.515762,,,,,,,
1530640147.647527,-0.070668,0.231099,-1.779237,0.051115,-0.054872,0.193296,-0.068732,-0.229047,-0.970986,-0.026193,0.001279,-0.019600,8.175655,0.721718,-17.508690,,,,,,,
1530640147.667495,-0.073300,0.231533,-1.775501,0.024011,-0.108828,0.174994,-0.071280,-0.229470,-0.970702,-0.028543,0.000222,-0.011766,7.972588,0.748100,-17.404129,,,,,,,
1530640147.687464,-0.076956,0.231299,-1.771979,-0.012633,-0.152930,0.168698,-0.074833,-0.229242,-0.970489,-0.030178,-0.001960,0.003081,7.995411,0.643829,-17.543892,,,,,,,
1530640147.707433,-0.081302,0.230505,-1.768641,-0.030408,-0.197043,0.163281,-0.079065,-0.228469,-0.970335,-0.031622,-0.002366,-0.002824,7.759228,0.612274,-17.704964,,,,,,,
1530640147.727401,-0.085796,0.229594,-1.765464,-0.032460,-0.170505,0.156956,-0.083442,-0.227582,-0.970177,-0.025811,-0.000400,0.023598,7.477524,0.580330,-17.615410,,,,,,,
1530640147.747370,-0.089213,0.228519,-1.762433,-0.046004,-0.105283,0.144474,-0.086779,-0.226535,-0.970130,-0.019850,0.002871,0.039710,7.498398,0.417053,-17.831444,,,,,,,
1530640147.767338,-0.091003,0.227119,-1.760064,-0.068750,-0.040961,0.102962,-0.088543,-0.225172,-0.970287,-0.018070,0.008940,0.033459,7.436787,0.577370,-17.780502,,,,,,,
1530640147.787307,-0.092393,0.225465,-1.758663,-0.085209,-0.057247,0.064234,-0.089927,-0.223560,-0.970533,-0.009240,0.000782,0.025327,7.243328,0.463638,-17.792603,,,,,,,
1530640147.807275,-0.093847,0.223500,-1.757603,-0.099867,-0.053909,0.061167,-0.091378,-0.221644,-0.970837,0.002145,-0.003041,0.021221,7.161625,0.683655,-17.860565,,,,,,,
1530640147.827244,-0.095234,0.221290,-1.756521,-0.112455,-0.072679,0.062293,-0.092772,-0.219488,-0.971194,-0.020098,0.009054,0.016299,7.045116,0.821434,-17.753654,,,,,,,
1530640147.847212,-0.096430,0.218441,-1.754882,-0.141257,0.038432,0.119216,-0.093992,-0.216708,-0.971701,0.024992,-0.004651,0.024939,7.186516,0.927979,-17.764603,,,,,,,
1530640147.867181,-0.095514,0.215017,-1.752369,-0.177077,0.064800,0.139143,-0.093173,-0.213364,-0.972520,-0.003568,0.008866,0.017228,7.125629,0.887794,-17.714928,,,,,,,
1530640147.887149,-0.094940,0.210587,-1.749990,-0.237880,0.070357,0.136581,-0.092703,-0.209034,-0.973504,0.009177,-0.002041,0.027841,7.164650,1.093887,-17.869865,,,,,,,
1530640147.907118,-0.093163,0.204782,-1.747882,-0.303861,0.130073,0.124629,-0.091084,-0.203354,-0.974859,0.015080,-0.012924,0.010855,7.156128,1.264465,-17.560150,,,,,,,
1530640147.927086,-0.091529,0.197908,-1.746562,-0.361196,0.069657,0.083962,-0.089617,-0.196618,-0.976376,0.006441,-0.014365,-0.016254,7.041939,1.672104,-17.768188,,,,,,,
1530640147.947055,-0.090627,0.190120,-1.745672,-0.405221,0.063061,0.082249,-0.088872,-0.188977,-0.977952,0.016088,-0.010837,-0.002517,7.116379,1.719162,-17.658150,,,,,,,
1530640147.967023,-0.089121,0.181603,-1.744586,-0.436853,0.102674,0.102188,-0.087540,-0.180606,-0.979652,0.021988,0.003177,-0.002099,7.047638,1.960419,-17.602768,,,,,,,
1530640147.986992,-0.087025,0.172889,-1.742650,-0.429968,0.136512,0.157282,-0.085619,-0.172029,-0.981364,0.032732,0.007173,-0.017919,7.257671,2.033653,-17.770195,,,,,,,
1530640148.006961,-0.084315,0.164854,-1.739380,-0.369651,0.173603,0.218293,-0.083074,-0.164109,-0.982938,0.032002,0.010468,-0.021792,7.308998,2.086395,-17.682350,,,,,,,
1530640148.026929,-0.081001,0.158322,-1.734854,-0.279864,0.219608,0.266091,-0.079900,-0.157661,-0.984255,0.026693,0.007332,-0.015272,7.287651,2.265450,-17.709885,,,,,,,
1530640148.046898,-0.077286,0.153796,-1.729510,-0.172036,0.220520,0.288675,-0.076298,-0.153191,-0.985247,0.011784,0.005775,-0.023176,7.357914,2.597244,-17.572533,,,,,,,
1530640148.066866,-0.073675,0.151150,-1.723797,-0.084010,0.221542,0.296372,-0.072769,-0.150575,-0.985917,0.005752,0.004732,-0.026199,7.573215,2.260551,-17.589355,,,,,,,
1530640148.086835,-0.070398,0.150035,-1.718140,-0.012519,0.184134,0.274936,-0.069550,-0.149473,-0.986317,-0.002655,0.002485,-0.035534,7.573158,2.329300,-17.587631,,,,,,,
1530640148.106803,-0.067561,0.149918,-1.712833,0.023252,0.182014,0.260520,-0.066752,-0.149357,-0.986528,0.003413,0.000797,-0.024062,7.536545,2.534424,-17.548744,,,,,,,
1530640148.126772,-0.064611,0.150007,-1.707413,0.018943,0.185230,0.274605,-0.063841,-0.149445,-0.986707,-0.000536,0.004517,-0.010928,7.900784,2.312531,-17.559151,,,,,,,
1530640148.146740,-0.061699,0.149469,-1.701668,-0.029388,0.178544,0.285869,-0.060973,-0.148913,-0.986969,-0.003709,0.004687,-0.008942,7.787483,2.220406,-17.473892,,,,,,,
1530640148.166709,-0.060286,0.148015,-1.696301,-0.066889,0.076087,0.257734,-0.059591,-0.147475,-0.987269,-0.017283,-0.004701,-0.010442,7.673252,2.439499,-17.276779,,,,,,,
1530640148.186677,-0.060414,0.146450,-1.691656,-0.055022,0.016743,0.218495,-0.059731,-0.145927,-0.987490,-0.019173,-0.014107,-0.000760,7.775246,2.268509,-17.538208,,,,,,,
1530640148.206646,-0.060277,0.145762,-1.687997,-0.003158,0.055776,0.158815,-0.059602,-0.145246,-0.987599,-0.022841,-0.000582,0.013035,7.876869,2.252151,-17.513481,,,,,,,
1530640148.226614,-0.058981,0.146074,-1.685934,0.035371,0.086234,0.062560,-0.058319,-0.145555,-0.987630,-0.025299,0.012300,0.010136,7.709202,2.291206,-17.446884,,,,,,,
1530640148.246583,-0.057717,0.146754,-1.685785,0.029763,0.052590,-0.020591,-0.057065,-0.146228,-0.987604,-0.011020,0.000888,0.002466,7.849052,2.373482,-17.413139,,,,,,,
1530640148.266552,-0.056889,0.147089,-1.686412,0.001583,0.038359,-0.036535,-0.056245,-0.146559,-0.987602,-0.002547,-0.003603,0.004585,8.016472,2.073769,-17.503654,,,,,,,
1530640148.286520,-0.056184,0.146944,-1.687237,-0.017250,0.028466,-0.041777,-0.055549,-0.146416,-0.987662,0.001335,0.001182,0.001334,8.006374,2.246742,-17.487762,,,,,,,
1530640148.306489,-0.055694,0.146579,-1.687856,-0.016357,0.022812,-0.022399,-0.055069,-0.146054,-0.987743,0.010696,-0.001178,-0.004414,8.049782,2.121048,-17.489891,,,,,,,
1530640148.326457,-0.055652,0.146454,-1.688044,0.001347,-0.007109,-0.006555,-0.055028,-0.145931,-0.987763,0.008016,0.000225,-0.007980,7.909954,2.175629,-17.390228,,,,,,,
1530640148.346426,-0.056081,0.146762,-1.688253,0.018226,-0.019174,-0.018657,-0.055449,-0.146235,-0.987695,0.000945,-0.003987,-0.001685,7.978333,2.218658,-17.319122,,,,,,,
1530640148.366394,-0.056188,0.147015,-1.688826,0.004732,-0.013532,-0.035742,-0.055552,-0.146486,-0.987652,-0.000264,-0.006331,-0.006062,7.922813,2.328400,-17.563614,,,,,,,
1530640148.386363,-0.056300,0.146775,-1.689679,-0.026687,-0.007967,-0.040770,-0.055665,-0.146249,-0.987680,0.005922,-0.006065,-0.003515,7.894520,2.304619,-17.772758,,,,,,,
1530640148.406331,-0.055875,0.145929,-1.690357,-0.054112,0.020614,-0.022007,-0.055252,-0.145411,-0.987827,0.007492,-0.005513,-0.010830,7.879055,2.195404,-17.592278,,,,,,,
1530640148.426300,-0.055533,0.145000,-1.690613,-0.039593,0.010533,-0.001717,-0.054922,-0.144492,-0.987981,0.006094,-0.007730,-0.022914,7.928543,2.245529,-17.458611,,,,,,,
1530640148.446268,-0.055551,0.145032,-1.690515,0.024286,-0.005019,0.009386,-0.054940,-0.144524,-0.987975,0.001107,-0.011497,-0.022859,7.996155,1.967026,-17.415970,,,,,,,
1530640148.466237,-0.055960,0.146305,-1.690213,0.081948,-0.031550,0.011881,-0.055333,-0.145784,-0.987768,-0.006099,-0.013411,-0.013163,8.180828,1.918846,-17.427361,,,,,,,
1530640148.486206,-0.056978,0.148057,-1.690008,0.084143,-0.057968,0.000952,-0.056324,-0.147517,-0.987455,-0.014599,-0.016348,-0.002826,8.051731,1.998085,-17.676414,,,,,,,
1530640148.506174,-0.058107,0.149426,-1.690148,0.057059,-0.058909,-0.021416,-0.057427,-0.148870,-0.987188,-0.019446,-0.019114,-0.005091,7.941219,2.068085,-17.529182,,,,,,,
1530640148.526143,-0.058816,0.150216,-1.690959,0.023752,-0.024457,-0.053255,-0.058120,-0.149652,-0.987029,-0.017960,-0.013114,-0.001420,7.866272,1.994186,-17.565086,,,,,,,
1530640148.546111,-0.058614,0.150469,-1.692142,0.001790,0.013141,-0.061466,-0.057919,-0.149902,-0.987003,-0.015293,-0.012803,-0.002469,7.997761,2.085007,-17.507477,,,,,,,
1530640148.566080,-0.057992,0.150520,-1.693468,-0.004442,0.019818,-0.068917,-0.057304,-0.149952,-0.987031,-0.014397,-0.014034,-0.010527,8.028549,2.059731,-17.738136,,,,,,,
1530640148.586048,-0.057678,0.150798,-1.695037,0.013530,-0.001041,-0.086470,-0.056992,-0.150227,-0.987007,-0.014160,-0.011928,-0.012809,7.943287,2.348526,-17.278824,,,,,,,
1530640148.606017,-0.057706,0.151562,-1.696998,0.038846,-0.020798,-0.104091,-0.057013,-0.150982,-0.986891,-0.009332,-0.011096,-0.012529,7.744781,2.309784,-17.555489,,,,,,,
1530640148.625985,-0.057881,0.152774,-1.699212,0.055716,-0.018520,-0.115038,-0.057175,-0.152180,-0.986698,-0.001525,-0.007946,-0.006695,7.983826,2.135025,-17.554390,,,,,,,
1530640148.645954,-0.057854,0.154044,-1.701353,0.054576,-0.003140,-0.104167,-0.057137,-0.153436,-0.986505,0.000969,-0.004157,-0.005392,7.856087,2.080223,-17.702553,,,,,,,
1530640148.665922,-0.057328,0.155359,-1.703326,0.058736,0.024434,-0.100848,-0.056607,-0.154735,-0.986333,0.004818,-0.005711,0.004979,8.096210,1.957787,-17.526482,,,,,,,
1530640148.685891,-0.056730,0.156501,-1.705174,0.045028,0.010020,-0.091059,-0.056007,-0.155863,-0.986190,0.008308,-0.006582,0.007003,7.938145,2.035759,-17.575485,,,,,,,
1530640148.705860,-0.056505,0.157290,-1.706915,0.026118,-0.004356,-0.086614,-0.055778,-0.156642,-0.986079,0.009529,-0.007206,0.012721,8.066437,1.984650,-17.557640,,,,,,,
1530640148.725828,-0.056410,0.157705,-1.708626,0.011426,-0.004360,-0.085381,-0.055680,-0.157052,-0.986019,0.006974,-0.005485,0.011502,7.976219,2.222603,-17.486526,,,,,,,
1530640148.745797,-0.056031,0.157921,-1.710289,0.006152,0.008866,-0.082028,-0.055304,-0.157265,-0.986007,0.003714,-0.009147,0.004348,8.035255,2.012993,-17.462677,,,,,,,
1530640148.765765,-0.055489,0.158326,-1.712033,0.018809,0.011130,-0.090776,-0.054767,-0.157665,-0.985973,0.008334,-0.008305,0.000926,8.053337,2.094139,-17.455795,,,,,,,
1530640148.785734,-0.054990,0.158940,-1.713857,0.026131,0.010009,-0.088706,-0.054269,-0.158272,-0.985903,0.012811,-0.009209,0.004214,8.039062,2.019020,-17.532616,,,,,,,
1530640148.805702,-0.054431,0.159478,-1.715504,0.017661,0.016568,-0.078875,-0.053714,-0.158802,-0.985848,0.013477,-0.008022,0.006783,8.111931,2.223602,-17.582405,,,,,,,
1530640148.825671,-0.053940,0.159710,-1.716915,-0.000283,0.014267,-0.064677,-0.053227,-0.159032,-0.985838,0.015859,-0.006953,0.007505,8.114750,2.285637,-17.430420,,,,,,,
1530640148.845639,-0.053454,0.159318,-1.718154,-0.039138,0.010921,-0.057806,-0.052752,-0.158645,-0.985925,0.017168,-0.008469,0.009424,8.217953,2.171623,-17.481949,,,,,,,
1530640148.865608,-0.053254,0.158153,-1.719219,-0.070684,-0.007912,-0.046777,-0.052564,-0.157494,-0.986120,0.013578,-0.009696,-0.010157,7.982666,2.239853,-17.602554,,,,,,,
1530640148.885576,-0.053107,0.157229,-1.720176,-0.035046,0.004207,-0.044939,-0.052427,-0.156582,-0.986273,0.007475,-0.008472,-0.021509,8.035328,2.332558,-17.661301,,,,,,,
1530640148.905545,-0.052622,0.157472,-1.721067,0.032053,0.019630,-0.043422,-0.051947,-0.156822,-0.986260,0.005515,-0.008324,-0.022957,7.999393,2.186012,-17.691109,,,,,,,
1530640148.925514,-0.051860,0.158571,-1.721856,0.055089,0.028425,-0.039310,-0.051186,-0.157907,-0.986126,0.010049,-0.009238,-0.012470,8.170628,2.271362,-17.557442,,,,,,,
1530640148.945482,-0.051132,0.159481,-1.722460,0.030878,0.028356,-0.028271,-0.050461,-0.158805,-0.986020,0.011093,-0.012429,-0.004703,8.220352,2.047707,-17.538223,,,,,,,
1530640148.965451,-0.050645,0.159855,-1.722979,0.008832,0.015093,-0.024861,-0.049978,-0.159175,-0.985985,0.005621,-0.013295,-0.006157,8.225143,1.955627,-17.556473,,,,,,,
1530640148.985419,-0.050062,0.160093,-1.723446,0.014046,0.028316,-0.021619,-0.049401,-0.159410,-0.985976,0.002923,-0.013198,-0.007967,8.186272,2.139206,-17.746429,,,,,,,
1530640149.005388,-0.049286,0.160487,-1.723920,0.017200,0.030530,-0.022723,-0.048633,-0.159799,-0.985951,0.001606,-0.015845,-0.003154,8.015896,2.036751,-17.533020,,,,,,,
1530640149.025356,-0.048554,0.160730,-1.724440,-0.001652,0.030557,-0.025758,-0.047909,-0.160039,-0.985947,-0.000125,-0.014110,0.003831,8.125515,2.305893,-17.448311,,,,,,,
1530640149.045325,-0.048087,0.160585,-1.724973,-0.010054,0.011779,-0.023599,-0.047450,-0.159895,-0.985993,0.000041,-0.012681,-0.009506,8.234093,2.323662,-17.354622,,,,,,,
1530640149.065293,-0.047597,0.160803,-1.725436,0.023458,0.024979,-0.018503,-0.046965,-0.160111,-0.985981,0.000045,-0.008758,-0.012859,8.184193,2.185059,-17.745728,,,,,,,
1530640149.085262,-0.046811,0.161881,-1.725625,0.062154,0.040335,-0.005896,-0.046182,-0.161175,-0.985845,0.003870,-0.009632,-0.003596,8.231911,2.184517,-17.473778,,,,,,,
1530640149.105231,-0.046146,0.163028,-1.725488,0.047368,0.027002,0.007137,-0.045518,-0.162306,-0.985690,0.004059,-0.013231,0.006305,8.362564,2.107925,-17.561348,,,,,,,
1530640149.125199,-0.046145,0.163584,-1.725479,0.010794,-0.009312,-0.007747,-0.045513,-0.162855,-0.985600,-0.003437,-0.015611,0.005497,8.322899,2.172569,-17.552139,,,,,,,
1530640149.145168,-0.046340,0.163478,-1.725911,-0.015232,-0.005830,-0.031179,-0.045706,-0.162751,-0.985608,-0.007792,-0.014892,-0.001941,8.327335,1.959023,-17.422630,,,,,,,
1530640149.165136,-0.045685,0.163267,-1.726721,-0.012010,0.043919,-0.041758,-0.045062,-0.162543,-0.985672,0.001956,-0.014444,-0.003876,8.335129,2.141434,-17.435524,,,,,,,
1530640149.185105,-0.044693,0.163176,-1.727391,-0.007963,0.040479,-0.023482,-0.044085,-0.162453,-0.985731,0.014269,-0.016044,-0.015764,8.212406,2.197510,-17.774445,,,,,,,
1530640149.205073,-0.044113,0.163438,-1.727593,0.018095,0.018253,-0.003374,-0.043511,-0.162711,-0.985714,0.014458,-0.015817,-0.019932,8.145741,2.155136,-17.377159,,,,,,,
1530640149.225042,-0.044401,0.164249,-1.727299,0.053577,-0.023860,0.018691,-0.043789,-0.163512,-0.985569,0.013821,-0.020479,-0.026577,8.203354,2.017876,-17.533669,,,,,,,
1530640149.245010,-0.045193,0.165602,-1.726689,0.070264,-0.039401,0.030302,-0.044560,-0.164846,-0.985312,0.004460,-0.021266,-0.021600,8.188232,2.049629,-17.602455,,,,,,,
1530640149.264979,-0.046114,0.167017,-1.726069,0.067171,-0.040459,0.023859,-0.045456,-0.166241,-0.985037,-0.006088,-0.022159,-0.019053,8.221691,1.680679,-17.378471,,,,,,,
1530640149.284948,-0.046310,0.168259,-1.725764,0.058928,0.003833,0.004747,-0.045640,-0.167466,-0.984821,-0.015685,-0.022872,-0.011548,8.345192,1.715248,-17.585762,,,,,,,
1530640149.304916,-0.045838,0.169424,-1.726028,0.057064,0.021697,-0.024267,-0.045165,-0.168615,-0.984647,-0.012360,-0.021998,-0.011493,8.225780,1.950897,-17.624512,,,,,,,
1530640149.324885,-0.045456,0.170808,-1.726805,0.071925,0.008595,-0.046060,-0.044779,-0.169978,-0.984430,-0.003561,-0.014928,-0.007376,8.379787,1.783890,-17.496391,,,,,,,
1530640149.344853,-0.045363,0.172304,-1.727644,0.066635,-0.012422,-0.039630,-0.044676,-0.171453,-0.984179,0.007933,-0.010417,0.000689,8.230667,1.879669,-17.685532,,,,,,,
1530640149.364822,-0.045933,0.173435,-1.728212,0.042403,-0.034590,-0.025463,-0.045228,-0.172567,-0.983959,0.010865,-0.008356,0.004543,8.256149,1.978653,-17.459282,,,,,,,
1530640149.384790,-0.046561,0.174217,-1.728486,0.030759,-0.024742,-0.012349,-0.045840,-0.173337,-0.983795,0.007662,-0.003665,-0.003006,8.184849,2.016319,-17.500702,,,,,,,
1530640149.404759,-0.047001,0.175014,-1.728578,0.044313,-0.020397,-0.002765,-0.046266,-0.174122,-0.983637,0.005098,0.001728,-0.006552,8.234684,1.655655,-17.743607,,,,,,,
1530640149.424727,-0.047433,0.176079,-1.728477,0.056829,-0.027083,0.005698,-0.046682,-0.175171,-0.983431,0.002080,0.004135,-0.005476,8.291790,1.699043,-17.481400,,,,,,,
1530640149.444696,-0.048113,0.177294,-1.728184,0.060956,-0.035975,0.014240,-0.047340,-0.176367,-0.983185,-0.000313,0.006552,0.002793,8.137135,1.865120,-17.608337,,,,,,,
1530640149.464665,-0.049194,0.178395,-1.727882,0.050494,-0.069074,0.012034,-0.048394,-0.177450,-0.982939,-0.002448,0.007376,0.003539,8.198441,1.849426,-17.631790,,,,,,,
1530640149.484633,-0.050574,0.179333,-1.727618,0.048421,-0.060220,0.008863,-0.049742,-0.178374,-0.982705,-0.008134,0.011336,0.006829,8.175739,1.869934,-17.780289,,,,,,,
1530640149.504602,-0.051468,0.180114,-1.727557,0.035946,-0.041353,-0.004932,-0.050613,-0.179142,-0.982520,-0.010727,0.010899,0.010444,8.255688,2.032906,-17.675446,,,,,,,
1530640149.524570,-0.052027,0.180587,-1.727795,0.019258,-0.024709,-0.016539,-0.051158,-0.179607,-0.982407,-0.007786,0.011455,0.014314,8.275486,1.804619,-17.741158,,,,,,,
1530640149.544539,-0.052335,0.180822,-1.728384,0.007871,-0.021268,-0.034734,-0.051458,-0.179838,-0.982349,-0.004267,0.012388,0.015736,8.145836,1.926819,-17.748016,,,,,,,
1530640149.564507,-0.052760,0.180984,-1.729148,0.006893,-0.025623,-0.043375,-0.051874,-0.179997,-0.982298,-0.001288,0.012410,0.014922,8.237259,1.806656,-17.407417,,,,,,,
1530640149.584476,-0.053222,0.181234,-1.729959,0.015265,-0.031160,-0.041337,-0.052326,-0.180243,-0.982229,0.004795,0.010932,0.010366,8.114632,1.769188,-17.615715,,,,,,,
1530640149.604444,-0.053630,0.181557,-1.730883,0.013222,-0.024491,-0.047746,-0.052723,-0.180561,-0.982150,0.009358,0.008519,0.011874,8.131882,1.922928,-17.592003,,,,,,,
1530640149.624413,-0.053824,0.181569,-1.731877,-0.011933,-0.016743,-0.049600,-0.052914,-0.180573,-0.982137,0.013363,0.005799,0.014226,8.086040,1.921120,-17.609573,,,,,,,
1530640149.644382,-0.053899,0.180866,-1.732801,-0.048696,-0.006843,-0.042692,-0.052994,-0.179881,-0.982260,0.020981,0.002833,0.009787,8.135979,2.033783,-17.530106,,,,,,,
1530640149.664350,-0.053692,0.179603,-1.733532,-0.067682,0.012942,-0.029447,-0.052803,-0.178639,-0.982497,0.021904,-0.001781,0.001616,8.157608,1.777695,-17.590805,,,,,,,
1530640149.684319,-0.053115,0.178254,-1.734125,-0.062484,0.018423,-0.024087,-0.052249,-0.177311,-0.982767,0.020236,-0.006496,-0.010947,8.098225,2.122612,-17.470001,,,,,,,
1530640149.704287,-0.052739,0.177535,-1.734679,-0.020523,0.010693,-0.025648,-0.051886,-0.176604,-0.982913,0.019858,-0.010179,-0.014966,8.095760,1.864647,-17.496742,,,,,,,
1530640149.724256,-0.052534,0.177606,-1.735244,0.007789,-0.006984,-0.024957,-0.051684,-0.176674,-0.982912,0.020922,-0.011467,-0.010863,8.040043,1.947586,-17.578957,,,,,,,
1530640149.744224,-0.052668,0.177663,-1.735666,-0.004848,-0.011441,-0.018374,-0.051815,-0.176730,-0.982895,0.020306,-0.013791,-0.006775,7.979939,1.848679,-17.585014,,,,,,,
1530640149.764193,-0.052504,0.177480,-1.736053,-0.010072,0.010660,-0.021449,-0.051656,-0.176549,-0.982935,0.012792,-0.013422,-0.015874,8.027042,2.160919,-17.349930,,,,,,,
1530640149.784162,-0.051715,0.177493,-1.736647,0.002583,0.047152,-0.031115,-0.050880,-0.176563,-0.982973,0.009223,-0.013195,-0.016203,8.086063,2.061699,-17.511314,,,,,,,
1530640149.804130,-0.050329,0.177778,-1.737232,0.017210,0.063662,-0.024719,-0.049515,-0.176843,-0.982993,0.010254,-0.006796,-0.028940,8.192734,2.042725,-17.559654,,,,,,,
1530640149.824099,-0.048107,0.178869,-1.737325,0.085104,0.142907,0.006216,-0.047322,-0.177917,-0.982907,-0.002147,0.001846,-0.041217,8.285786,1.816452,-17.552139,,,,,,,
1530640149.844067,-0.044205,0.182168,-1.736739,0.210820,0.225570,0.019295,-0.043459,-0.181162,-0.982493,-0.015089,0.006846,-0.049703,8.382103,1.789322,-17.546799,,,,,,,
1530640149.864036,-0.039376,0.187145,-1.734925,0.285081,0.268654,0.170783,-0.038679,-0.186055,-0.981778,0.025602,0.089558,-0.047702,8.457825,1.719971,-17.504684,,,,,,,
1530640149.884004,-0.035719,0.195012,-1.728424,0.470278,0.214353,0.351894,-0.035035,-0.193778,-0.980420,0.003800,0.072440,-0.087741,8.350597,1.680275,-17.347122,,,,,,,
1530640149.903973,-0.033254,0.205913,-1.722001,0.608587,0.216205,0.237184,-0.032545,-0.204461,-0.978334,-0.042879,0.051781,-0.090880,8.430634,1.438454,-17.558380,,,,,,,
1530640149.923941,-0.028380,0.219012,-1.719655,0.685009,0.287408,-0.005955,-0.027698,-0.217266,-0.975719,-0.094342,0.038646,-0.076450,8.560307,1.048111,-17.535713,,,,,,,
1530640149.943910,-0.021192,0.232592,-1.723976,0.671313,0.292238,-0.384348,-0.020620,-0.230500,-0.972854,-0.151332,0.042649,-0.009110,8.612156,0.783875,-17.403320,,,,,,,
1530640149.963879,-0.015761,0.245660,-1.737725,0.654002,0.000557,-0.826690,-0.015287,-0.243196,-0.969857,-0.110507,0.048662,0.040413,8.818794,0.569336,-17.292213,,,,,,,
1530640149.983847,-0.014942,0.258264,-1.756167,0.601273,-0.330020,-0.910766,-0.014446,-0.255403,-0.966727,-0.047688,0.029680,0.054068,8.927719,0.517982,-17.125107,,,,,,,
1530640150.003816,-0.023026,0.269400,-1.773576,0.536621,-0.800928,-0.815281,-0.022194,-0.266153,-0.963675,-0.018791,-0.004065,0.027488,8.554577,0.442436,-17.574417,,,,,,,
1530640150.023784,-0.040286,0.280030,-1.789158,0.496294,-1.207630,-0.746711,-0.038706,-0.276385,-0.960267,-0.008550,-0.005079,0.074800,8.264751,0.332405,-17.816727,,,,,,,
1530640150.043753,-0.058746,0.287090,-1.802193,0.169534,-0.860049,-0.549570,-0.056309,-0.283163,-0.957417,-0.011898,0.008093,0.173741,7.876106,0.485161,-17.882767,,,,,,,
1530640150.063721,-0.071751,0.288480,-1.809156,-0.011332,-0.670076,-0.236111,-0.068727,-0.284496,-0.956211,-0.017454,-0.053044,0.131092,7.438099,0.712677,-17.877815,,,,,,,
1530640150.083690,-0.082638,0.286594,-1.812658,-0.150815,-0.560518,-0.108990,-0.079177,-0.282687,-0.955939,-0.026643,-0.001310,0.134879,7.249493,0.582558,-17.917007,,,,,,,
1530640150.103659,-0.094299,0.280220,-1.812903,-0.446130,-0.688828,0.101699,-0.090487,-0.276567,-0.956725,-0.119672,0.133318,0.109877,7.034386,0.858246,-18.122215,,,,,,,
1530640150.123627,-0.114166,0.269479,-1.809254,-0.506258,-1.086374,0.283774,-0.109807,-0.266229,-0.957635,-0.188548,0.088083,0.000405,6.676319,0.806358,-18.234535,,,,,,,
1530640150.143596,-0.142576,0.258852,-1.806271,-0.550266,-1.561308,0.162232,-0.137360,-0.255971,-0.956876,-0.205933,0.075414,0.151379,6.196388,0.956802,-18.311432,,,,,,,
1530640150.163564,-0.179413,0.245369,-1.804175,-0.667448,-1.971556,0.268277,-0.173107,-0.242915,-0.954477,-0.110203,0.057704,0.157526,5.521389,1.150688,-18.411537,,,,,,,
1530640150.183533,-0.223914,0.239139,-1.796356,0.179527,-2.184790,0.573148,-0.215729,-0.236866,-0.947289,0.086120,0.025715,-0.161690,4.785454,1.157097,-18.637459,,,,,,,
1530640150.203501,-0.279497,0.251743,-1.771331,1.293518,-2.683766,1.319220,-0.267176,-0.249092,-0.930897,0.072032,0.244637,-0.122127,3.879612,0.854347,-18.814285,,,,,,,
1530640150.223469,-0.341277,0.273056,-1.731338,1.694700,-2.279967,1.493767,-0.322291,-0.269675,-0.907416,0.000208,0.386802,0.251303,2.848698,0.355301,-19.041893,,,,,,,
1530640150.243438,-0.386103,0.293840,-1.691696,1.583419,-1.443123,1.488204,-0.360441,-0.289629,-0.886678,0.068098,0.337939,0.253911,1.989319,-0.779167,-18.928757,,,,,,,
1530640150.263407,-0.425348,0.306210,-1.644781,1.408167,-1.239159,2.013059,-0.393443,-0.301447,-0.868523,0.212077,0.338846,0.260872,1.511097,-1.586006,-18.879936,,,,,,,
1530640150.283376,-0.472310,0.310338,-1.588949,1.300339,-1.697421,2.516751,-0.433212,-0.305381,-0.847980,0.311599,0.335502,0.267795,0.956207,-2.203468,-18.815536,,,,,,,
1530640150.303344,-0.529849,0.303679,-1.522948,1.190420,-1.966658,3.143242,-0.482278,-0.299032,-0.823400,0.294534,0.409888,0.275442,0.134106,-2.671455,-18.735130,,,,,,,
1530640150.323313,-0.593377,0.284150,-1.446780,1.001790,-2.195748,4.033933,-0.536742,-0.280342,-0.795812,0.716872,0.411384,0.312627,-1.082853,-3.036346,-18.419258,,,,,,,
1530640150.343282,-0.674998,0.237857,-1.355017,0.748556,-3.241753,5.408863,-0.607302,-0.235620,-0.758728,0.605669,0.465112,-0.021378,-2.678740,-3.565056,-18.314316,,,,,,,
1530640150.363250,-0.772160,0.179829,-1.249696,1.623890,-4.091598,5.981063,-0.686434,-0.178862,-0.704853,0.359316,0.482023,-0.393978,-4.714565,-4.295403,-17.949936,,,,,,,
1530640150.383219,-0.877287,0.116356,-1.131049,2.399167,-4.457291,6.466076,-0.763808,-0.116094,-0.634917,0.278807,0.376073,-0.258439,-7.229429,-4.566658,-17.302292,,,,,,,
1530640150.403187,-0.970887,0.043517,-1.014136,2.423329,-3.945171,6.319451,-0.824605,-0.043503,-0.564033,-0.127253,0.222443,-0.118584,-9.540649,-4.710236,-16.273071,,,,,,,
1530640150.423156,-1.037361,-0.032323,-0.912788,2.160317,-2.894874,5.625204,-0.860615,0.032317,-0.508229,-0.488109,-0.004195,-0.188838,-11.249075,-4.774826,-15.395729,,,,,,,
1530640150.443123,-1.078293,-0.098718,-0.827132,2.101488,-1.990184,4.586183,-0.876862,0.098558,-0.470531,-0.751327,-0.296952,-0.294468,-12.709455,-4.652252,-14.754494,,,,,,,
1530640150.463093,-1.097605,-0.148015,-0.755323,1.910813,-1.053403,3.382634,-0.880386,0.147475,-0.450746,-0.892319,-0.446623,-0.168837,-13.592073,-4.843346,-14.138870,,,,,,,
1530640150.483062,-1.098789,-0.179719,-0.701828,1.457215,-0.181431,2.144903,-0.876313,0.178753,-0.447352,-0.904174,-0.522045,-0.055334,-14.021086,-4.686638,-13.712837,,,,,,,
1530640150.503029,-1.088007,-0.192734,-0.667077,1.095894,0.384669,0.915499,-0.869304,0.191543,-0.455656,-0.780888,-0.534515,0.033918,-14.286991,-4.878403,-13.587135,,,,,,,
1530640150.522998,-1.077881,-0.189183,-0.647005,0.881219,0.180341,-0.017200,-0.865239,0.188057,-0.464753,-0.562465,-0.578224,0.102067,-14.157751,-5.077690,-13.438042,,,,,,,
1530640150.542966,-1.080650,-0.175714,-0.637239,0.646220,-0.486298,-0.503242,-0.868679,0.174812,-0.463506,-0.334126,-0.515876,0.212957,-14.330812,-5.362747,-13.156059,,,,,,,
1530640150.562935,-1.099228,-0.162872,-0.634188,0.288767,-1.240165,-0.501990,-0.879067,0.162153,-0.448272,-0.132850,-0.422895,0.275939,-14.311056,-5.827614,-12.736732,,,,,,,
1530640150.582904,-1.125222,-0.154744,-0.640530,-0.476024,-1.113211,-0.466260,-0.891581,0.154127,-0.425826,0.065195,-0.259322,0.667358,-14.507040,-5.754402,-12.263237,,,,,,,
1530640150.602872,-1.154070,-0.158039,-0.654822,-0.516335,-1.801910,-0.006464,-0.903024,0.157382,-0.399724,0.223534,-0.303592,-0.066264,-14.966545,-5.622795,-11.766495,,,,,,,
1530640150.622841,-1.214217,-0.152298,-0.646756,0.986773,-3.662717,-0.135002,-0.926250,0.151709,-0.345030,0.016231,-0.202048,-0.360490,-15.599949,-5.932655,-10.784828,,,,,,,
1530640150.642809,-1.283690,-0.146317,-0.625686,0.949131,-3.354136,0.100922,-0.948819,0.145795,-0.280152,0.095258,-0.169447,0.365220,-16.165972,-6.026604,-9.294456,,,,,,,
1530640150.662778,-1.340001,-0.144800,-0.617410,0.087071,-2.576830,-0.039281,-0.963297,0.144294,-0.226357,-0.033132,0.016594,0.614984,-16.580725,-6.274948,-8.094376,,,,,,,
1530640150.682747,-1.390954,-0.144868,-0.623408,-0.305235,-2.849292,0.109188,-0.973566,0.144362,-0.177001,0.170023,-0.016890,0.084044,-16.940331,-6.059586,-7.592445,,,,,,,
1530640150.702715,-1.454111,-0.149801,-0.625763,-0.196859,-3.471520,0.208570,-0.982077,0.149241,-0.115117,0.142737,0.059804,0.249547,-17.366003,-6.061066,-6.513077,,,,,,,
1530640150.722684,-1.528024,-0.159032,-0.631723,-0.386668,-3.569083,0.597314,-0.986478,0.158362,-0.042220,0.216275,0.253778,0.187621,-17.885868,-5.802048,-5.258667,,,,,,,
1530640150.742652,-1.594174,-0.175111,-0.636854,-0.066982,-2.967155,0.858890,-0.984438,0.174217,0.023018,0.083712,0.313988,-0.094338,-18.228529,-5.700058,-4.400909,,,,,,,
1530640150.762621,-1.643327,-0.193863,-0.630511,0.591378,-2.265113,0.994379,-0.978687,0.192651,0.071109,0.222935,0.365653,-0.057804,-18.526443,-5.549210,-3.310898,,,,,,,
1530640150.782590,-1.687133,-0.220367,-0.620266,0.563950,-2.506401,1.406585,-0.969221,0.218588,0.113268,0.355238,0.426523,0.058684,-18.886322,-5.125114,-2.494560,,,,,,,
1530640150.802558,-1.739017,-0.252739,-0.617066,0.316259,-2.550016,1.818852,-0.954563,0.250057,0.162110,0.391041,0.551823,0.176574,-19.313147,-4.522438,-1.405365,,,,,,,
1530640150.822527,-1.786854,-0.304350,-0.618835,0.535558,-2.320606,2.955459,-0.931860,0.299673,0.204528,0.319372,0.500146,-0.073745,-19.871956,-3.410263,-0.344894,,,,,,,
1530640150.842495,-1.834654,-0.371066,-0.620650,0.771317,-2.283768,3.364043,-0.899687,0.362609,0.243056,-0.063463,0.457261,0.003877,-20.519808,-2.054871,0.400536,,,,,,,
1530640150.862464,-1.871075,-0.436650,-0.624261,0.734113,-1.379457,3.017206,-0.865625,0.422906,0.268033,-0.420126,0.248038,0.163333,-21.071495,-0.908203,1.198364,,,,,,,
1530640150.882433,-1.890745,-0.491307,-0.629230,0.534556,-0.650696,2.522410,-0.836971,0.471779,0.277316,-0.511372,-0.108162,0.179746,-21.295029,-0.120506,1.582115,,,,,,,
1530640150.902401,-1.906829,-0.539345,-0.641375,0.105281,-0.430266,2.434224,-0.810054,0.513574,0.282936,-0.594181,-0.373819,0.109322,-21.614386,1.139053,1.979431,,,,,,,
1530640150.922370,-1.925865,-0.585003,-0.665190,-0.352974,-0.232257,2.556542,-0.781705,0.552202,0.289843,-0.483676,-0.456819,0.103650,-21.721863,2.106583,1.865097,,,,,,,
1530640150.942338,-1.962356,-0.626498,-0.693986,-0.404032,-1.446908,2.289147,-0.748774,0.586312,0.309153,-0.283178,-0.489464,-0.045786,-21.803518,3.064262,2.667854,,,,,,,
1530640150.962307,-2.019393,-0.666836,-0.724290,-0.053403,-2.027250,2.386149,-0.708034,0.618503,0.340795,-0.043766,-0.286121,0.056986,-21.568966,4.078400,3.475784,,,,,,,
1530640150.982275,-2.031578,-0.713661,-0.720029,2.044712,0.065264,1.722436,-0.677126,0.654606,0.336141,0.034136,0.146450,0.441585,-21.632124,5.025864,3.427452,,,,,,,
1530640151.002244,-2.009653,-0.761378,-0.674084,2.515088,-1.092147,1.294452,-0.655289,0.689919,0.307583,0.073471,0.184775,0.434788,-21.508011,5.786774,3.622269,,,,,,,
1530640151.022213,-2.014576,-0.797366,-0.639665,1.445127,-1.432780,0.956935,-0.630925,0.715518,0.299946,0.069554,0.157025,0.429531,-21.504730,6.278267,4.078094,,,,,,,
1530640151.042181,-2.029966,-0.815712,-0.631369,0.207385,-0.765304,0.593713,-0.614362,0.728214,0.303750,0.088514,0.150754,0.416984,-21.421028,6.471375,4.207184,,,,,,,
1530640151.062150,-2.045125,-0.822409,-0.647636,-0.603964,0.152741,0.532375,-0.605335,0.732787,0.310793,0.190433,0.074678,0.235975,-21.470037,6.760292,4.177155,,,,,,,
1530640151.082119,-2.058228,-0.823504,-0.673959,-0.793706,0.275201,0.392626,-0.600502,0.733532,0.318322,0.212547,-0.082531,0.040046,-21.492355,6.818314,4.126648,,,,,,,
1530640151.102087,-2.074396,-0.822173,-0.692084,-0.369996,-0.424222,0.146379,-0.596132,0.732626,0.328460,0.216005,-0.092627,-0.013762,-21.382866,6.884979,4.366684,,,,,,,
1530640151.122056,-2.081819,-0.823665,-0.690664,0.345400,-0.277648,-0.011535,-0.592722,0.733642,0.332341,0.173960,-0.000441,0.123653,-21.541492,6.901237,4.052734,,,,,,,
1530640151.142025,-2.070617,-0.828609,-0.673301,0.746674,-0.023253,-0.101947,-0.593217,0.736992,0.323938,0.060243,-0.005760,0.117621,-21.537472,6.885460,3.849251,,,,,,,
1530640151.161994,-2.058179,-0.835823,-0.658706,0.400005,0.196701,0.353632,-0.592487,0.741849,0.314036,0.063206,-0.104733,0.170522,-21.603485,7.182854,3.776581,,,,,,,
1530640151.181962,-2.059484,-0.850507,-0.672726,-0.314751,0.579503,1.063059,-0.582395,0.751615,0.309661,-0.054294,-0.295850,-0.000259,-21.618683,7.542419,3.565506,,,,,,,
1530640151.201931,-2.069138,-0.864555,-0.701342,-0.542418,0.546363,1.077192,-0.570047,0.760807,0.310192,-0.158332,-0.257480,-0.182659,-21.577053,7.997887,3.277145,,,,,,,
1530640151.221900,-2.082748,-0.879284,-0.733031,-0.514852,0.594300,1.167724,-0.555942,0.770283,0.312397,-0.149365,-0.060383,-0.181706,-21.381872,8.155365,2.978043,,,,,,,
1530640151.241868,-2.079876,-0.893330,-0.758287,-0.190281,1.611100,0.819728,-0.547336,0.779163,0.305496,-0.007535,0.169170,0.042801,-21.370087,8.830009,2.373528,,,,,,,
1530640151.261837,-2.039987,-0.894535,-0.762299,-0.272196,2.031760,-0.462972,-0.558246,0.779918,0.283002,0.206928,0.169652,0.010028,-21.264015,8.726662,1.277725,,,,,,,
1530640151.281806,-2.022681,-0.884243,-0.779918,-0.965027,1.436019,0.154145,-0.570250,0.773435,0.276789,0.510894,-0.595121,-0.054972,-21.194988,8.579826,0.659515,,,,,,,
,,,,,,,,,,,,,,,,39.779226,-84.064344,292.715790,-1.000000,-1.000000,1530640151.276922,
1530640151.301775,-2.007710,-0.878561,-0.811347,-0.984619,2.268805,0.092578,-0.578303,0.769821,0.270076,0.319209,-0.268554,-0.121318,-21.147434,8.604103,-0.043373,,,,,,,
1530640151.321743,-1.978316,-0.869566,-0.829516,-0.531075,1.917350,-0.348593,-0.592324,0.764049,0.255697,0.088143,-0.070858,-0.404196,-21.095165,8.580757,-0.966019,,,,,,,
