timestamp(unix),attitude_roll(radians),attitude_pitch(radians),attitude_yaw(radians),rotation_rate_x(radians/s),rotation_rate_y(radians/s),rotation_rate_z(radians/s),gravity_x(G),gravity_y(G),gravity_z(G),user_acc_x(G),user_acc_y(G),user_acc_z(G),magnetic_field_x(microteslas),magnetic_field_y(microteslas),magnetic_field_z(microteslas),latitude(degree),longitude(degree),altitude(meter),speed(m/s),course(degree),timestamp(unix),User Mark
,,,,,,,,,,,,,,,,39.779240,-84.064462,292.169739,-1.000000,-1.000000,1530639771.453196,
1530639781.648434,0.084202,0.353256,-0.828190,-0.306567,0.055159,-0.056909,0.078910,-0.345954,-0.934927,0.023065,-0.002358,-0.033487,7.329845,-4.294243,-14.374306,,,,,,,
,,,,,,,,,,,,,,,,39.779240,-84.064462,292.169739,-1.000000,-1.000000,1530639780.453196,
1530639781.668403,0.084626,0.347313,-0.828697,-0.331857,-0.037680,-0.039835,0.079478,-0.340372,-0.936926,0.024557,0.007349,-0.003565,7.523376,-4.372231,-14.457230,,,,,,,
1530639781.688372,0.081493,0.339806,-0.827886,-0.404821,-0.203788,0.038880,0.076748,-0.333304,-0.939690,0.034611,-0.021844,-0.042838,7.416294,-4.192108,-14.467758,,,,,,,
1530639781.708340,0.076574,0.333434,-0.825698,-0.259540,-0.192100,0.097782,0.072286,-0.327290,-0.942155,0.032008,-0.006588,-0.074965,7.284924,-4.154633,-14.450645,,,,,,,
,,,,,,,,,,,,,,,,39.779228,-84.064573,292.169739,-1.000000,-1.000000,1530639781.704075,
,,,,,,,,,,,,,,,,39.779228,-84.064573,292.169739,-1.000000,-1.000000,1530639781.708410,
1530639781.728309,0.073631,0.331823,-0.823472,0.005730,-0.074082,0.099835,0.069552,-0.325768,-0.942888,-0.005022,0.025322,-0.092879,7.252769,-4.161293,-14.653679,,,,,,,
1530639781.748278,0.073636,0.335107,-0.822180,0.234719,0.071908,0.049565,0.069477,-0.328871,-0.941816,-0.014438,0.027143,-0.054827,7.247147,-4.385109,-14.663643,,,,,,,
,,,,,,,,,,,,,,,,39.779228,-84.064574,292.169739,-1.000000,-1.000000,1530639781.751129,
1530639781.768246,0.075881,0.340409,-0.822014,0.252757,0.114037,0.022610,0.071458,-0.333872,-0.939906,-0.017396,0.009867,-0.008794,7.091713,-4.344521,-14.524895,,,,,,,
,,,,,,,,,,,,,,,,39.779228,-84.064574,292.169739,-1.000000,-1.000000,1530639781.756596,
1530639781.788215,0.076685,0.343786,-0.821414,0.095113,-0.040780,0.068844,0.072127,-0.337054,-0.938718,0.004472,0.003954,0.015134,7.302959,-4.545700,-14.485046,,,,,,,
1530639781.808183,0.072511,0.342829,-0.818869,-0.120253,-0.137098,0.119213,0.068231,-0.336153,-0.939333,-0.023310,-0.032454,0.028444,7.278591,-4.568596,-14.605957,,,,,,,
,,,,,,,,,,,,,,,,39.779228,-84.064574,292.169739,-1.000000,-1.000000,1530639781.812283,
1530639781.828152,0.069981,0.339116,-0.817481,-0.199031,-0.124145,0.005789,0.065941,-0.332653,-0.940741,-0.022057,0.001233,0.019919,7.010361,-4.443428,-14.577118,,,,,,,
,,,,,,,,,,,,,,,,39.779228,-84.064574,292.169739,-1.000000,-1.000000,1530639781.817921,
1530639781.848121,0.066862,0.335385,-0.817891,-0.155619,-0.156929,-0.044443,0.063090,-0.329133,-0.942174,-0.023997,0.008927,-0.021434,6.981491,-4.413956,-14.890747,,,,,,,
1530639781.868089,0.064541,0.333704,-0.818777,-0.038157,-0.127147,-0.046629,0.060939,-0.327545,-0.942868,-0.024424,0.013870,-0.014621,7.022038,-4.512772,-14.869499,,,,,,,
1530639781.888057,0.062351,0.333967,-0.819925,0.026945,-0.129304,-0.057041,0.058868,-0.327793,-0.942914,-0.040863,0.019245,0.005658,6.912861,-4.284470,-14.733925,,,,,,,
1530639781.908025,0.059755,0.334220,-0.821222,-0.013904,-0.161269,-0.062152,0.056415,-0.328033,-0.942980,-0.040760,0.017104,0.021807,6.798634,-4.309555,-14.552574,,,,,,,
1530639781.927994,0.056609,0.333034,-0.822177,-0.071740,-0.171323,-0.042166,0.053470,-0.326911,-0.943541,-0.032596,0.012092,0.016539,6.744648,-4.362587,-14.802200,,,,,,,
1530639781.947963,0.054093,0.331451,-0.822636,-0.066692,-0.090890,-0.020265,0.051124,-0.325415,-0.944188,-0.033989,0.016791,0.001531,6.688019,-4.148872,-14.799957,,,,,,,
1530639781.967931,0.053050,0.330301,-0.822850,-0.051019,-0.034634,-0.014768,0.050159,-0.324328,-0.944614,-0.044406,0.025897,-0.001248,6.672707,-4.175690,-14.802269,,,,,,,
1530639781.987900,0.052432,0.328972,-0.823045,-0.076186,-0.016958,-0.015497,0.049597,-0.323071,-0.945074,-0.040030,0.019619,0.004751,6.877712,-4.346870,-14.943771,,,,,,,
1530639782.007869,0.052699,0.327054,-0.823099,-0.104589,0.031553,-0.005244,0.049882,-0.321255,-0.945678,-0.034837,0.009334,0.017776,6.696350,-4.061378,-14.921501,,,,,,,
1530639782.031573,0.052989,0.324290,-0.822549,-0.119493,0.029163,0.021862,0.050204,-0.318636,-0.946547,-0.024111,0.003236,0.009947,6.717739,-4.183189,-15.012642,,,,,,,
1530639782.051542,0.052538,0.321858,-0.821557,-0.117517,-0.011793,0.037822,0.049817,-0.316329,-0.947340,-0.022077,0.000732,-0.007768,6.716328,-4.153015,-15.116264,,,,,,,
,,,,,,,,,,,,,,,,39.779231,-84.064388,292.403839,-1.000000,-1.000000,1530639782.049290,
1530639782.071511,0.051460,0.319706,-0.820652,-0.102765,-0.041550,0.029972,0.048831,-0.314288,-0.948071,-0.019458,0.005557,-0.016666,6.795864,-4.121841,-14.818199,,,,,,,
1530639782.091479,0.050168,0.318292,-0.819930,-0.051376,-0.043770,0.029413,0.047628,-0.312945,-0.948576,-0.011327,0.006624,-0.031480,6.704247,-4.043701,-15.177963,,,,,,,
1530639782.111448,0.049257,0.318266,-0.819071,0.019801,-0.014096,0.044978,0.046765,-0.312920,-0.948627,-0.015728,0.006676,-0.025936,6.719719,-4.165718,-15.146141,,,,,,,
1530639782.131417,0.048924,0.319236,-0.818172,0.053391,0.001380,0.040377,0.046434,-0.313842,-0.948339,-0.017884,0.004805,-0.017710,6.701946,-4.081268,-14.897675,,,,,,,
1530639782.151385,0.048489,0.320050,-0.817597,0.029431,-0.013934,0.021144,0.046009,-0.314614,-0.948104,-0.012241,-0.002402,-0.008836,6.677685,-4.185616,-14.948273,,,,,,,
1530639782.171354,0.047790,0.319977,-0.817301,-0.020786,-0.037006,0.007553,0.045347,-0.314545,-0.948159,-0.010801,-0.001236,-0.006248,6.540974,-4.297592,-15.224098,,,,,,,
1530639782.191322,0.046773,0.318685,-0.817334,-0.082486,-0.053399,-0.013446,0.044402,-0.313318,-0.948610,-0.013625,-0.001471,-0.004469,6.605480,-4.113960,-15.063454,,,,,,,
1530639782.211291,0.045539,0.316378,-0.817796,-0.126327,-0.075294,-0.037891,0.043264,-0.311126,-0.949383,-0.012670,-0.001374,-0.018756,6.610607,-3.920029,-15.221527,,,,,,,
1530639782.231260,0.043669,0.313652,-0.818734,-0.134519,-0.121498,-0.060670,0.041525,-0.308534,-0.950306,-0.005743,-0.001738,-0.038463,6.462265,-3.807251,-15.198112,,,,,,,
1530639782.251228,0.040899,0.311361,-0.820013,-0.091429,-0.172221,-0.071083,0.038922,-0.306354,-0.951122,-0.000577,-0.002697,-0.069035,6.499100,-3.831444,-15.089516,,,,,,,
1530639782.271197,0.038633,0.310631,-0.821618,0.000922,-0.101529,-0.081436,0.036775,-0.305660,-0.951430,-0.000398,0.005214,-0.056520,6.587170,-3.947556,-15.331947,,,,,,,
1530639782.291166,0.038343,0.311549,-0.823554,0.075461,-0.019778,-0.093698,0.036488,-0.306533,-0.951160,-0.009282,0.008758,-0.052319,6.515533,-3.874107,-15.182167,,,,,,,
1530639782.311134,0.039025,0.313606,-0.825624,0.126842,0.016637,-0.094069,0.037112,-0.308491,-0.950503,-0.009371,0.003681,-0.039441,6.623981,-3.942505,-15.312592,,,,,,,
1530639782.331103,0.040109,0.316571,-0.827623,0.170792,0.019855,-0.082659,0.038106,-0.311310,-0.949544,-0.007756,0.001098,-0.031489,6.607136,-3.773842,-15.284866,,,,,,,
1530639782.351071,0.040207,0.320082,-0.829281,0.183261,-0.050908,-0.066957,0.038155,-0.314645,-0.948442,-0.004982,0.005288,-0.018461,6.498711,-3.825523,-15.210716,,,,,,,
1530639782.371040,0.039299,0.323448,-0.830702,0.165384,-0.070818,-0.060394,0.037252,-0.317837,-0.947413,-0.002767,0.002438,0.006114,6.566341,-4.274673,-15.397583,,,,,,,
1530639782.391009,0.037587,0.326061,-0.832283,0.120444,-0.135817,-0.077484,0.035598,-0.320314,-0.946642,-0.012435,0.006486,0.000079,6.467724,-4.153183,-15.338974,,,,,,,
1530639782.410977,0.035557,0.327991,-0.834320,0.095453,-0.113576,-0.099759,0.033654,-0.322142,-0.946093,-0.017709,0.009886,0.020937,6.491611,-4.080093,-15.305244,,,,,,,
1530639782.430946,0.035129,0.329267,-0.836465,0.054539,-0.023040,-0.099964,0.033235,-0.323349,-0.945696,-0.017686,0.012909,0.035494,6.501305,-4.043938,-15.414383,,,,,,,
1530639782.450914,0.035750,0.329427,-0.838575,-0.013628,0.000166,-0.100206,0.033821,-0.323501,-0.945623,-0.018180,0.007140,0.019674,6.514645,-4.053024,-15.155151,,,,,,,
1530639782.470883,0.035942,0.328321,-0.840585,-0.066093,-0.028551,-0.095469,0.034014,-0.322454,-0.945974,-0.013003,0.010274,0.001867,6.461739,-3.927887,-15.148048,,,,,,,
1530639782.490852,0.036077,0.326736,-0.842466,-0.075570,-0.018644,-0.091008,0.034161,-0.320953,-0.946479,-0.013958,0.018097,-0.004571,6.519527,-3.843742,-15.246513,,,,,,,
1530639782.510820,0.036467,0.325535,-0.844200,-0.044175,0.005582,-0.083676,0.034544,-0.319816,-0.946850,-0.018125,0.020316,-0.008717,6.423775,-3.943047,-15.078178,,,,,,,
1530639782.530789,0.037169,0.325299,-0.845893,0.012431,0.017688,-0.080980,0.035212,-0.319592,-0.946901,-0.014628,0.019162,-0.011046,6.500271,-3.996384,-15.223770,,,,,,,
1530639782.550758,0.038288,0.325950,-0.847661,0.045977,0.038645,-0.080158,0.036263,-0.320209,-0.946652,-0.011269,0.016102,-0.006442,6.626091,-4.216751,-15.164932,,,,,,,
1530639782.570726,0.039671,0.326964,-0.849066,0.061481,0.063844,-0.053244,0.037559,-0.321169,-0.946277,-0.005165,0.013369,-0.003263,6.573700,-4.130035,-15.167152,,,,,,,
1530639782.590695,0.041348,0.328278,-0.849819,0.076981,0.077997,-0.025296,0.039129,-0.322413,-0.945790,-0.006277,0.015772,-0.006557,6.734222,-4.168388,-15.281731,,,,,,,
1530639782.610663,0.042822,0.329781,-0.850160,0.082086,0.069045,-0.008139,0.040502,-0.323836,-0.945246,-0.003530,0.012679,0.000269,6.691475,-4.198158,-15.481941,,,,,,,
1530639782.630632,0.043583,0.331051,-0.850088,0.055720,0.021451,0.011326,0.041204,-0.325037,-0.944803,-0.003591,0.010035,0.003122,6.524727,-4.133194,-15.309769,,,,,,,
1530639782.650601,0.043267,0.331762,-0.849747,0.027336,-0.019453,0.021140,0.040895,-0.325709,-0.944585,-0.006563,0.010890,0.007116,6.784985,-4.124413,-15.345055,,,,,,,
1530639782.670569,0.042679,0.331979,-0.849244,0.007372,-0.021686,0.025650,0.040337,-0.325915,-0.944538,-0.009239,0.012926,0.008121,6.713062,-4.160408,-15.338654,,,,,,,
1530639782.690538,0.042247,0.331918,-0.848725,-0.000987,-0.001784,0.021523,0.039929,-0.325857,-0.944575,-0.006345,0.016989,-0.000707,6.719460,-4.096626,-15.277786,,,,,,,
1530639782.710507,0.042447,0.331936,-0.848326,0.007459,0.022552,0.014001,0.040118,-0.325874,-0.944562,-0.008379,0.018791,-0.007556,6.743309,-4.279793,-15.466133,,,,,,,
1530639782.730475,0.043097,0.332258,-0.848164,0.023264,0.048004,0.004250,0.040728,-0.326178,-0.944430,-0.007692,0.018164,-0.005444,6.849632,-4.152634,-15.404221,,,,,,,
1530639782.750444,0.044329,0.332694,-0.848252,0.023393,0.064674,-0.011846,0.041884,-0.326590,-0.944237,-0.008803,0.018073,-0.001563,6.878876,-4.293587,-15.331505,,,,,,,
1530639782.770412,0.045737,0.332835,-0.848768,0.004689,0.062620,-0.033232,0.043212,-0.326724,-0.944131,-0.003570,0.014880,-0.006018,6.975574,-4.216225,-15.121964,,,,,,,
1530639782.790381,0.047275,0.332620,-0.849622,-0.006750,0.068225,-0.044944,0.044667,-0.326520,-0.944134,-0.000279,0.014005,-0.004184,6.959389,-4.212585,-15.146675,,,,,,,
1530639782.810350,0.049092,0.332338,-0.850694,-0.007739,0.080420,-0.052421,0.046388,-0.326254,-0.944143,-0.002702,0.014151,0.004400,6.814743,-4.277725,-15.200340,,,,,,,
1530639782.830318,0.051383,0.331943,-0.851999,-0.014972,0.103700,-0.066253,0.048557,-0.325880,-0.944163,-0.000751,0.009047,0.005671,6.861717,-4.293114,-15.315369,,,,,,,
1530639782.850287,0.053725,0.331358,-0.853448,-0.027493,0.088301,-0.073746,0.050778,-0.325328,-0.944237,0.001758,0.006633,0.002083,7.025089,-4.147209,-15.260742,,,,,,,
1530639782.870256,0.055657,0.330564,-0.854970,-0.035880,0.065122,-0.073774,0.052616,-0.324576,-0.944395,0.007442,0.006217,-0.006350,6.963528,-4.197548,-15.401344,,,,,,,
1530639782.890224,0.057165,0.329815,-0.856401,-0.026471,0.048531,-0.069638,0.054054,-0.323868,-0.944557,0.007988,0.004639,-0.000756,7.114555,-4.457443,-15.073845,,,,,,,
1530639782.910193,0.058147,0.329294,-0.857964,-0.020074,0.016599,-0.081724,0.054992,-0.323375,-0.944672,0.005128,0.002956,0.006760,7.191204,-4.051743,-14.895638,,,,,,,
1530639782.930162,0.059433,0.328697,-0.860036,-0.033504,0.055418,-0.107273,0.056219,-0.322810,-0.944793,-0.001684,-0.002798,0.012404,7.145302,-3.960693,-15.157448,,,,,,,
1530639782.950130,0.061168,0.327033,-0.862081,-0.109143,0.036559,-0.090383,0.057890,-0.321234,-0.945228,0.013338,-0.003976,0.002540,7.281380,-4.041931,-15.076958,,,,,,,
1530639782.970099,0.061047,0.323745,-0.863031,-0.188239,-0.056542,-0.032818,0.057840,-0.318119,-0.946285,0.018332,-0.001843,-0.005391,7.139027,-3.928093,-14.984970,,,,,,,
1530639782.990067,0.059902,0.319655,-0.862786,-0.209615,-0.051353,0.015959,0.056834,-0.314239,-0.947641,0.011220,-0.007416,-0.016196,7.214294,-3.910713,-15.118134,,,,,,,
1530639783.010036,0.058385,0.315898,-0.862201,-0.182325,-0.067903,0.013433,0.055465,-0.310670,-0.948898,0.001802,0.002473,-0.026795,7.207443,-3.827408,-15.385735,,,,,,,
1530639783.030005,0.057758,0.312903,-0.861822,-0.142432,0.013826,0.005849,0.054923,-0.307822,-0.949857,-0.010108,-0.003015,-0.025622,7.175022,-3.854126,-15.313225,,,,,,,
1530639783.049973,0.058591,0.310576,-0.861732,-0.109864,0.042571,-0.001905,0.055756,-0.305607,-0.950524,-0.000763,0.000020,-0.031624,7.034657,-3.674721,-15.477943,,,,,,,
1530639783.069942,0.059082,0.309007,-0.861497,-0.063879,0.010405,0.017940,0.056251,-0.304113,-0.950974,0.000328,-0.000239,-0.030365,7.152172,-3.863914,-15.257477,,,,,,,
1530639783.089911,0.058800,0.308390,-0.860793,-0.007393,-0.007398,0.035584,0.055994,-0.303525,-0.951177,0.000922,-0.000231,-0.027415,7.095001,-3.825317,-15.259567,,,,,,,
1530639783.109879,0.059050,0.309013,-0.860216,0.048272,0.029090,0.024384,0.056220,-0.304119,-0.950974,0.005212,-0.000233,-0.006226,7.213024,-3.730034,-15.465439,,,,,,,
1530639783.129848,0.058938,0.310437,-0.859992,0.083023,-0.016066,0.007618,0.056089,-0.305475,-0.950547,0.003299,-0.005804,-0.005508,7.108170,-3.718460,-15.261292,,,,,,,
1530639783.149816,0.058539,0.312287,-0.860174,0.099918,-0.024804,-0.006629,0.055676,-0.307236,-0.950003,0.006809,-0.002395,-0.008600,7.225983,-3.795135,-15.265282,,,,,,,
1530639783.169785,0.057630,0.313876,-0.860669,0.064447,-0.067697,-0.028027,0.054784,-0.308747,-0.949565,-0.016210,-0.003783,-0.003316,7.167542,-3.903564,-15.346832,,,,,,,
1530639783.189754,0.056003,0.314188,-0.861514,-0.007756,-0.110604,-0.045797,0.053233,-0.309045,-0.949556,-0.006526,0.004205,0.001833,7.033382,-3.679474,-15.375420,,,,,,,
1530639783.209722,0.054306,0.313278,-0.862718,-0.056858,-0.096077,-0.068930,0.051637,-0.308179,-0.949926,-0.018815,-0.004458,0.014242,7.185791,-3.847893,-15.181419,,,,,,,
1530639783.229691,0.053535,0.311679,-0.864422,-0.086031,-0.053950,-0.093222,0.050931,-0.306657,-0.950456,-0.021970,0.002839,0.017961,7.197948,-4.021736,-15.408081,,,,,,,
1530639783.249660,0.053417,0.309704,-0.866645,-0.097328,-0.027245,-0.123172,0.050851,-0.304777,-0.951065,-0.024271,0.000456,0.016174,7.201756,-3.882553,-15.362938,,,,,,,
1530639783.269628,0.053949,0.307566,-0.869199,-0.103591,-0.004032,-0.127309,0.051392,-0.302740,-0.951686,-0.019990,-0.000208,0.011638,7.104233,-3.744766,-15.359505,,,,,,,
1530639783.289597,0.054311,0.305414,-0.871564,-0.102669,-0.024014,-0.111235,0.051772,-0.300688,-0.952316,-0.012771,-0.004534,-0.002960,7.160542,-3.536835,-15.411819,,,,,,,
1530639783.309566,0.054073,0.303429,-0.873369,-0.096568,-0.034115,-0.087622,0.051577,-0.298794,-0.952923,-0.023105,-0.017368,-0.001850,7.017406,-3.391449,-15.435234,,,,,,,
1530639783.329534,0.053291,0.301550,-0.874727,-0.091476,-0.059640,-0.068387,0.050863,-0.297001,-0.953522,-0.016805,0.000110,0.001541,6.956097,-3.447327,-15.483505,,,,,,,
1530639783.349503,0.052472,0.299845,-0.875737,-0.083282,-0.048767,-0.044693,0.050108,-0.295372,-0.954067,-0.012586,0.004921,0.001354,7.134472,-3.671661,-15.502426,,,,,,,
1530639783.369472,0.051915,0.298351,-0.876294,-0.070861,-0.023515,-0.025291,0.049600,-0.293945,-0.954534,-0.008233,0.001403,0.002737,7.115616,-3.505753,-15.530357,,,,,,,
1530639783.389440,0.051399,0.297046,-0.876653,-0.064602,-0.035690,-0.021106,0.049127,-0.292697,-0.954942,-0.011209,0.001575,0.001924,7.151524,-3.461205,-15.464470,,,,,,,
1530639783.409409,0.050907,0.295717,-0.877386,-0.069609,-0.034383,-0.050167,0.048676,-0.291426,-0.955354,-0.016892,0.001143,0.008790,7.141895,-3.454842,-15.508240,,,,,,,
1530639783.429377,0.050960,0.293955,-0.878712,-0.094575,-0.001081,-0.075622,0.048753,-0.289740,-0.955863,-0.012757,0.004004,0.012595,7.117302,-3.327003,-15.426888,,,,,,,
1530639783.449346,0.051709,0.291741,-0.880139,-0.114540,0.016556,-0.071008,0.049502,-0.287620,-0.956464,-0.008944,0.000373,0.002775,7.152367,-3.376152,-15.607300,,,,,,,
1530639783.469315,0.052459,0.289464,-0.881189,-0.106355,0.035149,-0.046194,0.050253,-0.285438,-0.957079,-0.009360,-0.011925,0.000719,7.194458,-3.327103,-15.479309,,,,,,,
1530639783.489283,0.053355,0.287537,-0.881827,-0.089674,0.032854,-0.034528,0.051140,-0.283591,-0.957581,-0.016030,-0.012368,0.000137,7.308765,-3.321571,-15.357193,,,,,,,
1530639783.509252,0.053768,0.285985,-0.882528,-0.072826,0.010825,-0.042360,0.051559,-0.282102,-0.957998,-0.015747,-0.020296,0.003301,7.231022,-3.319664,-15.409050,,,,,,,
1530639783.529221,0.053992,0.284592,-0.883442,-0.064326,-0.008958,-0.055490,0.051795,-0.280766,-0.958378,-0.008094,-0.016826,-0.002072,7.177341,-3.294365,-15.520210,,,,,,,
1530639783.549189,0.053863,0.283456,-0.884715,-0.055783,-0.026495,-0.074001,0.051689,-0.279676,-0.958702,-0.015022,-0.023501,0.005440,7.057308,-3.031143,-15.565346,,,,,,,
1530639783.569158,0.053818,0.282058,-0.886536,-0.079657,-0.026280,-0.103942,0.051666,-0.278333,-0.959094,-0.016617,-0.026064,0.005542,7.165581,-2.978737,-15.463470,,,,,,,
1530639783.589127,0.053938,0.279982,-0.888709,-0.110013,-0.018493,-0.111133,0.051813,-0.276339,-0.959663,-0.013376,-0.026579,0.001639,7.238739,-3.016579,-15.550743,,,,,,,
1530639783.609095,0.054313,0.277662,-0.890941,-0.113118,-0.006312,-0.116434,0.052207,-0.274108,-0.960281,-0.011802,-0.025300,-0.003327,7.257965,-3.091331,-15.592445,,,,,,,
1530639783.629064,0.054691,0.275589,-0.893274,-0.097358,-0.016229,-0.119886,0.052601,-0.272114,-0.960826,-0.004338,-0.030468,-0.009862,7.269264,-2.854362,-15.325333,,,,,,,
1530639783.649032,0.054518,0.273864,-0.895687,-0.083663,-0.051512,-0.126673,0.052460,-0.270454,-0.961303,0.000152,-0.030770,-0.012925,7.312344,-2.927315,-15.378189,,,,,,,
1530639783.669001,0.053627,0.272149,-0.898316,-0.091946,-0.093375,-0.138650,0.051628,-0.268802,-0.961811,0.000801,-0.029171,-0.006710,7.325386,-2.980583,-15.505859,,,,,,,
1530639783.688970,0.052011,0.269910,-0.901211,-0.123321,-0.127520,-0.148186,0.050105,-0.266645,-0.962491,-0.004740,-0.025530,-0.013156,7.365887,-2.792114,-15.481255,,,,,,,
1530639783.708938,0.049978,0.267102,-0.904000,-0.146511,-0.149696,-0.132945,0.048185,-0.263937,-0.963335,-0.005964,-0.015451,-0.027982,7.410915,-2.999161,-15.648460,,,,,,,
1530639783.728907,0.048207,0.264473,-0.906328,-0.108964,-0.094676,-0.109357,0.046513,-0.261400,-0.964109,-0.007039,-0.015333,-0.034396,7.276501,-2.674736,-15.509430,,,,,,,
1530639783.748876,0.047648,0.263514,-0.908353,-0.012622,-0.031891,-0.093896,0.045986,-0.260475,-0.964385,-0.007183,-0.007225,-0.040498,7.273911,-2.657654,-15.530418,,,,,,,
1530639783.768844,0.047846,0.264404,-0.910321,0.079660,-0.008733,-0.094773,0.046166,-0.261334,-0.964144,-0.014076,-0.005756,-0.032362,7.328053,-2.642204,-15.650314,,,,,,,
1530639783.788813,0.048443,0.266595,-0.912793,0.128148,-0.004121,-0.125466,0.046714,-0.263448,-0.963542,-0.006324,0.003362,-0.014653,7.307755,-2.444839,-15.474358,,,,,,,
1530639783.808782,0.049284,0.269210,-0.915716,0.135573,0.015821,-0.136233,0.047490,-0.265970,-0.962811,-0.005986,-0.010031,0.006695,7.304619,-2.490456,-15.422173,,,,,,,
1530639783.828750,0.050849,0.271285,-0.918450,0.084042,0.046631,-0.119363,0.048969,-0.267970,-0.962182,0.004620,-0.014562,0.022958,7.449471,-2.636566,-15.521431,,,,,,,
1530639783.848719,0.051207,0.271610,-0.920659,-0.018882,-0.064984,-0.097228,0.049309,-0.268282,-0.962077,-0.002968,-0.000303,0.004573,7.362705,-2.691948,-15.471886,,,,,,,
1530639783.868688,0.049740,0.269816,-0.921985,-0.113673,-0.067511,-0.046617,0.047921,-0.266554,-0.962628,0.013420,-0.016695,0.022366,7.399742,-2.666618,-15.447906,,,,,,,
1530639783.888657,0.048091,0.267290,-0.922495,-0.130609,-0.116219,-0.026181,0.046366,-0.264119,-0.963375,-0.002649,-0.004162,-0.006489,7.353897,-2.601440,-15.429909,,,,,,,
1530639783.908626,0.045625,0.264987,-0.923011,-0.108540,-0.122810,-0.031841,0.044017,-0.261896,-0.964092,-0.001384,-0.002447,0.001674,7.281582,-2.220398,-15.400192,,,,,,,
1530639783.928594,0.043267,0.263147,-0.923610,-0.092814,-0.139380,-0.031011,0.041765,-0.260120,-0.964673,0.003264,0.000370,0.002377,7.279064,-2.275269,-15.417419,,,,,,,
1530639783.948563,0.040563,0.261015,-0.924222,-0.126336,-0.140445,-0.034967,0.039178,-0.258061,-0.965334,-0.000665,-0.003520,0.020448,7.263897,-2.369339,-15.407326,,,,,,,
1530639783.968532,0.038328,0.257838,-0.924783,-0.177768,-0.119489,-0.030009,0.037052,-0.254990,-0.966233,-0.005802,-0.003707,-0.005477,7.100410,-2.159485,-15.641640,,,,,,,
1530639783.988500,0.036303,0.254439,-0.924674,-0.159341,-0.075711,0.023930,0.035126,-0.251702,-0.967167,0.003524,0.002038,-0.010982,7.100708,-2.083672,-15.584358,,,,,,,
1530639784.008469,0.034770,0.252780,-0.923335,-0.031903,-0.070657,0.085152,0.033658,-0.250096,-0.967636,-0.003553,0.008931,-0.037964,7.189243,-2.087158,-15.518250,,,,,,,
1530639784.028438,0.032381,0.254425,-0.921000,0.147031,-0.117416,0.133709,0.031333,-0.251689,-0.967301,-0.002616,0.010890,-0.051925,7.066948,-2.063957,-15.414001,,,,,,,
1530639784.048406,0.029391,0.260261,-0.918118,0.374446,-0.088907,0.150836,0.028397,-0.257332,-0.965905,-0.014923,0.023263,-0.041495,7.211075,-2.161407,-15.287331,,,,,,,
1530639784.068375,0.027968,0.270876,-0.915690,0.626375,-0.003763,0.118366,0.026945,-0.267576,-0.963160,-0.031965,0.042494,-0.034841,7.131367,-2.522865,-15.265068,,,,,,,
1530639784.088344,0.029261,0.286257,-0.914331,0.855361,0.135603,0.068055,0.028066,-0.282364,-0.958897,-0.033544,0.035614,-0.032559,7.128468,-2.407372,-15.094765,,,,,,,
1530639784.108312,0.033345,0.304616,-0.914616,0.951461,0.232198,-0.016626,0.031804,-0.299927,-0.953432,-0.050404,0.029358,-0.007994,7.297653,-2.855682,-14.936501,,,,,,,
1530639784.128281,0.039615,0.322859,-0.916804,0.873488,0.310087,-0.101704,0.037558,-0.317279,-0.947588,-0.057654,0.026157,0.049135,7.373722,-3.056740,-15.081398,,,,,,,
1530639784.148250,0.047499,0.337588,-0.920531,0.651715,0.347056,-0.169264,0.044801,-0.331212,-0.942492,-0.055451,0.012258,0.079531,7.627396,-3.314293,-14.870262,,,,,,,
1530639784.168218,0.055575,0.346250,-0.925801,0.324317,0.278311,-0.269639,0.052250,-0.339373,-0.939200,-0.056614,-0.011732,0.062369,7.690948,-3.505455,-14.801155,,,,,,,
1530639784.188187,0.061219,0.347526,-0.933535,-0.035206,0.093972,-0.414453,0.057523,-0.340573,-0.938457,-0.077832,-0.039035,0.060741,7.643990,-3.173042,-14.637764,,,,,,,
1530639784.208155,0.065118,0.341871,-0.941792,-0.378540,0.079373,-0.362329,0.061306,-0.335250,-0.940132,-0.047863,-0.047913,0.080009,7.803261,-2.944435,-14.695702,,,,,,,
1530639784.228124,0.068532,0.330627,-0.945219,-0.641801,0.133948,-0.100411,0.064770,-0.324636,-0.943618,-0.033398,-0.049997,0.047317,8.009167,-3.002289,-14.522156,,,,,,,
1530639784.248093,0.070384,0.316249,-0.943174,-0.774691,0.142395,0.121066,0.066839,-0.311004,-0.948055,-0.030034,-0.039521,0.020992,8.147060,-2.752411,-14.441780,,,,,,,
1530639784.268061,0.072663,0.300385,-0.938140,-0.836102,0.226931,0.191152,0.069348,-0.295888,-0.952702,-0.045240,-0.027660,-0.012416,8.235817,-2.567398,-14.642708,,,,,,,
1530639784.288030,0.074856,0.285067,-0.933818,-0.749433,0.143567,0.110016,0.071768,-0.281222,-0.956955,-0.040334,-0.011365,-0.070282,8.206799,-2.013351,-14.638077,,,,,,,
1530639784.307999,0.076224,0.273463,-0.932285,-0.505013,0.063846,-0.026711,0.073320,-0.270067,-0.960046,-0.020586,0.001177,-0.080527,8.345291,-1.886665,-14.650597,,,,,,,
1530639784.327967,0.076372,0.267421,-0.933982,-0.199853,-0.054607,-0.152410,0.073586,-0.264245,-0.961644,-0.008645,0.007119,-0.086818,8.387680,-1.894279,-14.848228,,,,,,,
1530639784.347936,0.074769,0.266895,-0.938175,0.077693,-0.164514,-0.235715,0.072055,-0.263738,-0.961899,0.005338,0.000295,-0.090667,8.331627,-1.885689,-14.840050,,,,,,,
1530639784.367905,0.072653,0.270575,-0.944241,0.264913,-0.182873,-0.303585,0.069948,-0.267285,-0.961075,0.005232,0.008145,-0.071060,8.527851,-2.000877,-14.734909,,,,,,,
1530639784.387873,0.071639,0.276285,-0.951425,0.323864,-0.114246,-0.333003,0.068863,-0.272784,-0.959608,0.013504,0.014055,-0.032916,8.419220,-1.770638,-14.715462,,,,,,,
1530639784.407842,0.072012,0.281755,-0.958349,0.273214,-0.061500,-0.295535,0.069112,-0.278041,-0.958079,0.029124,0.006374,-0.019597,8.455269,-1.660820,-14.634445,,,,,,,
1530639784.427811,0.072107,0.285438,-0.963897,0.164643,-0.084020,-0.226543,0.069129,-0.281578,-0.957045,0.037560,-0.005424,-0.024538,8.388103,-1.847122,-14.632370,,,,,,,
1530639784.447779,0.071091,0.287102,-0.967971,0.066677,-0.120796,-0.171752,0.068124,-0.283174,-0.956646,0.034522,0.002580,-0.020435,8.694508,-1.827400,-14.701958,,,,,,,
1530639784.467748,0.069602,0.287366,-0.971171,0.006668,-0.115455,-0.143045,0.066694,-0.283428,-0.956672,0.025316,0.008998,-0.018670,8.569103,-1.680969,-14.831520,,,,,,,
1530639784.487716,0.068142,0.286789,-0.973886,-0.027042,-0.114470,-0.124345,0.065308,-0.282874,-0.956931,0.014617,0.005119,-0.034509,8.519203,-1.484085,-14.836411,,,,,,,
1530639784.507685,0.066324,0.285993,-0.976203,-0.027178,-0.136667,-0.107196,0.063583,-0.282110,-0.957273,0.003663,0.002066,-0.044833,8.354824,-1.406815,-14.891899,,,,,,,
1530639784.527654,0.064288,0.285660,-0.978265,0.004172,-0.135668,-0.093502,0.061640,-0.281791,-0.957494,-0.009287,0.003852,-0.046840,8.416622,-1.577644,-14.802628,,,,,,,
1530639784.547622,0.062644,0.286095,-0.980144,0.041849,-0.107036,-0.085139,0.060059,-0.282209,-0.957471,-0.021561,0.006620,-0.042117,8.517361,-1.531364,-14.884796,,,,,,,
1530639784.567591,0.060369,0.286931,-0.981922,0.049197,-0.172174,-0.084454,0.057866,-0.283010,-0.957370,-0.034871,0.006581,-0.059796,8.565754,-1.682343,-14.846786,,,,,,,
1530639784.587560,0.056365,0.287249,-0.983994,0.005420,-0.277927,-0.114698,0.054027,-0.283315,-0.957504,-0.044429,-0.001613,-0.075638,8.514133,-1.620514,-15.046501,,,,,,,
1530639784.607528,0.050181,0.286603,-0.987513,-0.032582,-0.392064,-0.209750,0.048114,-0.282696,-0.958002,-0.062442,0.000317,-0.071142,8.391914,-1.576866,-15.197578,,,,,,,
1530639784.627497,0.044114,0.285391,-0.993572,-0.045074,-0.386676,-0.349799,0.042316,-0.281532,-0.958618,-0.073719,0.027367,-0.050552,8.273937,-1.620651,-15.436974,,,,,,,
1530639784.647466,0.039208,0.284833,-1.002556,0.024104,-0.350504,-0.475474,0.037619,-0.280997,-0.958971,-0.076605,0.035483,-0.022017,8.358887,-1.526367,-15.446762,,,,,,,
1530639784.667434,0.035941,0.286502,-1.012967,0.156379,-0.274243,-0.494851,0.034469,-0.282599,-0.958619,-0.068771,0.030997,0.011505,8.177307,-1.375656,-15.395477,,,,,,,
1530639784.687403,0.034533,0.291047,-1.022295,0.298138,-0.157984,-0.392262,0.033074,-0.286955,-0.957373,-0.046197,0.019972,0.035086,8.180840,-1.419075,-15.619888,,,,,,,
1530639784.707372,0.033686,0.297950,-1.028446,0.392157,-0.109527,-0.220465,0.032196,-0.293562,-0.955398,-0.025390,0.010862,0.037688,8.202702,-1.442574,-15.572556,,,,,,,
1530639784.727340,0.032769,0.305750,-1.031691,0.404917,-0.061690,-0.114678,0.031244,-0.301008,-0.953109,-0.020166,0.020704,0.050689,8.108536,-1.355911,-15.700241,,,,,,,
1530639784.747309,0.032639,0.312800,-1.034090,0.335616,-0.003227,-0.105026,0.031050,-0.307724,-0.950969,-0.017622,0.033539,0.047725,8.258354,-1.533379,-15.636421,,,,,,,
1530639784.767278,0.034243,0.318103,-1.035919,0.241881,0.099145,-0.058240,0.032519,-0.312765,-0.949273,-0.002673,0.027807,0.056131,8.280819,-1.712921,-15.507919,,,,,,,
1530639784.787246,0.036929,0.321883,-1.036251,0.164686,0.147205,0.019389,0.035024,-0.316353,-0.947994,0.003413,0.009713,0.045285,8.631958,-1.830811,-15.554840,,,,,,,
1530639784.807215,0.039438,0.324274,-1.035169,0.096115,0.140256,0.069702,0.037373,-0.318621,-0.947145,0.008922,0.005373,0.030779,8.580101,-1.780098,-15.438774,,,,,,,
1530639784.827184,0.041468,0.325536,-1.033027,0.043176,0.139845,0.131739,0.039279,-0.319817,-0.946665,0.018979,0.010323,0.033258,8.592045,-1.724121,-15.531982,,,,,,,
1530639784.847152,0.042652,0.325820,-1.029133,-0.019377,0.106162,0.216369,0.040396,-0.320085,-0.946527,0.019296,0.013826,0.032586,8.759785,-1.842346,-15.697319,,,,,,,
1530639784.867121,0.042309,0.324423,-1.023973,-0.119265,0.038620,0.250543,0.040090,-0.318761,-0.946987,0.012797,0.001302,0.020824,8.798962,-1.787079,-15.730942,,,,,,,
1530639784.887089,0.041494,0.320620,-1.018584,-0.258685,0.060793,0.243506,0.039368,-0.315155,-0.948223,0.004837,-0.001160,0.029553,8.851540,-2.054420,-15.725800,,,,,,,
1530639784.907058,0.041662,0.313519,-1.013505,-0.430407,0.100815,0.211022,0.039620,-0.308408,-0.950428,0.004753,0.004636,0.034428,9.081829,-1.978569,-15.846336,,,,,,,
1530639784.927027,0.043152,0.303713,-1.009921,-0.520774,0.150162,0.103291,0.041164,-0.299065,-0.953344,-0.008358,-0.005256,0.009771,9.180573,-1.793839,-15.933029,,,,,,,
1530639784.946995,0.045923,0.294126,-1.009535,-0.448035,0.123747,-0.071252,0.043935,-0.289903,-0.956047,-0.028432,0.001924,-0.029961,9.187622,-1.461250,-16.048485,,,,,,,
1530639784.966964,0.049423,0.287524,-1.012992,-0.247373,0.143655,-0.245864,0.047375,-0.283578,-0.957778,-0.041683,0.002847,-0.021256,9.221157,-1.179665,-15.858498,,,,,,,
1530639784.986933,0.055422,0.285288,-1.019805,-0.016719,0.251524,-0.370753,0.053155,-0.281434,-0.958107,-0.044870,0.009080,-0.015388,9.558914,-1.289627,-15.788895,,,,,,,
1530639785.006902,0.064041,0.287003,-1.026988,0.162984,0.388911,-0.292193,0.061380,-0.283079,-0.957130,-0.019372,-0.005205,-0.020088,9.679222,-1.153084,-15.917664,,,,,,,
1530639785.026870,0.074351,0.291186,-1.030110,0.225748,0.520577,-0.019369,0.071156,-0.287089,-0.955257,0.037700,0.031992,-0.005650,9.946659,-1.209518,-15.470024,,,,,,,
1530639785.046839,0.077702,0.293259,-1.023348,-0.036826,0.168961,0.554435,0.074310,-0.289074,-0.954418,0.064606,0.011470,0.080746,9.942650,-1.079002,-15.291832,,,,,,,
1530639785.066808,0.075204,0.289637,-1.003838,-0.370642,0.190616,1.110300,0.072004,-0.285604,-0.955639,0.127154,-0.011759,0.122005,9.965477,-1.216904,-15.606644,,,,,,,
1530639785.086776,0.068251,0.279643,-0.975487,-0.734821,-0.079593,1.410556,0.065549,-0.276012,-0.958916,0.064166,-0.011433,0.058175,10.005081,-1.475258,-15.519020,,,,,,,
1530639785.106745,0.055658,0.262657,-0.944794,-1.040858,-0.251586,1.393575,0.053722,-0.259647,-0.964208,0.005269,-0.015225,0.074331,9.866013,-1.351585,-15.789673,,,,,,,
1530639785.126714,0.048785,0.243436,-0.923355,-0.932787,0.130269,0.604785,0.047327,-0.241039,-0.969361,-0.060648,0.071361,0.044205,9.897152,-0.954765,-15.914131,,,,,,,
1530639785.146681,0.054452,0.230712,-0.924226,-0.438202,0.170026,-0.378516,0.052983,-0.228671,-0.972061,-0.053853,-0.051435,-0.186692,9.942230,-0.605980,-15.997437,,,,,,,
1530639785.166651,0.052326,0.227069,-0.935803,-0.006995,-0.408920,-0.646909,0.050959,-0.225123,-0.972997,-0.063258,-0.011297,-0.128825,10.002983,-0.649551,-16.060768,,,,,,,
1530639785.186620,0.048135,0.229510,-0.950456,0.216974,-0.355483,-0.722379,0.046855,-0.227500,-0.972650,-0.025874,0.037955,-0.017127,9.890816,-0.523239,-16.083244,,,,,,,
1530639785.206587,0.043355,0.232938,-0.964258,0.176198,-0.393795,-0.607807,0.042171,-0.230837,-0.972078,0.042790,0.016039,0.001146,9.920353,-0.620140,-16.128067,,,,,,,
1530639785.226557,0.040657,0.234826,-0.974624,0.074129,-0.171920,-0.441713,0.039530,-0.232673,-0.971751,0.054174,0.035804,0.021495,9.816967,-0.362625,-15.939850,,,,,,,
1530639785.246526,0.040134,0.234443,-0.981994,-0.047562,-0.086689,-0.309502,0.039026,-0.232301,-0.971861,0.071142,0.033159,0.010267,9.911640,-0.421707,-16.092537,,,,,,,
1530639785.266493,0.040111,0.232955,-0.986562,-0.059134,-0.041233,-0.177582,0.039017,-0.230853,-0.972206,0.067428,0.029849,-0.005013,9.783699,-0.152336,-16.303749,,,,,,,
1530639785.286462,0.039831,0.232536,-0.988830,0.016576,-0.051910,-0.073821,0.038748,-0.230446,-0.972313,0.056390,0.034539,-0.015510,9.781105,0.029991,-16.289093,,,,,,,
1530639785.306432,0.038757,0.233979,-0.989536,0.107287,-0.084401,-0.009160,0.037692,-0.231850,-0.972021,0.049970,0.030174,-0.003931,9.927544,-0.115158,-16.172707,,,,,,,
1530639785.326399,0.036532,0.236360,-0.989412,0.126965,-0.144239,0.022698,0.035509,-0.234166,-0.971548,0.045348,0.017842,0.014624,9.999344,-0.393852,-16.025269,,,,,,,
1530639785.346368,0.033515,0.238023,-0.989230,0.058926,-0.170611,0.008197,0.032564,-0.235781,-0.971260,0.037276,0.016970,0.018944,9.741287,-0.187256,-16.262085,,,,,,,
1530639785.366338,0.030283,0.238229,-0.989471,0.003583,-0.182538,-0.020388,0.029423,-0.235982,-0.971312,0.028850,0.015081,-0.006990,9.783047,-0.205208,-16.327652,,,,,,,
1530639785.386305,0.027034,0.237925,-0.990244,-0.009869,-0.174651,-0.042857,0.026269,-0.235686,-0.971474,0.022772,0.019363,-0.023124,9.738594,-0.121552,-16.178261,,,,,,,
1530639785.406274,0.024398,0.237242,-0.991378,-0.038059,-0.148038,-0.058604,0.023712,-0.235023,-0.971701,0.024826,0.022101,-0.037119,9.690918,0.093925,-16.159798,,,,,,,
1530639785.426243,0.022742,0.235943,-0.992722,-0.074701,-0.087249,-0.067626,0.022110,-0.233760,-0.972043,0.019241,0.028590,-0.043369,9.628475,0.171471,-16.467178,,,,,,,
1530639785.446211,0.022265,0.233963,-0.994285,-0.104999,-0.027519,-0.083197,0.021656,-0.231834,-0.972514,0.016017,0.024788,-0.055287,9.551807,0.129753,-16.555038,,,,,,,
1530639785.466180,0.023673,0.231717,-0.996360,-0.098435,0.095263,-0.119339,0.023038,-0.229649,-0.973001,0.010898,0.025319,-0.066993,9.618908,0.166420,-16.531776,,,,,,,
1530639785.486149,0.028262,0.230361,-0.999441,-0.034046,0.235820,-0.174351,0.027512,-0.228329,-0.973195,0.012207,0.021633,-0.070064,9.800079,0.219055,-16.258110,,,,,,,
1530639785.506117,0.034199,0.230527,-1.003957,0.050451,0.237410,-0.248587,0.033287,-0.228491,-0.972977,0.015052,0.015173,-0.061996,9.911072,0.174759,-16.273117,,,,,,,
1530639785.526086,0.034174,0.233446,-1.007564,0.214056,-0.163206,-0.112062,0.033241,-0.231331,-0.972307,0.074471,0.013039,-0.057356,9.787773,0.250710,-16.351524,,,,,,,
1530639785.546055,0.027662,0.238949,-1.008527,0.305500,-0.441079,-0.002210,0.026872,-0.236682,-0.971215,0.085005,0.009875,-0.023139,9.582062,0.054703,-16.590065,,,,,,,
1530639785.566024,0.016348,0.245047,-1.007790,0.301802,-0.588394,0.069385,0.015858,-0.242602,-0.969996,0.081310,0.004290,0.009822,9.507839,-0.173409,-16.555359,,,,,,,
1530639785.585992,0.005243,0.250290,-1.006075,0.242899,-0.494676,0.088797,0.005080,-0.247685,-0.968827,0.052842,-0.001797,0.028001,9.485928,-0.303429,-16.687996,,,,,,,
1530639785.605961,-0.002575,0.254110,-1.004209,0.169362,-0.298234,0.100242,-0.002492,-0.251384,-0.967884,0.030889,0.001780,0.027516,9.289433,-0.369751,-16.752937,,,,,,,
1530639785.625930,-0.009556,0.255279,-1.000919,-0.025577,-0.424832,0.218189,-0.009246,-0.252515,-0.967549,0.036529,0.010053,0.015889,9.148991,-0.065765,-16.784492,,,,,,,
1530639785.645898,-0.020445,0.252469,-0.994590,-0.170493,-0.478841,0.372619,-0.019796,-0.249796,-0.968096,0.054098,-0.024573,0.060870,8.923317,-0.192909,-16.911148,,,,,,,
1530639785.665867,-0.030270,0.248055,-0.986537,-0.223137,-0.385154,0.396283,-0.029339,-0.245519,-0.968948,0.008678,0.001088,0.043533,8.862080,-0.341705,-16.954239,,,,,,,
1530639785.685836,-0.037284,0.243909,-0.979944,-0.176060,-0.204406,0.276937,-0.036172,-0.241498,-0.969727,-0.008048,0.004636,0.018662,8.759392,-0.296921,-16.936447,,,,,,,
1530639785.705804,-0.038983,0.241334,-0.976786,-0.088570,0.024284,0.087288,-0.037844,-0.238998,-0.970282,-0.021375,0.007781,0.015952,8.663403,-0.053017,-16.889153,,,,,,,
1530639785.725773,-0.037050,0.241004,-0.976997,0.008995,0.102463,-0.048192,-0.035971,-0.238678,-0.970432,-0.018975,0.001022,0.017277,8.783909,0.090385,-17.043114,,,,,,,
1530639785.745742,-0.035191,0.240937,-0.978624,-0.038936,0.053054,-0.084586,-0.034168,-0.238612,-0.970514,-0.007016,-0.001500,0.046716,8.899796,0.126755,-16.870148,,,,,,,
1530639785.765710,-0.033024,0.238312,-0.980401,-0.198401,0.131441,-0.078195,-0.032085,-0.236063,-0.971208,-0.002004,0.000192,0.070939,8.907898,0.207870,-16.925842,,,,,,,
1530639785.785679,-0.028269,0.232111,-0.981823,-0.373814,0.267061,-0.046553,-0.027507,-0.230032,-0.972794,0.001125,0.007284,0.036774,9.018711,0.533348,-16.951073,,,,,,,
1530639785.805648,-0.022240,0.224103,-0.982605,-0.397114,0.303308,-0.019164,-0.021682,-0.222232,-0.974753,-0.000016,0.020510,-0.016946,9.095802,0.553207,-16.754585,,,,,,,
1530639785.825616,-0.016550,0.217524,-0.982842,-0.287173,0.272215,0.002161,-0.016159,-0.215813,-0.976301,-0.001923,0.025841,-0.034212,9.231129,0.809570,-16.874649,,,,,,,
1530639785.845585,-0.011724,0.213603,-0.982486,-0.157349,0.245495,0.028689,-0.011457,-0.211982,-0.977206,-0.005205,0.019706,-0.003201,9.294285,0.751808,-16.973877,,,,,,,
1530639785.865554,-0.007379,0.211341,-0.981710,-0.107107,0.210069,0.040924,-0.007214,-0.209771,-0.977724,-0.006000,0.007134,0.050951,9.394409,0.906418,-16.921165,,,,,,,
1530639785.885522,-0.003364,0.208356,-0.980678,-0.193216,0.239806,0.054929,-0.003291,-0.206852,-0.978367,-0.012883,-0.014507,0.116535,9.487633,1.084724,-16.507286,,,,,,,
1530639785.905491,0.002404,0.202270,-0.979572,-0.363072,0.320485,0.049581,0.002355,-0.200893,-0.979610,-0.013876,-0.017719,0.119182,9.583870,1.129768,-16.605446,,,,,,,
1530639785.925460,-0.000612,0.198351,-0.978004,-0.058161,-0.430619,0.098789,-0.000600,-0.197053,-0.980393,-0.020213,-0.013548,0.021957,9.439625,1.076721,-16.567734,,,,,,,
1530639785.945428,-0.018384,0.202825,-0.975739,0.387578,-1.094284,0.108091,-0.018006,-0.201438,-0.979336,-0.022262,0.021308,0.014355,9.175121,1.107025,-16.877930,,,,,,,
1530639785.965397,-0.040424,0.213409,-0.973413,0.568057,-0.929740,0.090785,-0.039496,-0.211793,-0.976516,-0.091470,0.055527,0.108245,8.767693,1.073235,-16.837181,,,,,,,
1530639785.985366,-0.053293,0.223493,-0.970902,0.437716,-0.511500,0.117915,-0.051943,-0.221637,-0.973745,-0.071577,0.074039,0.147512,8.546825,0.635605,-16.920021,,,,,,,
1530639786.005334,-0.069140,0.228100,-0.966282,0.122887,-0.970686,0.286230,-0.067295,-0.226127,-0.971770,0.004658,0.082054,0.246108,8.285229,0.707817,-16.919968,,,,,,,
1530639786.025303,-0.099820,0.227810,-0.956942,0.008539,-1.711115,0.567533,-0.097079,-0.225844,-0.969314,0.028369,0.095900,0.287246,7.732430,0.529106,-17.096436,,,,,,,
1530639786.045272,-0.148033,0.227637,-0.941144,0.139327,-2.576598,0.882283,-0.143688,-0.225676,-0.963548,0.020961,0.218992,0.310731,6.854736,0.318825,-17.491135,,,,,,,
1530639786.065240,-0.216821,0.227055,-0.917611,0.160832,-3.486186,1.354375,-0.209605,-0.225109,-0.951521,0.075526,0.306194,0.409559,5.475212,0.307983,-17.500526,,,,,,,
1530639786.085209,-0.304582,0.218201,-0.875769,0.124511,-4.291025,2.485488,-0.292783,-0.216473,-0.931352,0.128431,0.355893,0.353166,3.647984,0.238174,-17.821640,,,,,,,
1530639786.105178,-0.407312,0.200061,-0.822009,0.021398,-4.648373,2.922745,-0.388241,-0.198729,-0.899875,0.084271,0.417067,0.411655,1.832619,0.159164,-17.816727,,,,,,,
1530639786.125147,-0.508821,0.172864,-0.764038,0.081046,-4.436973,3.318946,-0.479887,-0.172005,-0.860303,0.149244,0.457359,0.406568,0.216988,-0.059052,-17.674591,,,,,,,
1530639786.145115,-0.602573,0.137194,-0.700366,0.191349,-4.059489,3.800612,-0.561439,-0.136764,-0.816138,0.172065,0.454742,0.332450,-1.257877,0.119919,-17.480591,,,,,,,
1530639786.165084,-0.686460,0.091672,-0.633092,0.169353,-3.637048,4.172813,-0.631141,-0.091543,-0.770246,0.112159,0.416830,0.269132,-2.453671,0.257210,-17.188896,,,,,,,
1530639786.185053,-0.754025,0.035550,-0.568086,-0.063898,-2.867577,4.337558,-0.684145,-0.035543,-0.728478,0.061220,0.384756,0.235482,-3.234190,0.176765,-16.729919,,,,,,,
1530639786.205021,-0.803308,-0.029088,-0.509228,-0.321459,-2.242007,4.400484,-0.719351,0.029084,-0.694036,0.068579,0.324416,0.084645,-3.932735,0.273766,-16.651833,,,,,,,
1530639786.224990,-0.839897,-0.100371,-0.454240,-0.445356,-1.888569,4.539402,-0.740826,0.100203,-0.664179,0.015820,0.273622,-0.148641,-4.707483,0.401764,-16.738419,,,,,,,
1530639786.244959,-0.867016,-0.174136,-0.399649,-0.321687,-1.651289,4.542464,-0.750870,0.173257,-0.637317,-0.111144,0.237082,-0.350765,-5.268667,0.442940,-16.602325,,,,,,,
1530639786.264927,-0.888534,-0.243811,-0.342897,0.092359,-1.666140,4.435514,-0.753193,0.241403,-0.611901,-0.118359,0.119544,-0.515861,-6.096107,0.689987,-16.187943,,,,,,,
1530639786.284896,-0.903980,-0.308855,-0.279404,0.491684,-1.645476,4.461556,-0.748611,0.303968,-0.589221,-0.138306,0.013155,-0.545178,-6.937342,0.693817,-16.248459,,,,,,,
1530639786.304865,-0.912689,-0.370193,-0.209727,0.822672,-1.603068,4.379499,-0.737556,0.361795,-0.570187,-0.272774,-0.025751,-0.571766,-7.680532,1.252472,-16.138527,,,,,,,
1530639786.324833,-0.916982,-0.423296,-0.136104,1.235381,-1.637364,4.051378,-0.723710,0.410768,-0.554536,-0.386931,-0.161897,-0.565520,-8.485884,0.962959,-15.724342,,,,,,,
1530639786.344802,-0.914321,-0.466492,-0.057720,1.619649,-1.529326,3.735026,-0.707507,0.449756,-0.545115,-0.513684,-0.246555,-0.469869,-9.380337,1.009064,-15.540993,,,,,,,
1530639786.364771,-0.908886,-0.498432,0.019504,1.762060,-1.515160,3.116662,-0.692845,0.478049,-0.539845,-0.649577,-0.287268,-0.331051,-10.141596,1.123634,-15.155441,,,,,,,
1530639786.384739,-0.905508,-0.518835,0.088608,1.735493,-1.521150,2.387836,-0.683201,0.495869,-0.536049,-0.726009,-0.353184,-0.247475,-10.727566,0.959007,-14.837486,,,,,,,
1530639786.404708,-0.904510,-0.527156,0.148616,1.840100,-1.422215,1.645175,-0.679398,0.503077,-0.534162,-0.751418,-0.403224,-0.198687,-11.248652,0.581680,-14.213837,,,,,,,
1530639786.424677,-0.908369,-0.520372,0.198499,1.944157,-1.443416,0.715352,-0.684130,0.497203,-0.533623,-0.774625,-0.384013,-0.044640,-11.815809,0.346756,-13.901955,,,,,,,
1530639786.444645,-0.918006,-0.499603,0.236496,1.917152,-1.396994,-0.089793,-0.697295,0.479077,-0.533163,-0.680223,-0.387875,0.132391,-12.209927,-0.544083,-13.520477,,,,,,,
1530639786.464614,-0.933139,-0.472194,0.261424,1.489314,-1.338073,-0.608031,-0.715567,0.454842,-0.530170,-0.511255,-0.304329,0.399006,-12.416370,-1.211716,-13.119476,,,,,,,
1530639786.484583,-0.989474,-0.465347,0.248657,-1.943388,-3.650204,-0.369028,-0.746869,0.448733,-0.490738,-0.083957,-0.129092,1.639419,-12.930588,-1.053093,-12.522675,,,,,,,
1530639786.504551,-1.092180,-0.492708,0.182686,-3.463837,-3.114122,-0.395521,-0.782053,0.473013,-0.405770,-0.188422,-0.319541,0.871102,-13.660843,-0.360374,-11.852562,,,,,,,
1530639786.524520,-1.153776,-0.508424,0.114602,-2.722166,-0.322068,-0.626163,-0.798651,0.486801,-0.353805,-0.014520,0.065964,0.761947,-13.622288,0.177040,-11.553223,,,,,,,
1530639786.544489,-1.158953,-0.520993,0.057512,-2.568330,1.837888,-0.255007,-0.794802,0.497741,-0.347189,-0.018461,0.262391,0.707632,-13.135765,0.488548,-11.952118,,,,,,,
1530639786.564457,-1.149519,-0.542246,-0.007932,-3.309181,1.931772,-0.067618,-0.781659,0.516061,-0.350266,-0.009494,0.316977,0.302277,-12.352005,1.354240,-12.919655,,,,,,,
1530639786.584426,-1.157835,-0.573239,-0.079950,-3.423373,1.265452,0.192469,-0.769521,0.542356,-0.337170,-0.164408,0.257342,0.039410,-11.632399,2.096840,-13.085503,,,,,,,
1530639786.604395,-1.172628,-0.596866,-0.153433,-3.205501,1.423304,-0.295507,-0.762398,0.562053,-0.320692,-0.370156,0.477696,-0.032992,-11.066290,3.175529,-13.391235,,,,,,,
1530639786.624363,-1.174677,-0.612262,-0.225474,-2.938951,2.285471,-0.468914,-0.754980,0.574720,-0.315752,-0.351725,0.464816,-0.075681,-10.382824,4.059265,-14.034988,,,,,,,
1530639786.644332,-1.157809,-0.619660,-0.288734,-2.175959,2.795412,-0.814325,-0.745632,0.580758,-0.326726,-0.263035,0.597953,-0.270976,-9.208359,4.693817,-14.257996,,,,,,,
1530639786.664301,-1.131212,-0.616081,-0.333042,-1.260577,2.470206,-0.922721,-0.738555,0.577841,-0.347322,0.070358,0.718195,-0.243788,-8.346188,5.199341,-14.723503,,,,,,,
1530639786.684269,-1.117704,-0.603065,-0.362990,-0.590578,0.744649,-1.254193,-0.740496,0.567170,-0.360529,0.119311,0.649475,-0.379705,-8.009336,5.553658,-14.853989,,,,,,,
1530639786.704238,-1.140981,-0.580727,-0.379149,0.160133,-1.404513,-1.313547,-0.760016,0.548632,-0.348390,0.140860,0.277967,-0.383941,-8.298510,5.510948,-14.942566,,,,,,,
1530639786.724207,-1.173721,-0.552064,-0.378134,0.888365,-1.533538,-1.367239,-0.785197,0.524445,-0.329273,-0.476934,0.370818,-0.343152,-8.943993,5.229904,-14.899864,,,,,,,
1530639786.744176,-1.187277,-0.509730,-0.370259,1.151695,-0.452787,-2.180197,-0.809463,0.487942,-0.326618,-0.627930,0.390430,-0.018795,-9.298454,4.886063,-14.935745,,,,,,,
1530639786.764144,-1.186535,-0.451397,-0.376024,0.575298,0.555367,-3.150638,-0.834217,0.436223,-0.337326,-0.341473,0.335536,0.307281,-9.406315,4.550972,-15.175217,,,,,,,
1530639786.784113,-1.172370,-0.393199,-0.402674,-0.410472,1.501209,-2.913390,-0.851337,0.383145,-0.358361,0.530216,0.121997,0.308633,-9.131428,3.892265,-15.278244,,,,,,,
1530639786.804082,-1.158061,-0.357123,-0.438127,-0.999804,1.142762,-2.134457,-0.858231,0.349580,-0.375808,0.638931,0.037291,0.128799,-8.890600,3.986107,-15.616478,,,,,,,
1530639786.824050,-1.157976,-0.322214,-0.479731,-1.055941,0.586085,-2.566873,-0.868852,0.316667,-0.380547,-0.007781,-0.212068,-0.092125,-8.545786,3.969574,-16.071640,,,,,,,
1530639786.844019,-1.155754,-0.281498,-0.518316,-0.779406,0.776740,-2.533312,-0.879080,0.277795,-0.387358,0.434851,-0.058083,-0.007952,-8.456514,3.908913,-16.229744,,,,,,,
1530639786.863988,-1.151034,-0.246534,-0.552504,-0.837185,0.523369,-2.128392,-0.885574,0.244044,-0.395221,0.535507,-0.094004,0.181247,-8.373165,3.827995,-16.273758,,,,,,,
1530639786.883955,-1.154351,-0.215733,-0.582790,-0.576310,0.033068,-1.957737,-0.893333,0.214063,-0.395135,0.274177,-0.134977,0.001733,-8.548285,3.992996,-16.093857,,,,,,,
1530639786.903924,-1.161764,-0.182569,-0.603223,-0.030279,-0.343881,-1.909300,-0.902257,0.181556,-0.391111,0.160603,-0.159309,-0.021014,-8.924698,3.613472,-16.384705,,,,,,,
1530639786.923893,-1.177375,-0.142355,-0.610694,0.756340,-1.047566,-2.035403,-0.914259,0.141874,-0.379472,0.117171,-0.222731,-0.079390,-9.147335,3.052917,-16.084862,,,,,,,
1530639786.943861,-1.202973,-0.097992,-0.610031,0.725139,-1.217369,-2.062850,-0.928635,0.097836,-0.357860,0.030090,-0.257473,0.465007,-9.610643,2.532356,-15.692589,,,,,,,
1530639786.963830,-1.227386,-0.062765,-0.619816,-0.197800,-1.356530,-1.530598,-0.939757,0.062724,-0.336037,0.709608,-0.332118,0.437371,-9.915720,2.256325,-15.815933,,,,,,,
1530639786.983799,-1.259386,-0.049181,-0.635435,-0.639166,-1.717820,-0.507358,-0.950750,0.049161,-0.306031,1.050451,-0.289671,0.334214,-10.541790,2.513588,-15.467468,,,,,,,
1530639787.003767,-1.300206,-0.056700,-0.647593,-0.692930,-2.236153,0.698668,-0.962063,0.056670,-0.266871,1.183835,-0.168105,0.209727,-11.185774,2.995354,-14.747925,,,,,,,
1530639787.023736,-1.351917,-0.096222,-0.653465,-0.795844,-2.494920,2.524458,-0.971625,0.096073,-0.216131,1.096213,-0.058598,0.202276,-11.653944,3.904373,-14.328156,,,,,,,
1530639787.043705,-1.394776,-0.166906,-0.656901,-0.906821,-1.893949,3.902575,-0.970865,0.166132,-0.172679,0.763330,-0.097315,0.343470,-12.112186,5.391380,-14.152702,,,,,,,
1530639787.063673,-1.431080,-0.255102,-0.660382,-0.725216,-1.819909,4.521143,-0.958207,0.252344,-0.134755,0.229325,0.066595,0.188634,-12.004269,6.506462,-13.609261,,,,,,,
1530639787.083642,-1.466333,-0.342277,-0.655305,-0.022435,-2.009432,4.117996,-0.936856,0.335633,-0.098225,-0.470615,0.427291,0.216907,-12.141150,7.586136,-13.198875,,,,,,,
1530639787.103611,-1.503168,-0.416380,-0.640418,0.562357,-1.990912,3.647002,-0.912466,0.404453,-0.061803,-0.161234,0.292172,0.430501,-12.221476,8.356995,-13.051331,,,,,,,
1530639787.123579,-1.527456,-0.488367,-0.623503,0.500899,-1.566566,3.586075,-0.882269,0.469184,-0.038262,-0.037622,0.645409,0.581261,-12.103819,9.266518,-12.809517,,,,,,,
1530639787.143548,-1.573462,-0.561425,-0.615375,0.167328,-3.165071,3.766355,-0.846492,0.532393,0.002257,-0.065114,0.764421,0.436632,-12.332773,9.844070,-12.319817,,,,,,,
1530639787.163517,-1.647112,-0.634945,-0.615623,0.154004,-3.516124,3.608415,-0.802759,0.593133,0.061382,-0.259863,0.846091,0.339802,-12.846453,11.082901,-11.690559,,,,,,,
1530639787.183485,-1.696760,-0.709419,-0.626327,-0.275413,-1.278860,4.002349,-0.752727,0.651393,0.095321,0.096584,0.656133,0.461228,-12.498756,12.150993,-11.495140,,,,,,,
1530639787.203454,-1.724276,-0.792619,-0.665013,-1.018406,0.641610,4.406718,-0.693728,0.712194,0.107317,-0.144300,0.829691,0.087309,-11.551771,13.476402,-11.324776,,,,,,,
1530639787.223423,-1.739408,-0.866088,-0.709040,-0.692674,0.620681,3.427078,-0.638622,0.761801,0.108712,-0.725590,0.689326,-0.523186,-10.702145,14.474434,-11.512650,,,,,,,
1530639787.243392,-1.753817,-0.919811,-0.730514,0.162069,-0.001535,2.531658,-0.595848,0.795487,0.110287,-0.769188,0.098861,-0.448925,-10.178467,15.323433,-11.168800,,,,,,,
1530639787.263360,-1.749895,-0.965464,-0.729025,0.467430,0.142533,2.117092,-0.559931,0.822313,0.101369,-0.391347,-0.232057,-0.155324,-9.909441,15.959641,-11.160545,,,,,,,
1530639787.283329,-1.767085,-1.005698,-0.727940,0.346233,-1.579668,1.976347,-0.525213,0.844536,0.104438,-0.068033,-0.328880,-0.349632,-9.499155,16.499863,-10.913979,,,,,,,
1530639787.303298,-1.798138,-1.053702,-0.733311,0.464581,-0.780497,2.618505,-0.481634,0.869259,0.111422,-0.259013,-0.552533,-0.230364,-8.985390,16.917252,-10.996429,,,,,,,
1530639787.323266,-1.792927,-1.112564,-0.722779,1.148074,-0.013138,2.885624,-0.431493,0.896836,0.097456,-0.366481,-0.420548,-0.304701,-8.011379,17.101288,-11.145935,,,,,,,
1530639787.343235,-1.758416,-1.174016,-0.682175,1.601011,-0.311681,2.774738,-0.379668,0.922310,0.072081,-0.297136,-0.278877,-0.261626,-7.224346,17.210884,-11.624176,,,,,,,
1530639787.363204,-1.698810,-1.231961,-0.601698,2.067587,-1.013435,2.544199,-0.329667,0.943142,0.042434,-0.144545,-0.116513,-0.274917,-6.591103,17.185745,-12.077827,,,,,,,
1530639787.383172,-1.590651,-1.279677,-0.455203,2.670174,-2.021982,1.974238,-0.286966,0.957923,0.005698,0.005839,-0.053931,-0.319068,-6.373587,16.722221,-12.343643,,,,,,,
1530639787.403141,-1.428573,-1.307388,-0.224625,3.282802,-3.563303,1.343358,-0.257742,0.965508,-0.036906,0.099585,-0.044045,-0.243428,-6.861338,16.305687,-12.969681,,,,,,,
1530639787.423110,-1.287144,-1.320119,-0.026236,1.527549,-1.531211,1.138914,-0.238147,0.968745,-0.069423,0.226200,-0.054438,0.383434,-6.789377,15.844437,-13.299644,,,,,,,
1530639787.443078,-1.170725,-1.333904,0.133251,1.760069,-2.331575,1.450736,-0.216151,0.972072,-0.091405,0.254435,0.087849,-0.170527,-6.955990,15.493019,-13.438812,,,,,,,
1530639787.463047,-0.995711,-1.345583,0.366870,2.294483,-2.691390,1.895203,-0.187393,0.974747,-0.121462,0.204544,0.087784,-0.067045,-7.237087,15.100349,-13.740540,,,,,,,
1530639787.483016,-0.765881,-1.341029,0.655676,2.866364,-2.483700,1.845888,-0.157870,0.973719,-0.164156,0.076098,0.015889,0.004824,-7.329029,14.554413,-14.464272,,,,,,,
1530639787.502985,-0.565993,-1.312797,0.895047,2.494233,-0.372799,0.875347,-0.136823,0.966902,-0.215358,-0.385607,0.272477,1.089259,-7.143967,13.574768,-14.981285,,,,,,,
1530639787.522953,-0.480947,-1.283312,0.945348,1.346495,2.580275,-0.680365,-0.131171,0.958960,-0.251375,-0.291283,0.190942,0.449312,-6.190739,12.875717,-15.506561,,,,,,,
1530639787.542922,-0.456845,-1.243127,0.921406,1.899613,1.984100,-1.495875,-0.141968,0.946795,-0.288832,-0.111236,0.076093,-0.190171,-5.510117,12.023453,-16.132187,,,,,,,
1530639787.562891,-0.469709,-1.188137,0.885825,2.261726,0.373827,-1.881748,-0.169006,0.927675,-0.332951,-0.054917,-0.006776,-0.196545,-5.368763,11.224312,-16.622437,,,,,,,
1530639787.582859,-0.515501,-1.135712,0.852314,1.746079,-1.389901,-1.745626,-0.207780,0.906835,-0.366712,-0.012846,-0.138021,-0.105623,-5.696072,10.399940,-16.965256,,,,,,,
1530639787.602828,-0.588263,-1.101688,0.815422,0.535827,-2.133326,-1.458047,-0.250873,0.891972,-0.376097,0.012942,-0.253529,0.102614,-6.404055,9.735603,-17.041458,,,,,,,
1530639787.622797,-0.667719,-1.092810,0.765644,-0.766390,-1.424125,-0.987757,-0.284825,0.887923,-0.361203,0.022039,-0.367522,0.219631,-6.993427,9.866180,-16.956703,,,,,,,
1530639787.642765,-0.737650,-1.103748,0.705132,-1.579801,-0.473172,-0.539856,-0.302817,0.892901,-0.333210,0.052481,-0.435321,0.200412,-7.129936,10.224670,-16.867119,,,,,,,
1530639787.662734,-0.803734,-1.125229,0.633815,-1.991779,0.078462,-0.313858,-0.310278,0.902366,-0.299103,0.100469,-0.476601,0.172134,-6.849033,10.551186,-16.497864,,,,,,,
1530639787.682703,-0.870310,-1.147759,0.552902,-1.962101,0.523677,-0.363801,-0.313864,0.911846,-0.264625,0.083090,-0.354793,0.105735,-6.562878,11.224365,-16.652481,,,,,,,
1530639787.702672,-0.932197,-1.155209,0.466383,-1.351891,1.097338,-1.136529,-0.324166,0.914879,-0.240650,-0.165550,0.249183,-0.018779,-6.067698,11.282303,-16.621605,,,,,,,
1530639787.722640,-0.976804,-1.134059,0.382955,-0.434545,1.861162,-2.284781,-0.350533,0.906137,-0.236734,-0.379539,0.844687,-0.064780,-5.781212,11.612076,-16.704712,,,,,,,
1530639787.742609,-0.985552,-1.086696,0.323844,0.629723,2.380991,-2.797295,-0.387957,0.885094,-0.257095,-0.360517,1.031486,-0.070511,-5.113581,11.067970,-17.396210,,,,,,,
1530639787.762578,-0.943863,-1.035523,0.312187,1.516671,2.720082,-1.749242,-0.413075,0.860129,-0.299243,-0.087581,0.602639,0.064304,-4.044167,10.329277,-18.120972,,,,,,,
1530639787.782546,-0.860099,-1.006169,0.334312,0.421400,4.281396,-0.315011,-0.405557,0.844788,-0.349079,-0.063605,0.142043,1.689869,-2.209455,9.883057,-18.574272,,,,,,,
1530639787.802515,-0.812439,-1.038169,0.249065,-3.795569,6.133681,-0.581431,-0.368645,0.861476,-0.349228,-0.466911,0.383488,0.946655,0.417957,11.093948,-18.374420,,,,,,,
1530639787.822484,-0.833657,-1.077911,0.109461,-3.783312,4.283165,-1.010028,-0.350332,0.880971,-0.318052,-0.387354,0.491511,0.032102,2.544735,12.448700,-17.781387,,,,,,,
1530639787.842453,-0.937441,-1.110499,-0.071418,-4.833197,1.936955,-1.702559,-0.358058,0.895921,-0.262909,-0.777349,0.588699,0.702485,3.641670,14.524940,-17.012154,,,,,,,
1530639787.862421,-1.184578,-1.134398,-0.366599,-6.662275,1.019006,-2.168501,-0.391543,0.906280,-0.159218,-0.655896,0.512436,1.327949,4.256058,16.884567,-15.707115,,,,,,,
1530639787.882391,-1.347591,-1.134175,-0.626149,-4.371317,4.095483,-1.299105,-0.412390,0.906186,-0.093607,-0.024775,0.040531,0.392252,5.445019,19.134583,-14.159119,,,,,,,
1530639787.902360,-1.460708,-1.122720,-0.794168,-2.932544,0.280331,-1.205578,-0.430611,0.901282,-0.047598,0.032051,0.154413,-0.564631,5.947735,20.916832,-13.318161,,,,,,,
1530639787.922328,-1.588150,-1.094736,-0.889804,-1.557713,-3.360294,-1.763037,-0.458212,0.888807,0.007952,-0.114466,0.249514,-0.849551,5.161133,21.911415,-13.285767,,,,,,,
1530639787.942297,-1.719122,-1.051628,-0.919598,-0.538054,-6.319078,-2.248708,-0.490710,0.868232,0.073324,-0.120328,0.351083,-0.859365,3.002365,22.901314,-14.143333,,,,,,,
1530639787.962266,-1.862728,-1.009385,-0.906962,0.068364,-8.382175,-1.976083,-0.509856,0.846505,0.153221,-0.069444,0.442939,-0.760765,-0.265121,23.621887,-14.938560,,,,,,,
1530639787.982234,-2.007576,-0.985381,-0.879831,0.395657,-8.115493,-0.966629,-0.500672,0.833483,0.233740,0.005554,0.456297,-0.518209,-3.676582,23.788193,-15.446472,,,,,,,
1530639788.002203,-2.124363,-0.988820,-0.854033,0.939074,-5.836686,0.237882,-0.467584,0.835378,0.288978,0.055811,0.478449,-0.243416,-6.410006,24.069824,-15.495323,,,,,,,
1530639788.022172,-2.144418,-1.008560,-0.838884,0.330599,0.298999,0.888719,-0.447756,0.846065,0.289290,0.235491,0.338749,0.961122,-6.995148,24.443443,-16.073296,,,,,,,
1530639788.042141,-2.180863,-1.014901,-0.899294,-1.843631,0.567033,1.182826,-0.432511,0.849428,0.302333,0.211762,0.168638,0.029545,-6.803204,25.467957,-15.723129,,,,,,,
1530639788.062109,-2.249862,-1.004999,-0.982240,-1.971843,-0.203577,0.721026,-0.417162,0.844162,0.336699,0.096361,-0.020065,-0.729521,-6.824057,27.012032,-14.392456,,,,,,,
1530639788.082078,-2.300714,-0.991638,-1.029534,-1.015338,-0.762428,0.076117,-0.407878,0.836923,0.364957,0.106990,-0.197778,-0.954252,-7.415644,27.788139,-14.121849,,,,,,,
1530639788.102047,-2.325610,-0.983020,-1.034460,-0.063567,-1.191236,-0.377215,-0.403905,0.832176,0.379925,0.184240,-0.354743,-0.905926,-8.157743,27.824364,-13.832855,,,,,,,
1530639788.122015,-2.341259,-0.979770,-1.019017,0.223571,-1.561370,-0.344318,-0.399849,0.830369,0.388080,0.334923,-0.475496,-0.679584,-9.209263,28.284164,-13.863052,,,,,,,
1530639788.141984,-2.376014,-0.978974,-1.017162,-0.133315,-1.990398,0.094220,-0.386580,0.829925,0.402216,0.327819,-0.531616,-0.679392,-10.084360,28.513809,-13.619064,,,,,,,
1530639788.161953,-2.426982,-0.976851,-1.029925,-0.401561,-1.966731,0.196419,-0.366741,0.828739,0.422718,0.200359,-0.448094,-0.660633,-10.756212,28.872940,-13.116302,,,,,,,
1530639788.181922,-2.471704,-0.971253,-1.042533,-0.435877,-1.517316,0.020996,-0.350351,0.825594,0.442322,0.177103,-0.428255,-0.648544,-11.502407,29.058922,-12.622246,,,,,,,
1530639788.201890,-2.494259,-0.966041,-1.044965,-0.071531,-0.716782,-0.183947,-0.342877,0.822641,0.453538,0.204053,-0.465173,-0.690110,-12.121920,29.330940,-12.303596,,,,,,,
1530639788.221859,-2.483462,-0.968871,-1.026033,0.801782,0.023171,-0.432359,-0.346328,0.824247,0.447965,0.200836,-0.488478,-0.773054,-12.468302,28.989105,-12.918587,,,,,,,
1530639788.241828,-2.435995,-0.984925,-0.978139,1.868525,0.532922,-0.605218,-0.358566,0.833230,0.420900,0.123321,-0.513360,-0.770158,-12.860989,28.374443,-14.003693,,,,,,,
1530639788.261796,-2.360726,-1.010329,-0.900345,2.373421,0.739637,-0.669994,-0.374178,0.847007,0.377584,-0.003874,-0.366660,-0.550314,-13.091835,27.523499,-15.369469,,,,,,,
1530639788.281765,-2.302442,-1.014719,-0.862929,0.299724,2.337754,-0.520459,-0.392767,0.849333,0.352659,-0.209834,0.186465,0.599367,-12.144613,27.059799,-16.739311,,,,,,,
1530639788.301734,-2.156443,-1.002739,-0.853184,-1.736970,7.755893,-0.759494,-0.448342,0.842948,0.297371,-0.391334,0.970361,3.971000,-10.498535,27.999809,-17.520340,,,,,,,
1530639788.321703,-2.194076,-0.945748,-0.966847,-4.237160,0.552053,-0.687766,-0.475113,0.810935,0.341545,-0.255341,1.200036,1.505577,-10.846588,29.299225,-15.531487,,,,,,,
1530639788.341671,-2.253121,-0.896444,-1.025546,-1.906193,-0.557625,-0.763269,-0.484596,0.781112,0.393740,0.063957,0.580583,0.018277,-11.735315,30.050270,-14.216789,,,,,,,
1530639788.361640,-2.224856,-0.891697,-1.028701,0.536480,3.014470,0.264364,-0.498467,0.778139,0.382140,-0.075614,0.388014,0.154390,-11.007088,29.860664,-15.073082,,,,,,,
1530639788.381609,-2.130078,-0.912358,-1.013093,1.179828,4.021396,0.690533,-0.518654,0.790949,0.324651,-0.139183,0.643667,-1.195744,-9.875179,29.697083,-15.995216,,,,,,,
1530639788.401577,-2.071880,-0.940605,-0.992206,1.236230,0.981795,0.922255,-0.516852,0.807915,0.283085,-0.245966,0.897377,-1.283054,-9.516844,29.677330,-16.663155,,,,,,,
1530639788.421546,-2.047773,-0.961517,-0.955549,1.533690,-1.356396,0.123723,-0.508403,0.820060,0.262730,-0.126103,0.183419,-0.429401,-10.130766,29.220299,-17.073372,,,,,,,
1530639788.441515,-2.048915,-0.973255,-0.921925,0.741192,-0.914031,0.205484,-0.499521,0.826721,0.258863,0.091288,-0.652893,0.542971,-10.586430,29.000832,-16.610245,,,,,,,
1530639788.461483,-2.047501,-0.983961,-0.928362,-0.243167,0.688598,0.768367,-0.491995,0.832697,0.254080,0.302938,-0.512812,-0.260550,-10.395828,29.302681,-16.473068,,,,,,,
,,,,,,,,,,,,,,,,39.779239,-84.064342,292.666107,-1.000000,-1.000000,1530639788.454068,
