timestamp(unix),attitude_roll(radians),attitude_pitch(radians),attitude_yaw(radians),rotation_rate_x(radians/s),rotation_rate_y(radians/s),rotation_rate_z(radians/s),gravity_x(G),gravity_y(G),gravity_z(G),user_acc_x(G),user_acc_y(G),user_acc_z(G),magnetic_field_x(microteslas),magnetic_field_y(microteslas),magnetic_field_z(microteslas),latitude(degree),longitude(degree),altitude(meter),speed(m/s),course(degree),timestamp(unix),User Mark
,,,,,,,,,,,,,,,,39.779206,-84.064477,292.348114,-1.000000,-1.000000,1530639389.458655,
,,,,,,,,,,,,,,,,39.779206,-84.064477,292.348114,-1.000000,-1.000000,1530639398.458655,
1530639406.418178,0.040051,0.305527,-0.668573,-0.119444,-0.165127,0.022029,0.038186,-0.300796,-0.952924,-0.007363,-0.025880,-0.002780,8.520378,-3.814789,-15.725929,,,,,,,
1530639406.438147,0.037175,0.302804,-0.667916,-0.143623,-0.115484,0.027915,0.035475,-0.298198,-0.953845,-0.008025,-0.024632,-0.003370,8.420879,-3.717484,-15.636131,,,,,,,
1530639406.458115,0.035114,0.299919,-0.666915,-0.144879,-0.080330,0.052912,0.033539,-0.295443,-0.954771,-0.003006,-0.014494,0.005125,8.340321,-3.748291,-15.845741,,,,,,,
,,,,,,,,,,,,,,,,39.779165,-84.064599,292.348114,-1.000000,-1.000000,1530639406.458184,
,,,,,,,,,,,,,,,,39.779165,-84.064599,292.348114,-1.000000,-1.000000,1530639406.462188,
1530639406.478084,0.032864,0.297180,-0.665533,-0.139727,-0.102491,0.064612,0.031417,-0.292825,-0.955650,-0.012359,-0.017310,0.004432,8.307598,-3.616806,-15.622971,,,,,,,
1530639406.498052,0.029855,0.294289,-0.663909,-0.159774,-0.148961,0.080779,0.028568,-0.290060,-0.956582,-0.018558,-0.019083,0.006814,8.376804,-3.667671,-15.376190,,,,,,,
1530639406.518020,0.025682,0.290840,-0.662022,-0.191288,-0.197576,0.088428,0.024601,-0.286757,-0.957687,-0.012669,-0.021624,-0.001877,8.212147,-3.265709,-15.786522,,,,,,,
,,,,,,,,,,,,,,,,39.779164,-84.064599,292.348114,-1.000000,-1.000000,1530639406.512978,
,,,,,,,,,,,,,,,,39.779164,-84.064599,292.348114,-1.000000,-1.000000,1530639406.517369,
1530639406.537988,0.021293,0.286747,-0.660028,-0.222795,-0.192086,0.094184,0.020422,-0.282833,-0.958952,-0.027151,-0.018146,-0.002474,8.133339,-3.422005,-15.791367,,,,,,,
1530639406.557957,0.016618,0.282007,-0.657680,-0.257532,-0.204332,0.110675,0.015960,-0.278284,-0.960366,-0.032333,-0.013616,-0.007179,8.032978,-3.223526,-15.853256,,,,,,,
1530639406.577925,0.012244,0.276447,-0.654877,-0.306020,-0.166989,0.140495,0.011779,-0.272939,-0.961959,-0.038803,-0.013605,0.005965,7.981773,-3.176254,-15.834503,,,,,,,
1530639406.597893,0.008583,0.270159,-0.652159,-0.320588,-0.135972,0.125698,0.008271,-0.266885,-0.963693,-0.067277,-0.014640,0.005380,7.882580,-2.992180,-15.855240,,,,,,,
1530639406.617862,0.005498,0.264463,-0.649320,-0.269342,-0.094150,0.141529,0.005307,-0.261391,-0.965218,-0.037793,-0.027686,-0.001289,7.977802,-3.126770,-16.019470,,,,,,,
1530639406.637830,0.003132,0.260195,-0.645925,-0.186741,-0.068990,0.170972,0.003027,-0.257269,-0.966335,-0.009695,-0.024378,-0.002552,7.971672,-3.196815,-16.060562,,,,,,,
1530639406.657799,0.000966,0.257363,-0.642504,-0.125823,-0.044638,0.158576,0.000934,-0.254532,-0.967064,-0.021793,-0.005783,0.002708,8.027409,-3.365479,-16.294846,,,,,,,
1530639406.677767,-0.000252,0.255182,-0.639271,-0.111125,-0.004880,0.155372,-0.000244,-0.252421,-0.967617,-0.013214,-0.011159,0.002987,7.875248,-3.312477,-16.141251,,,,,,,
1530639406.697736,-0.001003,0.253051,-0.636372,-0.111950,0.017392,0.127447,-0.000972,-0.250359,-0.968153,-0.018712,-0.009590,-0.000033,7.921322,-3.139488,-16.377823,,,,,,,
1530639406.717704,-0.000286,0.250481,-0.634325,-0.148313,0.091667,0.083975,-0.000278,-0.247870,-0.968793,-0.015073,-0.006723,0.016874,7.832817,-3.300865,-16.434235,,,,,,,
1530639406.737673,0.001594,0.247379,-0.633069,-0.155324,0.109614,0.043155,0.001545,-0.244864,-0.969556,-0.014576,-0.003687,-0.000125,8.073154,-3.306290,-16.440430,,,,,,,
1530639406.757641,0.002888,0.244585,-0.632512,-0.136204,0.050194,0.014622,0.002802,-0.242154,-0.970234,-0.007929,-0.009677,-0.016308,8.064991,-2.985359,-16.396484,,,,,,,
1530639406.777610,0.003233,0.242067,-0.632536,-0.126544,0.001800,-0.011602,0.003139,-0.239710,-0.970839,-0.009945,-0.015387,-0.009370,8.099777,-2.921135,-16.235016,,,,,,,
1530639406.797578,0.002574,0.239584,-0.632844,-0.126484,-0.056669,-0.017274,0.002501,-0.237298,-0.971433,-0.002684,-0.016089,-0.016878,7.983063,-2.978485,-16.206993,,,,,,,
,,,,,,,,,,,,,,,,39.779203,-84.064397,292.591949,-1.000000,-1.000000,1530639406.781277,
1530639406.817546,0.000859,0.236957,-0.633328,-0.140010,-0.106258,-0.029234,0.000835,-0.234745,-0.972056,-0.009929,-0.014553,-0.017888,8.083599,-2.724342,-16.398430,,,,,,,
1530639406.837515,-0.001224,0.233697,-0.634118,-0.179741,-0.102832,-0.043895,-0.001191,-0.231576,-0.972816,-0.016601,-0.016822,0.001182,7.940296,-2.720222,-16.569283,,,,,,,
1530639406.857483,-0.002238,0.229851,-0.635309,-0.202657,-0.027613,-0.064861,-0.002179,-0.227833,-0.973698,-0.015827,-0.020092,0.022160,8.062450,-2.728004,-16.778557,,,,,,,
1530639406.877452,-0.001795,0.225449,-0.636597,-0.239462,0.025308,-0.053424,-0.001749,-0.223544,-0.974692,-0.019750,-0.023908,0.028998,7.907539,-2.713585,-16.788147,,,,,,,
1530639406.897420,-0.000550,0.220115,-0.636877,-0.289347,0.073399,0.018520,-0.000537,-0.218342,-0.975872,-0.030866,-0.024059,0.028011,8.104927,-2.606247,-16.633812,,,,,,,
1530639406.917389,-0.000224,0.214149,-0.635288,-0.304750,-0.001184,0.108919,-0.000219,-0.212516,-0.977157,-0.039240,-0.028741,0.001511,8.128006,-2.468018,-16.550713,,,,,,,
1530639406.937357,-0.002846,0.209059,-0.631799,-0.226914,-0.133289,0.212068,-0.002784,-0.207540,-0.978223,-0.020455,-0.033976,-0.024249,7.897285,-2.294815,-16.875114,,,,,,,
1530639406.957326,-0.006847,0.205164,-0.626503,-0.201185,-0.144752,0.272137,-0.006704,-0.203728,-0.979005,-0.008860,-0.032066,-0.004806,7.975693,-2.268539,-16.862968,,,,,,,
1530639406.977294,-0.010923,0.200452,-0.621742,-0.270807,-0.156332,0.194091,-0.010704,-0.199112,-0.979918,-0.030968,-0.024856,0.012786,7.881142,-2.094437,-16.706184,,,,,,,
1530639406.997263,-0.014455,0.194600,-0.619890,-0.309360,-0.151907,0.034901,-0.014181,-0.193374,-0.981022,-0.054224,-0.037033,0.026494,7.837624,-2.119003,-16.786324,,,,,,,
1530639407.017231,-0.017513,0.188841,-0.620560,-0.272978,-0.156823,-0.053943,-0.017201,-0.187721,-0.982072,-0.044445,-0.046853,0.021745,7.757118,-1.962234,-17.042442,,,,,,,
1530639407.037199,-0.019812,0.184546,-0.622008,-0.196291,-0.110361,-0.071798,-0.019474,-0.183500,-0.982827,-0.024822,-0.052034,0.006844,7.984074,-1.865791,-16.997009,,,,,,,
1530639407.057168,-0.020946,0.181156,-0.623832,-0.173059,-0.040673,-0.093277,-0.020602,-0.180167,-0.983420,-0.027112,-0.040338,0.009406,7.952942,-1.835197,-16.760101,,,,,,,
1530639407.077136,-0.020888,0.178288,-0.626063,-0.135095,0.002555,-0.120438,-0.020555,-0.177345,-0.983934,-0.027845,-0.033470,0.001695,7.939301,-1.758614,-17.054764,,,,,,,
1530639407.097105,-0.019839,0.176687,-0.629094,-0.066580,0.060245,-0.165111,-0.019529,-0.175769,-0.984238,-0.028964,-0.038373,0.004364,8.091553,-1.912979,-17.036034,,,,,,,
1530639407.117073,-0.016790,0.175977,-0.632946,-0.043232,0.155427,-0.201571,-0.016530,-0.175070,-0.984417,-0.028347,-0.049616,0.007717,8.136986,-1.760841,-17.123039,,,,,,,
1530639407.137042,-0.012468,0.175268,-0.637307,-0.051491,0.191976,-0.218565,-0.012277,-0.174372,-0.984603,-0.027137,-0.055670,-0.007279,8.111366,-1.488991,-17.063896,,,,,,,
1530639407.157010,-0.007798,0.173930,-0.641629,-0.093550,0.205144,-0.205113,-0.007680,-0.173054,-0.984882,-0.033747,-0.045971,0.012211,8.428997,-1.730339,-16.759636,,,,,,,
1530639407.176979,-0.003133,0.171681,-0.645493,-0.130455,0.197255,-0.179947,-0.003087,-0.170839,-0.985294,-0.044627,-0.050719,0.019840,8.434242,-1.258865,-16.796509,,,,,,,
1530639407.196947,0.000357,0.169573,-0.648592,-0.094101,0.126284,-0.135379,0.000351,-0.168762,-0.985657,-0.045395,-0.070191,-0.004089,8.528030,-1.313843,-17.009171,,,,,,,
1530639407.216916,0.002178,0.168827,-0.650944,-0.015667,0.058725,-0.107425,0.002147,-0.168026,-0.985780,-0.035472,-0.072773,-0.009383,8.620255,-1.382378,-16.829384,,,,,,,
1530639407.236884,0.003692,0.168970,-0.653053,0.003207,0.073071,-0.107557,0.003640,-0.168167,-0.985752,-0.028664,-0.060241,0.012821,8.736794,-1.439011,-16.835205,,,,,,,
1530639407.256853,0.005304,0.168986,-0.655564,-0.016459,0.055630,-0.138707,0.005228,-0.168183,-0.985742,-0.025797,-0.065750,0.000726,8.901917,-1.271782,-16.851746,,,,,,,
1530639407.276821,0.006460,0.167974,-0.658725,-0.093832,0.030455,-0.166045,0.006369,-0.167185,-0.985905,-0.030753,-0.070333,-0.000240,8.964573,-1.231178,-16.614006,,,,,,,
1530639407.296790,0.006566,0.164522,-0.662126,-0.239513,-0.042297,-0.174550,0.006477,-0.163781,-0.986475,-0.039863,-0.076270,-0.002218,8.850952,-0.980110,-16.753120,,,,,,,
1530639407.316758,0.005392,0.158741,-0.665815,-0.310626,-0.112771,-0.196779,0.005324,-0.158075,-0.987413,-0.056045,-0.070837,-0.014373,8.985664,-0.894196,-16.793968,,,,,,,
1530639407.336727,0.002784,0.153486,-0.670197,-0.240076,-0.194252,-0.230281,0.002751,-0.152884,-0.988240,-0.062901,-0.073389,-0.046153,8.891685,-0.551140,-16.781113,,,,,,,
1530639407.356695,-0.001540,0.149423,-0.675177,-0.201049,-0.280193,-0.255916,-0.001522,-0.148868,-0.988856,-0.073429,-0.072888,-0.044744,8.949085,-0.634537,-16.934891,,,,,,,
1530639407.376663,-0.005892,0.145468,-0.680473,-0.215656,-0.226025,-0.266282,-0.005830,-0.144956,-0.989421,-0.087691,-0.065325,-0.017949,8.924217,-0.491837,-16.642456,,,,,,,
1530639407.396632,-0.007886,0.141332,-0.686068,-0.216577,-0.074651,-0.286041,-0.007808,-0.140862,-0.989998,-0.100545,-0.051383,0.022881,8.869442,-0.303596,-17.174042,,,,,,,
1530639407.416601,-0.007301,0.137765,-0.692085,-0.164037,0.013750,-0.301274,-0.007231,-0.137329,-0.990499,-0.112153,-0.046432,0.030599,8.851032,-0.217415,-17.076782,,,,,,,
1530639407.436569,-0.006117,0.136289,-0.697982,-0.026795,0.033466,-0.285383,-0.006061,-0.135867,-0.990708,-0.111417,-0.049527,0.036470,8.941414,-0.095940,-17.156204,,,,,,,
1530639407.456537,-0.003984,0.137827,-0.703519,0.122029,0.116152,-0.276864,-0.003947,-0.137391,-0.990509,-0.100286,-0.063796,0.062561,9.094032,0.032173,-17.003288,,,,,,,
1530639407.476506,0.000392,0.142219,-0.709492,0.257584,0.247733,-0.314348,0.000388,-0.141740,-0.989904,-0.075644,-0.078551,0.085683,9.127605,0.300804,-16.962509,,,,,,,
1530639407.496474,0.006256,0.147041,-0.717722,0.176109,0.185988,-0.480950,0.006188,-0.146512,-0.989190,-0.022973,-0.082752,0.085350,9.368408,0.177711,-16.967880,,,,,,,
1530639407.516444,0.008258,0.148027,-0.729136,-0.008491,-0.033913,-0.599756,0.008168,-0.147487,-0.989030,0.000728,-0.099888,0.027742,9.515583,0.351585,-16.896339,,,,,,,
1530639407.536412,0.008320,0.147431,-0.741083,-0.030689,-0.103615,-0.576123,0.008229,-0.146897,-0.989117,-0.032292,-0.083190,0.008679,9.632969,0.429268,-16.711357,,,,,,,
1530639407.556381,0.006589,0.147252,-0.751810,-0.007130,-0.185801,-0.505593,0.006518,-0.146721,-0.989156,-0.032961,-0.069359,-0.017557,9.578285,0.457436,-16.983162,,,,,,,
1530639407.576349,0.003104,0.147152,-0.760518,-0.007042,-0.279362,-0.385249,0.003070,-0.146621,-0.989188,-0.003696,-0.046128,-0.020196,9.493130,0.689331,-16.781105,,,,,,,
1530639407.596318,-0.003560,0.148601,-0.767337,0.094116,-0.460946,-0.311705,-0.003521,-0.148055,-0.988973,0.007427,-0.071107,-0.069697,9.588646,0.776863,-17.144836,,,,,,,
1530639407.616286,-0.014444,0.151810,-0.772703,0.174342,-0.645800,-0.243350,-0.014277,-0.151228,-0.988396,0.016368,-0.088686,-0.091087,9.295937,0.863792,-17.245384,,,,,,,
1530639407.636255,-0.026606,0.156438,-0.776884,0.242068,-0.597612,-0.190994,-0.026278,-0.155801,-0.987439,-0.000608,-0.047431,-0.063892,9.148964,1.002449,-17.295189,,,,,,,
1530639407.656223,-0.034782,0.161209,-0.780227,0.208319,-0.328361,-0.174239,-0.034324,-0.160512,-0.986437,0.006934,-0.031169,0.002947,9.047302,1.100555,-17.365784,,,,,,,
1530639407.676192,-0.037970,0.164543,-0.783968,0.123535,-0.139397,-0.198308,-0.037448,-0.163801,-0.985782,0.033283,-0.019243,0.031742,8.999115,1.164032,-17.549728,,,,,,,
1530639407.696160,-0.039776,0.166109,-0.787904,0.037519,-0.127247,-0.195171,-0.039218,-0.165346,-0.985455,0.063296,0.004046,0.004834,8.994389,1.398026,-17.197899,,,,,,,
1530639407.716129,-0.042062,0.166155,-0.791995,-0.036829,-0.164671,-0.207504,-0.041471,-0.165391,-0.985356,0.063596,0.020249,-0.069042,8.745483,1.657585,-17.287025,,,,,,,
1530639407.736097,-0.044309,0.165040,-0.796480,-0.071361,-0.123744,-0.217726,-0.043692,-0.164292,-0.985443,0.084510,0.056962,-0.140152,8.903591,1.600830,-17.571365,,,,,,,
1530639407.756066,-0.043553,0.164567,-0.800533,-0.001404,0.108941,-0.186069,-0.042951,-0.163826,-0.985554,0.097837,0.072593,-0.158932,9.057854,1.508934,-17.743805,,,,,,,
1530639407.776034,-0.038105,0.165934,-0.803865,0.100097,0.294211,-0.163604,-0.037572,-0.165173,-0.985548,0.096944,0.053281,-0.137559,9.292046,1.713371,-17.573898,,,,,,,
1530639407.796003,-0.031446,0.168406,-0.806959,0.105189,0.294082,-0.145332,-0.030996,-0.167611,-0.985366,0.096853,0.023415,-0.079560,9.280708,1.619019,-17.493637,,,,,,,
1530639407.815971,-0.027536,0.168703,-0.809246,-0.054515,0.085198,-0.102575,-0.027142,-0.167904,-0.985430,0.096569,0.017696,-0.043135,9.243618,1.841606,-17.447060,,,,,,,
1530639407.835940,-0.028217,0.165733,-0.810306,-0.197864,-0.099762,-0.008104,-0.027826,-0.164975,-0.985905,0.107965,-0.002521,-0.045650,9.249290,1.851402,-17.548439,,,,,,,
1530639407.855908,-0.031581,0.161134,-0.809894,-0.232855,-0.193926,0.041425,-0.031167,-0.160437,-0.986554,0.060036,0.018119,-0.036350,9.224960,2.227333,-17.542084,,,,,,,
1530639407.875877,-0.035800,0.157416,-0.808904,-0.141727,-0.203981,0.054423,-0.035350,-0.156766,-0.987003,0.054377,0.032010,-0.023968,9.141994,2.266655,-17.732422,,,,,,,
1530639407.895845,-0.039637,0.156134,-0.808013,-0.009635,-0.205163,0.059483,-0.039144,-0.155501,-0.987060,0.026952,0.027357,0.024993,9.093449,2.402390,-17.890549,,,,,,,
1530639407.915814,-0.043388,0.157318,-0.806925,0.081918,-0.146405,0.018885,-0.042839,-0.156670,-0.986722,0.000496,0.023827,0.100415,8.960400,2.576828,-17.936134,,,,,,,
1530639407.935782,-0.044291,0.158327,-0.807777,0.029140,-0.023234,-0.070554,-0.043723,-0.157667,-0.986524,0.027853,0.001920,0.163297,9.013386,2.348137,-18.043968,,,,,,,
1530639407.955751,-0.043191,0.158437,-0.810545,-0.014039,0.057009,-0.178637,-0.042637,-0.157775,-0.986554,0.034611,0.011855,0.174237,9.036640,2.704559,-18.051788,,,,,,,
1530639407.975720,-0.039878,0.157706,-0.815595,-0.066650,0.174802,-0.288598,-0.039373,-0.157053,-0.986805,0.045369,-0.002035,0.174808,9.116123,2.749275,-18.006660,,,,,,,
1530639407.995688,-0.033897,0.156083,-0.822829,-0.108795,0.279324,-0.395497,-0.033479,-0.155450,-0.987276,0.049867,0.001062,0.153368,9.154465,2.776604,-17.870384,,,,,,,
1530639408.015657,-0.026140,0.153860,-0.832011,-0.126965,0.332926,-0.483486,-0.025828,-0.153254,-0.987849,0.053980,-0.010808,0.136851,9.286194,3.332581,-17.723015,,,,,,,
1530639408.035625,-0.018608,0.151893,-0.842945,-0.094823,0.251790,-0.565106,-0.018393,-0.151309,-0.988315,0.046897,-0.009930,0.104480,9.402992,3.312164,-17.837578,,,,,,,
1530639408.055594,-0.013668,0.151068,-0.855446,-0.021754,0.098899,-0.648591,-0.013511,-0.150494,-0.988518,0.046226,-0.007220,0.063607,9.644623,3.536514,-17.750908,,,,,,,
1530639408.075562,-0.010824,0.151583,-0.869613,0.039762,0.015556,-0.731616,-0.010700,-0.151003,-0.988475,0.041553,-0.009306,0.060955,9.487595,4.072868,-17.593842,,,,,,,
1530639408.095531,-0.008158,0.152773,-0.885328,0.057149,0.019378,-0.806198,-0.008063,-0.152179,-0.988320,0.031730,-0.008236,0.043725,9.555012,4.025169,-17.734673,,,,,,,
1530639408.115499,-0.004717,0.154032,-0.902534,0.053515,0.052980,-0.876105,-0.004661,-0.153423,-0.988149,0.024268,-0.006458,0.001791,9.658966,4.604408,-17.658730,,,,,,,
1530639408.135468,-0.001585,0.154947,-0.920511,0.039996,-0.024207,-0.888199,-0.001566,-0.154327,-0.988018,0.030649,-0.004578,-0.049060,9.647556,4.614525,-17.428078,,,,,,,
1530639408.155436,-0.001268,0.156104,-0.938204,0.071322,-0.182219,-0.867724,-0.001253,-0.155471,-0.987840,0.022966,-0.011292,-0.098922,9.592438,4.920151,-17.578224,,,,,,,
1530639408.175405,-0.002960,0.158033,-0.955663,0.101683,-0.217603,-0.860667,-0.002923,-0.157376,-0.987534,-0.000571,0.003232,-0.064437,9.551571,5.144699,-17.583954,,,,,,,
1530639408.195373,-0.004439,0.159378,-0.973013,0.008235,-0.241961,-0.845769,-0.004383,-0.158705,-0.987316,-0.018490,0.009580,-0.004185,9.224506,5.530579,-17.376282,,,,,,,
1530639408.215342,-0.010807,0.156138,-0.987720,-0.275603,-0.562440,-0.623188,-0.010676,-0.155504,-0.987778,0.023508,-0.022963,-0.139267,8.996128,5.825363,-17.587029,,,,,,,
1530639408.235310,-0.022130,0.150119,-0.998439,-0.269278,-0.614092,-0.497317,-0.021879,-0.149556,-0.988511,-0.028093,0.039754,-0.419051,8.834606,6.053490,-17.579132,,,,,,,
1530639408.255279,-0.026213,0.149169,-1.009560,0.077565,-0.061487,-0.607282,-0.025919,-0.148616,-0.988555,-0.044042,0.139842,-0.488572,8.673985,6.469925,-17.537651,,,,,,,
1530639408.275247,-0.018804,0.154321,-1.022357,0.295726,0.432011,-0.624488,-0.018580,-0.153709,-0.987941,0.015238,0.124290,-0.330265,8.498871,6.542168,-17.606636,,,,,,,
1530639408.295216,-0.006891,0.159665,-1.034494,0.211603,0.485944,-0.597444,-0.006804,-0.158987,-0.987257,-0.007616,0.110190,-0.065019,8.655632,6.870255,-17.499519,,,,,,,
1530639408.315184,0.001323,0.161284,-1.046539,-0.001267,0.193432,-0.591191,0.001306,-0.160585,-0.987021,-0.041711,0.043200,0.084952,8.694729,6.892792,-17.603111,,,,,,,
1530639408.335153,0.002510,0.159360,-1.058288,-0.134540,-0.162125,-0.570991,0.002478,-0.158686,-0.987326,-0.028219,0.058085,0.116003,8.707733,6.908012,-17.594200,,,,,,,
1530639408.355121,-0.002194,0.155971,-1.068481,-0.183721,-0.399186,-0.449744,-0.002168,-0.155339,-0.987859,-0.007095,0.114339,0.098134,8.573971,7.104645,-17.641388,,,,,,,
1530639408.375090,-0.011006,0.152771,-1.075026,-0.133955,-0.518716,-0.248085,-0.010878,-0.152177,-0.988293,-0.009614,0.133561,0.045087,8.228474,7.485687,-17.574097,,,,,,,
1530639408.395058,-0.019429,0.152051,-1.078274,0.019146,-0.370604,-0.122820,-0.019204,-0.151466,-0.988276,-0.045860,0.122215,0.019968,8.044670,7.700676,-17.847275,,,,,,,
1530639408.415027,-0.023430,0.154132,-1.080243,0.147926,-0.119086,-0.103561,-0.023150,-0.153523,-0.987874,-0.055418,0.101338,0.005345,8.011284,7.752533,-17.893463,,,,,,,
1530639408.434995,-0.022750,0.158231,-1.083101,0.239702,0.070147,-0.174811,-0.022464,-0.157572,-0.987252,-0.044599,0.093668,0.002236,8.029446,7.505753,-17.898407,,,,,,,
1530639408.454964,-0.020397,0.164264,-1.086938,0.346901,0.075833,-0.203971,-0.020121,-0.163526,-0.986334,-0.008535,0.089780,-0.028147,7.956150,7.523689,-17.974449,,,,,,,
1530639408.474933,-0.019709,0.171926,-1.091039,0.408836,-0.051107,-0.208475,-0.019417,-0.171080,-0.985066,0.015724,0.094557,-0.044750,7.945984,7.379639,-18.043869,,,,,,,
1530639408.494901,-0.021221,0.179625,-1.094521,0.362304,-0.126502,-0.158731,-0.020878,-0.178661,-0.983689,0.017216,0.089290,-0.011214,7.908989,7.328949,-18.093880,,,,,,,
1530639408.514870,-0.023814,0.184125,-1.096409,0.154965,-0.139219,-0.065986,-0.023409,-0.183087,-0.982818,0.045718,0.072247,0.067001,8.001373,7.144989,-18.132462,,,,,,,
1530639408.534838,-0.026317,0.184174,-1.097190,-0.063497,-0.122873,-0.024753,-0.025869,-0.183135,-0.982747,0.043920,0.080245,0.095617,7.737766,7.359833,-18.287300,,,,,,,
1530639408.554807,-0.028697,0.180633,-1.097156,-0.218036,-0.115420,0.022226,-0.028226,-0.179653,-0.983325,0.054975,0.096050,0.082919,7.628544,7.647064,-18.098923,,,,,,,
1530639408.574775,-0.030753,0.175300,-1.096516,-0.267518,-0.090175,0.045525,-0.030277,-0.174404,-0.984209,0.053883,0.110271,0.040803,7.488495,7.671440,-18.058372,,,,,,,
1530639408.594744,-0.031948,0.170017,-1.095842,-0.248581,-0.040446,0.036938,-0.031482,-0.169200,-0.985079,0.056903,0.116877,0.011278,7.581688,7.885361,-18.040039,,,,,,,
1530639408.614712,-0.032248,0.165289,-1.095560,-0.221120,-0.007165,0.011998,-0.031803,-0.164538,-0.985858,0.052677,0.117785,0.002185,7.622093,7.957199,-17.929047,,,,,,,
1530639408.634681,-0.031825,0.161468,-1.095753,-0.165379,0.032703,-0.008897,-0.031406,-0.160768,-0.986492,0.035968,0.113862,-0.007679,7.513206,7.930321,-17.960670,,,,,,,
1530639408.654649,-0.030655,0.158918,-1.095981,-0.094151,0.069045,0.000226,-0.030264,-0.158250,-0.986935,0.025503,0.104554,-0.023593,7.604549,7.924622,-17.949310,,,,,,,
1530639408.674618,-0.028693,0.158023,-1.095308,0.004986,0.112765,0.058699,-0.028332,-0.157366,-0.987134,0.010769,0.079104,-0.024890,7.668011,7.960037,-17.975983,,,,,,,
1530639408.694587,-0.026242,0.159222,-1.093021,0.111258,0.149681,0.142952,-0.025907,-0.158550,-0.987011,-0.002993,0.052639,-0.026814,7.771103,7.806801,-18.125145,,,,,,,
1530639408.714556,-0.023079,0.161905,-1.089323,0.172657,0.193425,0.199667,-0.022775,-0.161198,-0.986659,-0.030662,0.026921,-0.042287,7.799187,7.761299,-18.307915,,,,,,,
1530639408.734524,-0.020450,0.164972,-1.084435,0.172165,0.151053,0.260941,-0.020171,-0.164225,-0.986217,-0.026536,0.010584,-0.053807,7.893284,7.693466,-18.231041,,,,,,,
1530639408.754493,-0.018284,0.167414,-1.078514,0.116260,0.166253,0.300436,-0.018027,-0.166634,-0.985854,-0.022027,-0.000740,-0.026109,7.856995,7.788025,-18.109451,,,,,,,
1530639408.774462,-0.016017,0.168204,-1.072263,0.011309,0.157381,0.311222,-0.015790,-0.167412,-0.985761,-0.024493,-0.006355,0.000195,8.159374,7.592194,-18.179901,,,,,,,
1530639408.794430,-0.014733,0.166640,-1.066299,-0.117406,0.086989,0.279900,-0.014529,-0.165870,-0.986040,-0.031202,-0.014565,0.009600,8.191494,7.666901,-18.092163,,,,,,,
1530639408.814399,-0.014884,0.163082,-1.061351,-0.188227,0.005723,0.222024,-0.014686,-0.162360,-0.986622,-0.039300,-0.011514,-0.025448,8.191116,7.558556,-18.219887,,,,,,,
1530639408.834366,-0.016052,0.159520,-1.057654,-0.155250,-0.038053,0.165373,-0.015847,-0.158844,-0.987176,-0.033393,0.002487,-0.046332,8.197582,7.579163,-18.155632,,,,,,,
1530639408.854336,-0.017201,0.157613,-1.054815,-0.053234,-0.022378,0.128771,-0.016987,-0.156961,-0.987459,-0.028256,0.010508,-0.041167,8.154366,7.581001,-18.136772,,,,,,,
1530639408.874303,-0.017820,0.158012,-1.052482,0.059128,-0.005722,0.109318,-0.017597,-0.157355,-0.987385,-0.020153,0.016303,-0.018673,8.099663,7.621231,-18.095825,,,,,,,
1530639408.894272,-0.018426,0.160324,-1.050360,0.143116,-0.008980,0.097621,-0.018189,-0.159638,-0.987008,-0.010620,0.022187,0.008034,8.197659,7.543869,-18.163048,,,,,,,
1530639408.914240,-0.019229,0.163622,-1.048493,0.171562,-0.029857,0.082120,-0.018971,-0.162893,-0.986461,-0.000942,0.025396,0.030880,8.107750,7.584999,-17.904213,,,,,,,
1530639408.934209,-0.020546,0.166740,-1.047010,0.147605,-0.061729,0.062804,-0.020260,-0.165969,-0.985923,0.003353,0.027144,0.037925,8.405933,7.105942,-17.837776,,,,,,,
1530639408.954177,-0.022217,0.168910,-1.045797,0.092096,-0.076006,0.054701,-0.021899,-0.168108,-0.985525,0.009631,0.034884,0.034369,8.091190,7.294373,-18.004272,,,,,,,
1530639408.974146,-0.023656,0.170090,-1.045058,0.051505,-0.056961,0.016397,-0.023312,-0.169271,-0.985294,0.009564,0.031316,0.005405,8.038395,7.462082,-18.077950,,,,,,,
1530639408.994114,-0.024523,0.170530,-1.045210,0.010917,-0.041228,-0.021919,-0.024165,-0.169704,-0.985199,0.009318,0.029568,-0.018052,8.095367,7.279411,-18.177917,,,,,,,
1530639409.014083,-0.024807,0.170469,-1.046189,-0.005511,-0.008905,-0.065809,-0.024445,-0.169645,-0.985202,0.003144,0.027586,-0.030698,8.149025,7.222168,-17.884796,,,,,,,
1530639409.034051,-0.024153,0.170166,-1.048027,-0.014632,0.026697,-0.105444,-0.023802,-0.169346,-0.985269,0.000532,0.023716,-0.025931,8.152794,7.296516,-18.044312,,,,,,,
1530639409.054020,-0.022782,0.169934,-1.050681,-0.006999,0.049027,-0.142090,-0.022452,-0.169118,-0.985340,-0.004647,0.018575,-0.010037,8.183945,7.483292,-18.234337,,,,,,,
1530639409.073989,-0.021584,0.169746,-1.053781,-0.010021,0.017112,-0.156228,-0.021272,-0.168932,-0.985398,-0.004759,0.014284,0.010239,8.100288,7.431000,-18.403503,,,,,,,
1530639409.093957,-0.020821,0.169220,-1.056982,-0.037287,0.010496,-0.155969,-0.020522,-0.168414,-0.985503,-0.008836,0.006762,0.030241,8.056885,7.586731,-18.266541,,,,,,,
1530639409.113926,-0.020333,0.168104,-1.059963,-0.061546,-0.008384,-0.138549,-0.020045,-0.167314,-0.985700,-0.008672,0.009828,0.031812,8.183910,7.667259,-18.212715,,,,,,,
1530639409.133894,-0.020128,0.166933,-1.062462,-0.053330,-0.006327,-0.117051,-0.019847,-0.166159,-0.985899,-0.009313,0.010916,0.017225,8.015636,7.669891,-18.364723,,,,,,,
1530639409.153863,-0.019650,0.166241,-1.064637,-0.026184,0.020062,-0.103195,-0.019378,-0.165476,-0.986023,0.000732,0.014460,0.004135,8.041172,7.693306,-18.349327,,,,,,,
1530639409.173831,-0.018412,0.165953,-1.066568,-0.011618,0.063020,-0.090201,-0.018158,-0.165193,-0.986094,0.008728,0.011140,0.000102,7.977898,7.576759,-18.389214,,,,,,,
1530639409.193800,-0.016469,0.165843,-1.068126,-0.004417,0.094919,-0.073948,-0.016242,-0.165083,-0.986146,0.014350,0.006529,-0.005264,8.030357,7.725296,-18.277100,,,,,,,
1530639409.213768,-0.014697,0.165649,-1.069417,-0.009785,0.068315,-0.057838,-0.014495,-0.164892,-0.986205,0.023452,0.003042,-0.019242,7.997959,7.707085,-18.458000,,,,,,,
1530639409.233737,-0.013820,0.165584,-1.070387,0.002660,0.022926,-0.039859,-0.013631,-0.164829,-0.986228,0.028493,0.000339,-0.037027,8.122818,7.789261,-18.404953,,,,,,,
1530639409.253706,-0.013467,0.165701,-1.070862,0.007681,0.008381,-0.011937,-0.013282,-0.164944,-0.986213,0.027244,-0.001728,-0.032997,8.155773,7.667542,-18.331841,,,,,,,
1530639409.273674,-0.013362,0.165722,-1.070818,-0.001908,0.004945,0.006480,-0.013179,-0.164964,-0.986211,0.029231,-0.002989,-0.013468,7.965595,7.815056,-18.038383,,,,,,,
1530639409.293643,-0.013441,0.165658,-1.070529,-0.000969,-0.013919,0.020400,-0.013256,-0.164902,-0.986221,0.031506,-0.004410,0.001998,8.126366,7.756729,-18.194084,,,,,,,
1530639409.313612,-0.014169,0.165681,-1.070018,0.002148,-0.051481,0.024493,-0.013974,-0.164924,-0.986207,0.023236,-0.009133,0.016877,8.081329,7.663307,-18.286789,,,,,,,
1530639409.333580,-0.015537,0.165634,-1.069576,-0.003042,-0.075728,0.019048,-0.015324,-0.164878,-0.986195,0.023716,-0.006966,0.016636,8.113293,7.703941,-18.395515,,,,,,,
1530639409.353549,-0.017066,0.165324,-1.069379,-0.023913,-0.081153,0.006295,-0.016833,-0.164572,-0.986221,0.023577,-0.000956,0.009628,8.042953,7.697815,-18.425072,,,,,,,
1530639409.373518,-0.018412,0.164786,-1.069458,-0.024832,-0.065586,-0.009793,-0.018162,-0.164041,-0.986286,0.018787,0.002710,-0.013485,8.101833,7.615387,-18.386620,,,,,,,
1530639409.393486,-0.019101,0.164374,-1.069929,-0.022596,-0.026824,-0.027969,-0.018842,-0.163635,-0.986341,0.014738,0.007537,-0.024096,8.001896,7.696136,-18.175171,,,,,,,
1530639409.413455,-0.018879,0.164026,-1.070678,-0.018304,0.015212,-0.040752,-0.018624,-0.163291,-0.986402,0.013573,0.007530,-0.020403,8.003910,7.416832,-18.380257,,,,,,,
1530639409.433422,-0.017938,0.163830,-1.071689,-0.009819,0.046208,-0.053640,-0.017697,-0.163098,-0.986451,0.012860,0.005429,-0.014632,7.978710,7.759392,-18.066383,,,,,,,
1530639409.453391,-0.016613,0.163574,-1.072827,-0.015054,0.058359,-0.054598,-0.016391,-0.162845,-0.986515,0.015109,0.004444,-0.004696,8.215733,7.613098,-18.318687,,,,,,,
1530639409.473361,-0.015265,0.163363,-1.073866,-0.007774,0.053890,-0.047150,-0.015061,-0.162637,-0.986571,0.016526,0.002755,-0.004762,8.084480,7.745888,-18.382248,,,,,,,
1530639409.493328,-0.014169,0.163216,-1.074551,-0.004820,0.042686,-0.023511,-0.013980,-0.162492,-0.986611,0.020892,0.000367,-0.003044,8.174534,7.743874,-18.220039,,,,,,,
1530639409.513298,-0.013452,0.163361,-1.074694,0.015956,0.030366,0.001014,-0.013273,-0.162635,-0.986597,0.022367,-0.000588,-0.010672,8.213036,7.576462,-18.309250,,,,,,,
1530639409.533266,-0.012960,0.163746,-1.074391,0.018940,0.019185,0.021426,-0.012786,-0.163015,-0.986541,0.021728,0.000173,-0.012483,8.245129,7.333229,-18.259926,,,,,,,
1530639409.553235,-0.012780,0.163956,-1.073840,0.006296,0.004786,0.029038,-0.012608,-0.163222,-0.986509,0.021351,-0.001191,-0.012545,8.170654,7.328476,-18.316528,,,,,,,
1530639409.573203,-0.012860,0.163779,-1.073327,-0.014634,-0.005107,0.023818,-0.012687,-0.163047,-0.986537,0.016349,0.000251,-0.017354,8.217926,7.440498,-18.183487,,,,,,,
1530639409.593172,-0.012828,0.163277,-1.072903,-0.031390,0.004855,0.020809,-0.012657,-0.162553,-0.986619,0.014549,0.001466,-0.008361,8.066406,7.517715,-18.211060,,,,,,,
1530639409.613141,-0.012802,0.162517,-1.072578,-0.040793,0.000472,0.016574,-0.012633,-0.161803,-0.986742,0.012267,0.000532,-0.005110,8.127556,7.424614,-18.124168,,,,,,,
1530639409.633109,-0.012630,0.161641,-1.072247,-0.045033,0.007059,0.022044,-0.012465,-0.160938,-0.986886,0.010680,0.000217,0.001641,8.188580,7.522713,-18.182381,,,,,,,
1530639409.653078,-0.012441,0.161039,-1.071739,-0.020964,0.011423,0.028282,-0.012280,-0.160344,-0.986985,0.008328,0.000661,0.004029,8.150124,7.361946,-18.278053,,,,,,,
1530639409.673046,-0.012517,0.160902,-1.071022,0.003065,-0.009639,0.039787,-0.012355,-0.160209,-0.987006,0.007411,-0.003305,-0.001123,8.105682,7.502464,-18.159721,,,,,,,
1530639409.693015,-0.012946,0.161157,-1.070218,0.020895,-0.018474,0.039553,-0.012778,-0.160461,-0.986959,0.003836,-0.000245,-0.006067,8.202618,7.520561,-18.428108,,,,,,,
1530639409.712983,-0.013374,0.161666,-1.069439,0.026148,-0.014052,0.038442,-0.013199,-0.160963,-0.986872,0.003495,-0.001650,-0.004415,8.327446,7.491524,-18.371452,,,,,,,
1530639409.732952,-0.013665,0.162100,-1.068736,0.019904,-0.002967,0.032088,-0.013485,-0.161391,-0.986798,-0.001789,-0.003907,-0.006625,8.304165,7.303848,-18.538811,,,,,,,
1530639409.752921,-0.013524,0.162326,-1.068238,0.008478,0.017002,0.018286,-0.013345,-0.161614,-0.986764,-0.005301,-0.003105,0.000191,8.280243,7.308578,-18.601288,,,,,,,
1530639409.772889,-0.013163,0.162442,-1.068016,0.006485,0.019300,0.005377,-0.012989,-0.161729,-0.986750,-0.005657,-0.003448,-0.000112,8.266621,7.472641,-18.519196,,,,,,,
1530639409.792858,-0.013132,0.162853,-1.068094,0.029698,-0.015918,-0.011218,-0.012958,-0.162134,-0.986684,-0.004178,-0.004813,-0.003093,8.226696,7.649651,-18.511360,,,,,,,
1530639409.812825,-0.014000,0.163822,-1.068566,0.060228,-0.067719,-0.024740,-0.013813,-0.163091,-0.986514,-0.002469,-0.002238,-0.004819,8.252087,7.307343,-18.285194,,,,,,,
1530639409.832795,-0.015758,0.165666,-1.069543,0.104667,-0.108253,-0.071778,-0.015542,-0.164910,-0.986186,-0.005775,-0.004753,-0.010335,8.056221,7.658615,-18.513779,,,,,,,
1530639409.852762,-0.018010,0.168125,-1.071402,0.131138,-0.140063,-0.102417,-0.017755,-0.167334,-0.985740,0.007364,0.000174,-0.008477,7.957657,7.454964,-18.465652,,,,,,,
1530639409.872731,-0.023122,0.171935,-1.071898,0.240424,-0.328496,0.003362,-0.022779,-0.171089,-0.984992,0.013807,0.026970,-0.042474,7.922504,7.391052,-18.651924,,,,,,,
1530639409.892701,-0.030551,0.177831,-1.072111,0.302612,-0.387868,-0.034260,-0.030064,-0.176895,-0.983770,-0.010753,-0.023255,-0.031321,7.823135,7.064903,-18.759224,,,,,,,
1530639409.912668,-0.037320,0.182755,-1.072719,0.201937,-0.297302,-0.035983,-0.036690,-0.181739,-0.982662,0.009544,-0.004891,0.021251,7.588303,7.189041,-18.750046,,,,,,,
1530639409.932637,-0.040687,0.184901,-1.073114,0.059175,-0.115200,-0.022798,-0.039982,-0.183850,-0.982141,0.009815,0.010128,0.048806,7.584003,6.980133,-18.709282,,,,,,,
1530639409.952605,-0.041096,0.185254,-1.073315,0.010783,0.027116,-0.007575,-0.040382,-0.184196,-0.982059,0.018699,-0.013863,0.021656,7.553078,6.961327,-18.740150,,,,,,,
1530639409.972574,-0.039963,0.185033,-1.073543,-0.029059,0.054738,-0.009176,-0.039270,-0.183979,-0.982145,0.002191,-0.011440,0.001905,7.577457,6.986038,-18.805099,,,,,,,
1530639409.992543,-0.038929,0.183943,-1.073741,-0.067888,0.045894,-0.005571,-0.038263,-0.182907,-0.982385,0.007928,-0.001907,-0.005591,7.631649,7.378357,-18.652649,,,,,,,
1530639410.012511,-0.037784,0.182499,-1.074079,-0.078253,0.050417,-0.020535,-0.037147,-0.181488,-0.982691,0.007255,0.001678,-0.001562,7.795280,7.317848,-18.537628,,,,,,,
1530639410.032480,-0.036675,0.181039,-1.074878,-0.074912,0.045061,-0.044325,-0.036067,-0.180052,-0.982996,0.007564,-0.002992,0.000543,7.733433,7.041138,-18.511879,,,,,,,
1530639410.052449,-0.035584,0.179806,-1.076105,-0.059032,0.044079,-0.062836,-0.035003,-0.178838,-0.983256,0.004333,0.000249,0.003977,7.711262,7.155151,-18.723900,,,,,,,
1530639410.072417,-0.034903,0.179252,-1.077435,-0.013916,0.007647,-0.064567,-0.034337,-0.178293,-0.983378,0.003987,-0.001745,-0.004705,7.776703,7.305351,-18.650360,,,,,,,
1530639410.092386,-0.034956,0.179674,-1.078797,0.041713,-0.036492,-0.069689,-0.034386,-0.178709,-0.983301,0.003823,-0.004930,-0.014319,7.662766,7.325089,-18.715599,,,,,,,
1530639410.112355,-0.036395,0.181185,-1.080326,0.085883,-0.108166,-0.083449,-0.035791,-0.180195,-0.982979,0.001230,-0.001689,-0.026588,7.684036,7.228416,-18.747795,,,,,,,
1530639410.132324,-0.038108,0.183416,-1.082191,0.136447,-0.089219,-0.111938,-0.037460,-0.182390,-0.982512,0.002579,-0.000166,-0.015275,7.631676,7.316162,-18.822403,,,,,,,
1530639410.152292,-0.039734,0.187248,-1.084781,0.212222,-0.133177,-0.144238,-0.039030,-0.186156,-0.981745,0.002470,0.010360,-0.018927,7.645187,7.118721,-18.738701,,,,,,,
1530639410.172261,-0.041956,0.191354,-1.087933,0.183152,-0.119670,-0.180533,-0.041178,-0.190188,-0.980884,0.013407,-0.008649,-0.011289,7.548100,7.058578,-18.658600,,,,,,,
1530639410.192229,-0.042473,0.194657,-1.091756,0.151812,-0.038959,-0.197063,-0.041658,-0.193430,-0.980229,0.012315,-0.008795,0.013036,7.414478,7.032394,-18.806190,,,,,,,
1530639410.212198,-0.042464,0.198073,-1.095246,0.185170,-0.040243,-0.172620,-0.041621,-0.196781,-0.979564,0.018977,-0.010007,0.000209,7.349380,6.847008,-18.763962,,,,,,,
1530639410.232167,-0.045834,0.202632,-1.097666,0.257030,-0.318924,-0.104625,-0.044880,-0.201248,-0.978511,0.019688,0.023895,-0.031025,7.385925,6.848808,-18.927864,,,,,,,
1530639410.252135,-0.051978,0.208989,-1.100085,0.314070,-0.298718,-0.155828,-0.050824,-0.207471,-0.976920,0.007412,-0.027773,0.000601,7.232311,6.964630,-19.115601,,,,,,,
1530639410.272104,-0.056853,0.213496,-1.103438,0.147495,-0.227863,-0.177437,-0.055532,-0.211877,-0.975717,0.003683,-0.026862,0.021249,7.024403,6.887665,-19.194221,,,,,,,
1530639410.292072,-0.055701,0.212452,-1.106749,-0.128616,0.133004,-0.147946,-0.054420,-0.210857,-0.976001,-0.007881,-0.035221,0.071292,6.963364,6.990479,-19.263145,,,,,,,
1530639410.312041,-0.052036,0.209164,-1.109165,-0.162575,0.144820,-0.098995,-0.050879,-0.207643,-0.976881,-0.014963,-0.036147,-0.024477,7.035652,7.074692,-18.977478,,,,,,,
1530639410.332010,-0.049518,0.207984,-1.111573,0.005441,0.055527,-0.124943,-0.048431,-0.206487,-0.977250,-0.017654,-0.019343,-0.069885,6.915810,7.289528,-18.871391,,,,,,,
1530639410.351978,-0.048778,0.209222,-1.114708,0.047767,-0.004891,-0.169902,-0.047695,-0.207699,-0.977029,-0.018452,-0.011036,-0.012015,7.014843,7.195007,-19.015594,,,,,,,
1530639410.371947,-0.047517,0.209692,-1.118357,-0.023455,0.042683,-0.181857,-0.046458,-0.208158,-0.976991,-0.021520,-0.008517,0.057329,7.140930,7.188316,-19.004280,,,,,,,
1530639410.391915,-0.046100,0.208807,-1.122179,-0.069525,0.020677,-0.190101,-0.045083,-0.207293,-0.977239,-0.012733,-0.024366,0.048208,7.031731,7.264938,-19.088203,,,,,,,
1530639410.411884,-0.045591,0.208057,-1.126041,-0.019207,-0.037871,-0.186608,-0.044592,-0.206559,-0.977417,-0.007394,-0.031890,0.023377,7.089863,7.312279,-19.048767,,,,,,,
1530639410.431853,-0.046472,0.208707,-1.129959,0.035444,-0.108451,-0.199392,-0.045448,-0.207195,-0.977243,-0.009164,-0.024494,0.008035,7.036644,7.317245,-18.821625,,,,,,,
1530639410.451821,-0.047749,0.209487,-1.133864,0.016440,-0.088681,-0.183992,-0.046687,-0.207958,-0.977023,-0.006520,-0.043995,0.015444,7.061909,7.158417,-18.881287,,,,,,,
1530639410.471790,-0.049032,0.209671,-1.137374,-0.011001,-0.108693,-0.162230,-0.047939,-0.208138,-0.976924,-0.015461,-0.047493,-0.002736,6.862293,7.339546,-19.108345,,,,,,,
1530639410.491758,-0.050510,0.209468,-1.140300,-0.029067,-0.103371,-0.132888,-0.049385,-0.207940,-0.976894,-0.003441,-0.037589,0.006252,6.638649,7.431641,-19.103020,,,,,,,
1530639410.511726,-0.052792,0.208740,-1.142828,-0.061747,-0.170856,-0.110216,-0.051622,-0.207227,-0.976930,-0.008834,-0.032946,0.005525,6.576515,7.469254,-18.933411,,,,,,,
1530639410.531695,-0.054893,0.207158,-1.145279,-0.114097,-0.096793,-0.122245,-0.053692,-0.205680,-0.977145,-0.015155,-0.035241,0.008624,6.572216,7.642418,-18.985352,,,,,,,
1530639410.551663,-0.054610,0.204149,-1.147854,-0.192863,0.033418,-0.111067,-0.053450,-0.202734,-0.977774,0.002485,-0.043223,0.030051,6.515125,7.598953,-19.149529,,,,,,,
1530639410.571632,-0.052893,0.200339,-1.150255,-0.195006,0.062089,-0.106599,-0.051811,-0.199002,-0.978628,0.016945,-0.052204,0.006811,6.572559,7.799637,-19.109901,,,,,,,
1530639410.591600,-0.051702,0.197583,-1.152481,-0.119569,0.014529,-0.096842,-0.050673,-0.196300,-0.979234,0.020720,-0.041890,-0.018264,6.748913,7.790024,-18.968163,,,,,,,
1530639410.611569,-0.052602,0.196626,-1.154136,-0.027561,-0.093936,-0.060598,-0.051564,-0.195362,-0.979375,0.012410,-0.017834,-0.030940,6.672932,7.806221,-18.961151,,,,,,,
1530639410.631538,-0.055478,0.197036,-1.154430,0.025310,-0.170654,0.016119,-0.054377,-0.195764,-0.979142,0.003855,-0.001364,-0.009261,6.552711,7.991417,-18.991623,,,,,,,
1530639410.651506,-0.059655,0.197308,-1.152575,-0.007123,-0.193551,0.136070,-0.058463,-0.196031,-0.978853,-0.006158,0.029176,0.032274,6.555916,7.994301,-18.774925,,,,,,,
1530639410.671475,-0.064276,0.195846,-1.148674,-0.112791,-0.218489,0.235224,-0.063004,-0.194596,-0.978858,-0.035492,0.080049,0.086692,6.656696,7.861679,-18.960045,,,,,,,
1530639410.691443,-0.071701,0.192412,-1.142112,-0.162388,-0.367575,0.405439,-0.070317,-0.191227,-0.979024,-0.040401,0.098423,0.109929,6.471138,7.996292,-19.077385,,,,,,,
1530639410.711412,-0.083598,0.188660,-1.131109,-0.099417,-0.607819,0.662454,-0.082019,-0.187543,-0.978826,-0.037961,0.125562,0.136571,6.373905,7.805832,-19.027229,,,,,,,
1530639410.731381,-0.109064,0.188214,-1.114361,0.154696,-1.523597,0.901232,-0.106925,-0.187104,-0.976503,-0.126809,0.202561,0.133379,6.136093,7.657089,-19.163528,,,,,,,
1530639410.751349,-0.160250,0.191810,-1.093074,0.410575,-2.895867,1.063372,-0.156638,-0.190636,-0.969083,-0.162072,0.274513,0.268567,5.387840,7.321381,-19.530441,,,,,,,
1530639410.771318,-0.240250,0.196499,-1.068827,0.452995,-4.252211,1.167466,-0.233366,-0.195237,-0.952587,-0.141451,0.268982,0.432690,3.920425,7.197060,-19.701874,,,,,,,
1530639410.791286,-0.341910,0.195509,-1.042202,0.229500,-5.108818,1.332882,-0.328900,-0.194266,-0.924167,-0.117557,0.323263,0.506213,2.264603,6.721870,-20.091278,,,,,,,
1530639410.811255,-0.452286,0.185160,-1.013986,-0.024268,-5.238586,1.592734,-0.429553,-0.184104,-0.884075,-0.069333,0.389914,0.556331,0.232468,6.415962,-20.316162,,,,,,,
1530639410.831224,-0.555025,0.166500,-0.982560,-0.081841,-4.595248,1.950207,-0.519676,-0.165732,-0.838133,-0.001427,0.451575,0.574156,-1.505938,6.415581,-20.212624,,,,,,,
1530639410.851192,-0.644799,0.137757,-0.947464,-0.284359,-4.061150,2.467242,-0.595343,-0.137322,-0.791648,0.051550,0.542550,0.576087,-2.961735,6.382584,-19.973068,,,,,,,
1530639410.871161,-0.727358,0.093998,-0.907132,-0.482512,-3.776008,3.226773,-0.661962,-0.093859,-0.743635,0.138402,0.647509,0.467222,-4.232689,6.487328,-19.853172,,,,,,,
1530639410.891129,-0.798488,0.037196,-0.862611,-0.519548,-3.160436,3.767244,-0.715805,-0.037187,-0.697306,0.045288,0.771120,0.286967,-5.181654,6.622093,-19.635384,,,,,,,
1530639410.911098,-0.850275,-0.031035,-0.816471,-0.720904,-2.225451,4.260312,-0.751098,0.031030,-0.659457,0.078948,0.776175,0.206653,-5.885061,7.027420,-19.490944,,,,,,,
1530639410.931067,-0.880733,-0.112297,-0.773595,-1.185274,-1.385378,4.602580,-0.766346,0.112061,-0.632574,0.063755,0.660140,0.095205,-5.985729,7.469391,-19.423676,,,,,,,
1530639410.951035,-0.897123,-0.204081,-0.736141,-1.574975,-1.025645,4.801520,-0.765314,0.202667,-0.610913,-0.028540,0.552734,-0.181186,-5.844618,8.246819,-19.126755,,,,,,,
1530639410.971004,-0.910912,-0.299033,-0.698689,-1.392023,-1.309941,4.878014,-0.754999,0.294597,-0.585818,-0.160681,0.426259,-0.620374,-5.772972,9.049324,-19.359619,,,,,,,
1530639410.990972,-0.928579,-0.385755,-0.651203,-0.424784,-1.862208,4.717278,-0.741922,0.376259,-0.554954,-0.370124,0.240105,-1.085381,-5.954781,9.696899,-19.323776,,,,,,,
1530639411.010941,-0.939585,-0.453240,-0.586472,0.792941,-1.824411,4.302185,-0.725798,0.437880,-0.530538,-0.569353,0.016557,-1.230708,-6.364468,9.939758,-19.400543,,,,,,,
1530639411.030910,-0.935139,-0.503046,-0.512404,1.315472,-1.199158,3.735562,-0.704993,0.482097,-0.520154,-0.697183,-0.327952,-1.033282,-6.510347,9.826164,-19.394440,,,,,,,
1530639411.050878,-0.911908,-0.539927,-0.443517,1.213505,-0.141779,2.967366,-0.678193,0.514074,-0.525142,-0.854736,-0.610601,-0.784886,-6.539547,9.453598,-19.881081,,,,,,,
1530639411.070847,-0.873850,-0.563647,-0.388054,1.030906,0.701312,2.062030,-0.648187,0.534272,-0.542585,-0.905081,-0.801240,-0.632738,-6.265619,9.419861,-20.131569,,,,,,,
1530639411.090815,-0.835007,-0.573122,-0.346494,1.055577,0.835189,1.219007,-0.622847,0.542258,-0.563924,-0.834962,-0.916327,-0.550257,-5.891151,8.958298,-20.297150,,,,,,,
1530639411.110784,-0.803606,-0.569483,-0.311699,1.275146,0.450371,0.664761,-0.606252,0.539197,-0.584567,-0.708873,-0.981244,-0.431088,-5.686657,8.928490,-20.502998,,,,,,,
1530639411.130753,-0.788561,-0.554213,-0.283780,1.437584,-0.275135,0.052326,-0.603159,0.526274,-0.599356,-0.652151,-0.939757,-0.171655,-5.590359,7.969421,-20.624718,,,,,,,
1530639411.150721,-0.791984,-0.529281,-0.262875,1.542161,-0.942047,-0.410377,-0.614358,0.504913,-0.606318,-0.546424,-0.872955,0.044795,-5.670704,7.191742,-20.705963,,,,,,,
1530639411.170690,-0.808576,-0.500469,-0.248833,1.338122,-1.263321,-0.714972,-0.634594,0.479837,-0.605838,-0.430515,-0.746103,0.296680,-6.223768,6.635971,-20.546021,,,,,,,
1530639411.190658,-0.831928,-0.472915,-0.243078,0.975707,-1.333721,-0.893720,-0.658093,0.455483,-0.599534,-0.297687,-0.673181,0.465135,-6.653423,6.207077,-20.457901,,,,,,,
1530639411.210627,-0.869652,-0.457445,-0.252609,-0.786566,-2.244258,-0.678715,-0.685539,0.441657,-0.578764,-0.250466,-0.382285,0.839827,-7.440493,6.208107,-19.819046,,,,,,,
1530639411.230596,-0.977646,-0.491042,-0.309519,-3.616779,-4.744276,-0.117008,-0.731205,0.471545,-0.492926,-0.068783,1.192945,1.121909,-9.145132,7.298744,-19.182693,,,,,,,
1530639411.250564,-1.091296,-0.499965,-0.356912,-0.837796,-4.471950,-1.156987,-0.778624,0.479394,-0.404865,-0.004319,0.144980,-0.236934,-10.797976,7.771309,-18.180069,,,,,,,
1530639411.270533,-1.189847,-0.470342,-0.361576,0.955027,-5.118093,-1.350708,-0.827504,0.453191,-0.331427,0.110479,0.253688,-0.030267,-12.628073,7.279800,-17.286316,,,,,,,
1530639411.290501,-1.284212,-0.445875,-0.339588,1.496014,-4.969140,-0.567360,-0.865430,0.431247,-0.255039,0.349332,-0.274540,0.353809,-14.348654,6.938789,-16.019630,,,,,,,
1530639411.310470,-1.344954,-0.429010,-0.306651,1.721820,-3.025480,-0.529119,-0.886279,0.415970,-0.203633,0.073519,-0.755219,0.632344,-15.478142,6.273827,-15.311935,,,,,,,
1530639411.330439,-1.397609,-0.403924,-0.276327,1.601324,-3.606083,-1.170195,-0.905763,0.393030,-0.158454,-0.289931,0.309103,0.183616,-16.466307,5.510483,-14.582100,,,,,,,
1530639411.350407,-1.461112,-0.376209,-0.241339,1.849328,-3.945574,-1.096821,-0.924468,0.367397,-0.101808,-0.103731,0.085621,-0.040358,-17.539642,4.608772,-13.594177,,,,,,,
1530639411.370376,-1.526342,-0.355802,-0.211659,1.129083,-3.485230,-0.745030,-0.936434,0.348342,-0.041656,-0.110289,-0.086654,0.070297,-18.557423,4.029808,-12.380913,,,,,,,
1530639411.390344,-1.569978,-0.344663,-0.211645,-0.343211,-1.292431,-0.416770,-0.941181,0.337880,-0.000771,-0.359280,-0.395329,0.661186,-18.828690,3.746506,-12.052742,,,,,,,
1530639411.410313,-1.579087,-0.338888,-0.226814,-0.970942,0.331380,-0.379599,-0.943085,0.332439,0.007819,-0.382568,-0.339183,0.150781,-18.787373,4.158409,-11.922707,,,,,,,
1530639411.430282,-1.565240,-0.329802,-0.256074,-1.914750,1.838997,-0.286767,-0.946084,0.323856,-0.005257,-0.246543,-0.530277,0.405800,-18.322815,4.249283,-12.540466,,,,,,,
1530639411.450250,-1.549181,-0.319426,-0.300667,-1.664588,1.034086,-0.595300,-0.949186,0.314022,-0.020520,-0.486635,-0.240673,-0.298908,-18.044703,5.001938,-12.958298,,,,,,,
1530639411.470219,-1.545872,-0.295595,-0.322246,-0.508304,-0.134485,-1.676692,-0.956324,0.291309,-0.023841,-0.533361,-0.369297,-0.310052,-17.647615,4.993233,-13.119553,,,,,,,
1530639411.490187,-1.564690,-0.259629,-0.324650,0.032285,-1.433748,-1.709211,-0.966460,0.256722,-0.005901,-0.068483,-0.186303,-0.155567,-17.781288,4.797630,-12.858536,,,,,,,
1530639411.510156,-1.609786,-0.237067,-0.319350,0.540199,-2.668709,-0.822173,-0.971284,0.234853,0.037889,0.276460,0.009150,0.001402,-18.346746,4.816910,-11.934792,,,,,,,
1530639411.530125,-1.655626,-0.228051,-0.292427,1.626588,-2.583427,-0.435373,-0.970598,0.226080,0.082534,0.338106,0.370707,0.226640,-18.890873,4.551071,-11.162376,,,,,,,
1530639411.550093,-1.690979,-0.225422,-0.252398,2.005431,-1.845348,-0.229851,-0.967661,0.223518,0.116859,0.116037,0.265954,0.335228,-19.234203,4.233368,-10.488998,,,,,,,
1530639411.570062,-1.703704,-0.233911,-0.213098,1.817430,-0.705022,0.420445,-0.964180,0.231783,0.128907,0.123513,-0.007540,0.272841,-19.316818,3.944221,-9.978638,,,,,,,
1530639411.590030,-1.705259,-0.248089,-0.185605,1.180303,-0.262353,0.610565,-0.960625,0.245552,0.129952,-0.092201,0.353325,0.172676,-19.384464,4.326721,-10.004761,,,,,,,
1530639411.609999,-1.705869,-0.270120,-0.170718,0.777610,-0.171726,1.252706,-0.954953,0.266847,0.129778,0.180371,0.145980,-0.072649,-19.189342,4.720291,-9.866287,,,,,,,
1530639411.629968,-1.704317,-0.301209,-0.161648,0.540912,-0.093462,1.599651,-0.946471,0.296675,0.127130,-0.070207,0.126848,-0.244134,-19.159191,5.429573,-9.955139,,,,,,,
1530639411.649936,-1.703962,-0.335377,-0.159487,0.162650,0.164390,1.684741,-0.935918,0.329125,0.125374,-0.030040,0.223197,-0.265053,-18.805660,6.093063,-10.029953,,,,,,,
1530639411.669905,-1.693060,-0.366570,-0.168385,-0.429943,1.040947,1.546451,-0.926585,0.358416,0.113855,-0.028493,-0.038652,-0.169901,-18.594238,7.332565,-10.096443,,,,,,,
1530639411.689873,-1.669394,-0.395302,-0.186037,-0.765714,1.825906,1.551664,-0.918390,0.385086,0.090846,0.127802,0.128204,-0.238994,-17.889313,8.196999,-10.767815,,,,,,,
1530639411.709842,-1.631009,-0.428627,-0.208166,-0.926857,2.642833,1.874409,-0.907881,0.415622,0.054732,0.301070,0.240246,-0.220168,-17.070055,9.102493,-11.553848,,,,,,,
1530639411.729811,-1.585037,-0.469885,-0.232235,-1.066408,2.870902,2.264181,-0.891522,0.452784,0.012697,0.417676,0.245412,-0.174302,-15.844196,10.073189,-12.047539,,,,,,,
1530639411.749779,-1.536567,-0.523515,-0.257745,-1.190878,3.245685,2.987770,-0.865552,0.499928,-0.029639,0.402326,0.111400,-0.054971,-14.314257,11.356865,-12.927170,,,,,,,
1530639411.769748,-1.475825,-0.600709,-0.281684,-1.329948,3.947325,4.336477,-0.821210,0.565228,-0.078227,0.302442,-0.114773,0.075785,-12.538774,12.777832,-13.723175,,,,,,,
1530639411.789717,-1.398195,-0.708097,-0.301172,-1.587933,4.805434,5.732505,-0.748307,0.650389,-0.130457,0.119264,-0.302306,0.197245,-9.879456,14.546646,-14.172661,,,,,,,
1530639411.809685,-1.297821,-0.833918,-0.308388,-1.595143,5.492944,6.085336,-0.647091,0.740570,-0.181162,-0.115482,-0.287658,0.152445,-6.593674,16.021599,-14.397690,,,,,,,
1530639411.829654,-1.192905,-0.942204,-0.294278,-1.158522,3.821357,4.665151,-0.546512,0.808856,-0.216949,-0.579724,-0.103167,0.091628,-3.385096,16.831230,-14.403732,,,,,,,
1530639411.849622,-1.132735,-1.013778,-0.278701,-1.000798,1.676278,2.607162,-0.478732,0.848835,-0.224245,-0.739835,0.159527,0.117357,-1.230457,17.648521,-13.946999,,,,,,,
1530639411.869591,-1.135298,-1.046039,-0.302325,-1.406167,0.267853,0.526381,-0.454230,0.865446,-0.211350,-0.618554,0.159350,0.055619,-0.191029,18.313934,-13.542892,,,,,,,
1530639411.889560,-1.215715,-1.057939,-0.360423,-1.589461,-2.643607,-0.200765,-0.460050,0.871346,-0.170586,-0.080248,-0.046868,-0.329521,-0.238983,18.837196,-13.141151,,,,,,,
1530639411.909528,-1.329709,-1.052876,-0.411032,-0.760898,-3.448635,-0.839029,-0.480746,0.868850,-0.118200,0.233813,-0.060837,-0.465952,-0.953655,19.518753,-12.700470,,,,,,,
1530639411.929497,-1.395453,-1.044897,-0.428011,-0.130908,-2.311650,-0.063727,-0.494283,0.864873,-0.087568,0.377751,-0.011540,-0.356051,-1.443834,19.753822,-12.479179,,,,,,,
1530639411.949465,-1.433528,-1.057411,-0.418409,0.297023,-2.273578,0.955414,-0.486498,0.871087,-0.067203,0.362962,-0.051598,-0.246243,-1.512548,19.872772,-12.669716,,,,,,,
1530639411.969434,-1.466230,-1.076391,-0.399843,0.271763,-2.413869,0.970105,-0.471904,0.880251,-0.049526,0.235271,-0.109545,-0.240040,-1.484970,19.947075,-12.858772,,,,,,,
1530639411.989403,-1.474738,-1.094403,-0.384207,0.318937,-0.217830,0.917638,-0.456450,0.888655,-0.043981,-0.107088,-0.290083,0.121557,-1.168371,19.911087,-13.068893,,,,,,,
1530639412.009371,-1.448139,-1.109627,-0.371342,0.094099,1.105279,0.679430,-0.441640,0.895533,-0.054444,-0.314678,-0.180979,-0.050445,-0.403450,19.885719,-13.165909,,,,,,,
1530639412.029340,-1.416683,-1.119461,-0.363071,0.181041,1.049534,0.435571,-0.430985,0.899866,-0.066951,-0.422897,-0.175973,-0.098545,0.449898,20.122147,-13.296455,,,,,,,
1530639412.049309,-1.394409,-1.124039,-0.349252,0.270483,0.230089,0.161036,-0.425327,0.901853,-0.075810,-0.250912,-0.136731,0.100118,1.078392,19.884697,-13.634567,,,,,,,
1530639412.069277,-1.387335,-1.123771,-0.343576,-0.010819,0.025271,-0.059124,-0.425018,0.901737,-0.078861,-0.087571,-0.045612,0.284427,1.419834,19.890732,-14.009071,,,,,,,
1530639412.089246,-1.398114,-1.125717,-0.352879,-0.307817,-0.186382,0.230981,-0.424114,0.902576,-0.073974,-0.056431,-0.036228,0.203887,1.955338,20.043167,-14.060570,,,,,,,
1530639412.109214,-1.413503,-1.139565,-0.364531,-0.361034,-0.330813,0.845612,-0.412817,0.908452,-0.065474,-0.171305,-0.079823,0.050338,2.494934,20.211235,-14.280884,,,,,,,
1530639412.129183,-1.435595,-1.158889,-0.373240,-0.273417,-0.987077,0.919160,-0.396690,0.916359,-0.053962,-0.302987,-0.017494,-0.142815,2.728210,20.522530,-14.461746,,,,,,,
1530639412.149152,-1.466742,-1.175033,-0.376201,-0.101748,-1.685623,0.717675,-0.383413,0.922702,-0.040040,-0.434183,0.087841,-0.232497,3.052410,20.662971,-14.818825,,,,,,,
1530639412.169120,-1.514990,-1.186229,-0.380576,-0.173448,-2.609605,0.402287,-0.374558,0.926961,-0.020925,-0.446136,0.206477,-0.203273,2.828117,20.762527,-15.150284,,,,,,,
1530639412.189089,-1.607475,-1.186306,-0.398527,-0.463520,-4.632958,-0.240702,-0.374819,0.926990,0.013754,-0.397505,0.181943,-0.175283,1.925438,21.002853,-15.753319,,,,,,,
1530639412.209058,-1.753274,-1.176661,-0.432120,-0.750295,-6.338448,-0.395786,-0.377619,0.923329,0.069682,-0.181830,-0.046956,-0.131083,-0.130856,21.597000,-15.996826,,,,,,,
1530639412.229026,-1.909357,-1.169356,-0.458655,-0.713109,-6.797821,-0.057584,-0.368548,0.920499,0.129773,-0.239331,-0.106260,0.088672,-2.198187,21.802170,-16.167488,,,,,,,
1530639412.248995,-2.131169,-1.165222,-0.535225,-1.909336,-8.234328,0.842338,-0.334189,0.918876,0.209693,-0.279291,-0.132850,0.049447,-4.704571,22.648003,-15.736626,,,,,,,
1530639412.268963,-2.451514,-1.155292,-0.672242,-2.539700,-10.545829,1.815057,-0.256952,0.914913,0.311281,-0.248663,-0.114940,-0.081041,-7.465019,24.057587,-14.339737,,,,,,,
1530639412.288932,-2.820133,-1.137816,-0.831217,-2.063634,-11.456502,2.741750,-0.132561,0.907719,0.398068,-0.096733,-0.035207,-0.021054,-9.740385,25.024567,-11.964478,,,,,,,
1530639412.308901,3.140375,-1.132476,-0.953235,0.741518,-8.866705,1.650112,0.000517,0.905466,0.424402,0.043291,-0.086923,-0.051600,-11.456877,26.073708,-9.467262,,,,,,,
1530639412.328869,3.056302,-1.185679,-0.959091,2.960892,-1.247548,-0.518663,0.032001,0.926754,0.374285,-0.034869,0.146595,0.433134,-12.663916,26.391014,-9.398544,,,,,,,
1530639412.348838,3.088745,-1.234170,-0.949800,2.292728,1.599342,-0.311220,0.017446,0.943874,0.329824,0.136713,-0.307781,0.331797,-12.666754,25.655220,-10.976959,,,,,,,
1530639412.368807,3.118746,-1.279386,-0.937529,2.148346,0.279376,-0.190941,0.006563,0.957840,0.287206,0.145262,-0.452850,-0.246724,-12.616993,25.332993,-12.232254,,,,,,,
1530639412.388775,3.087180,-1.307347,-0.958671,0.634692,-0.470006,0.653127,0.014161,0.965497,0.260002,0.306258,0.201251,0.177498,-12.807964,25.120316,-13.325813,,,,,,,
1530639412.408744,2.955011,-1.291761,-1.095540,-0.984004,0.134063,2.772109,0.051088,0.961322,0.270625,0.566344,0.721372,0.380315,-12.297873,25.837494,-13.295647,,,,,,,
1530639412.428712,2.719384,-1.253457,-1.347061,-0.354289,0.315267,4.634270,0.127857,0.950069,0.284619,0.502590,1.036442,-0.525448,-10.410625,26.929207,-13.078468,,,,,,,
1530639412.448681,2.510871,-1.213802,-1.579163,0.460677,0.730097,3.832707,0.206075,0.936951,0.282208,-0.059743,0.804397,-0.626569,-7.236612,27.987434,-13.498062,,,,,,,
1530639412.468650,2.415828,-1.189040,-1.702533,0.357637,1.078473,1.669813,0.247253,0.928012,0.278652,-0.340362,0.304014,-0.385677,-5.903854,28.544823,-13.487305,,,,,,,
1530639412.488618,2.404225,-1.185006,-1.735327,0.227029,0.825718,0.073774,0.252984,0.926501,0.278533,-0.217446,-0.258975,-0.554854,-5.344353,28.954185,-13.656044,,,,,,,
1530639412.508587,2.427216,-1.195061,-1.721360,0.188309,0.245751,-0.822708,0.240398,0.930238,0.277223,-0.062969,-0.579622,-0.680345,-5.435354,29.081566,-13.567772,,,,,,,
1530639412.528556,2.461978,-1.210595,-1.680002,0.077766,-0.393397,-1.139538,0.221509,0.935826,0.274137,0.042621,-0.785267,-0.744352,-6.007143,28.992424,-13.929817,,,,,,,
1530639412.548524,2.490904,-1.223634,-1.637849,0.070927,-0.589961,-0.810389,0.206078,0.940342,0.270695,0.163368,-0.855625,-0.692509,-6.584011,28.921761,-13.862526,,,,,,,
1530639412.568493,2.496952,-1.233201,-1.615892,0.243741,-0.840407,-0.520075,0.199021,0.943554,0.264733,0.020202,-0.782268,-0.681176,-7.144251,28.965927,-13.819763,,,,,,,
1530639412.588462,2.490640,-1.248690,-1.600291,0.612241,-1.166309,-0.821096,0.191809,0.948571,0.251814,-0.230704,-0.613625,-0.677534,-7.926935,29.003448,-14.270996,,,,,,,
1530639412.608430,2.491481,-1.275884,-1.573974,0.980224,-1.192761,-1.323429,0.175914,0.956828,0.231350,-0.306804,-0.433665,-0.577099,-8.890839,28.429283,-14.667465,,,,,,,
1530639412.628399,2.510345,-1.311005,-1.536127,1.090671,-0.547929,-1.509154,0.151584,0.966443,0.207358,-0.213917,-0.175321,-0.333426,-9.900169,27.964523,-14.819389,,,,,,,
1530639412.648367,2.624469,-1.336417,-1.444130,-0.282470,2.952839,-1.799030,0.114802,0.972659,0.201850,-0.257289,0.231489,0.534020,-10.036484,27.442101,-15.642067,,,,,,,
1530639412.668336,3.021487,-1.289342,-1.204811,-5.262024,11.837034,-2.342644,0.033277,0.960653,0.275730,0.017626,1.099498,2.762020,-7.773006,28.517128,-15.676430,,,,,,,
1530639412.688305,-2.925803,-1.246610,-1.113307,-1.365694,7.547776,-0.374025,-0.068201,0.947910,0.311130,1.669534,1.818493,2.573055,-4.867392,29.065033,-15.632607,,,,,,,
1530639412.708273,-2.965426,-1.231815,-1.146768,-0.457082,-3.564986,0.486990,-0.058274,0.943094,0.327361,0.592896,0.766089,-0.278594,-4.979397,29.695717,-15.210617,,,,,,,
1530639412.728242,-3.084575,-1.234132,-1.160856,0.412489,-5.657999,0.124654,-0.018824,0.943862,0.329785,0.217677,0.037248,0.282153,-6.578510,30.318237,-14.586578,,,,,,,
1530639412.748211,3.083775,-1.273265,-1.181270,3.006788,-3.855276,0.476688,0.016939,0.956063,0.292650,0.126310,0.098975,-0.326769,-7.647820,29.956642,-15.273071,,,,,,,
1530639412.768179,2.940352,-1.356933,-1.286531,5.020311,-0.884955,0.906339,0.042418,0.977218,0.207928,0.086641,0.277741,-0.986004,-7.569124,28.493042,-17.432411,,,,,,,
1530639412.788148,2.622781,-1.447355,-1.632525,4.893807,2.251715,1.167643,0.061033,0.992391,0.106891,-0.029585,0.430766,-0.644245,-6.202341,27.079582,-19.781578,,,,,,,
1530639412.808117,2.082864,-1.483872,-2.237166,2.541842,3.237966,0.734795,0.075633,0.996225,0.042512,-0.072398,0.090751,-0.269104,-4.284283,26.020454,-21.415970,,,,,,,
1530639412.828085,1.762996,-1.486589,-2.611901,1.148583,2.300745,0.321272,0.082506,0.996457,0.016056,-0.039476,-0.337140,-0.321323,-2.743742,25.284836,-21.990761,,,,,,,
1530639412.848054,1.548423,-1.479607,-2.858841,1.080748,1.080333,0.568483,0.090990,0.995845,-0.002036,0.062513,-0.595821,-0.376794,-1.650194,25.137032,-22.139702,,,,,,,
1530639412.868023,1.325963,-1.459572,-3.086289,1.392220,-0.340097,0.987567,0.107644,0.993821,-0.026894,-0.029184,-0.655167,-0.381889,-1.171093,24.617867,-22.905212,,,,,,,
1530639412.887991,1.151217,-1.432722,3.043717,1.193352,-1.546714,0.842586,0.125668,0.990483,-0.056057,-0.232373,-0.410695,-0.328465,-1.267248,24.163116,-23.219360,,,,,,,
1530639412.907960,1.043583,-1.417137,2.972754,0.578737,-1.960602,0.221599,0.132248,0.988218,-0.076992,-0.400665,-0.150068,-0.252735,-1.854033,23.827812,-23.461205,,,,,,,
1530639412.927928,0.955518,-1.417841,2.917055,0.241178,-1.302529,-0.580525,0.124396,0.988325,-0.087924,-0.449667,0.016466,-0.242200,-2.628504,23.968536,-23.563881,,,,,,,
1530639412.947897,0.834833,-1.430668,2.796190,0.345240,0.839644,-1.306852,0.103499,0.990198,-0.093741,-0.374541,0.092169,-0.181955,-2.833225,24.135986,-23.321983,,,,,,,
1530639412.967866,0.658929,-1.444244,2.579443,0.612375,2.411143,-1.569597,0.077257,0.992003,-0.099765,-0.287554,0.121477,-0.151578,-2.225096,23.551399,-24.006058,,,,,,,
1530639412.987834,0.427486,-1.444373,2.288075,1.140764,3.132939,-1.570670,0.052260,0.992019,-0.114711,-0.250487,0.126572,-0.133092,-1.438824,23.159615,-24.341919,,,,,,,
1530639413.007803,0.215198,-1.427468,2.004025,1.515677,3.661252,-1.521431,0.030496,0.989746,-0.139517,-0.260415,0.089752,-0.017740,-0.069790,22.578445,-24.877388,,,,,,,
1530639413.027772,0.110467,-1.409411,1.791736,0.528392,7.217698,-1.420415,0.017712,0.987006,-0.159683,-0.263180,0.033075,0.823883,2.268108,22.268402,-24.949623,,,,,,,
1530639413.047740,0.126195,-1.415112,1.620216,-0.253439,9.701701,-1.410881,0.019512,0.987906,-0.153798,-0.075024,0.027048,0.672750,6.595612,22.107300,-23.993477,,,,,,,
1530639413.067709,0.118431,-1.419622,1.430238,0.094214,8.477596,-1.447454,0.017791,0.988595,-0.149520,-0.104980,0.042045,-0.120576,10.505455,22.499748,-22.121254,,,,,,,
1530639413.087678,0.106154,-1.417644,1.268414,0.274414,6.725819,-0.997297,0.016161,0.988295,-0.151672,-0.042467,-0.098143,-0.103439,13.646439,22.774841,-20.248421,,,,,,,
1530639413.107646,0.150402,-1.405401,1.221901,0.952201,2.660295,0.218326,0.024666,0.986353,-0.162762,0.194374,-0.268031,0.509426,15.505650,22.897110,-19.149513,,,,,,,
1530639413.127615,0.210246,-1.384477,1.274329,0.870657,-0.517331,0.780882,0.038656,0.982693,-0.181145,-0.028418,-0.135540,0.017434,16.258080,22.299843,-19.051834,,,,,,,
1530639413.147583,0.252772,-1.365927,1.345137,0.699822,-1.767932,0.928745,0.050874,0.979087,-0.196958,-0.145417,-0.089317,-0.009219,16.204758,22.115150,-19.591591,,,,,,,
1530639413.167552,0.271543,-1.347301,1.410861,0.745337,-2.519484,0.895515,0.059443,0.975129,-0.213503,-0.180415,-0.025895,0.026415,15.769047,21.652733,-20.124886,,,,,,,
1530639413.187521,0.266190,-1.327328,1.461860,0.842693,-2.847794,0.795828,0.063412,0.970508,-0.232567,-0.202969,-0.013034,0.101463,15.055054,21.368446,-21.612419,,,,,,,
1530639413.207489,0.242792,-1.306578,1.497075,0.917579,-2.871957,0.614798,0.062782,0.965297,-0.253484,-0.241615,0.061971,0.159902,14.196945,21.054230,-22.488693,,,,,,,
,,,,,,,,,,,,,,,,39.779227,-84.064353,292.788788,-1.000000,-1.000000,1530639413.189492,
1530639413.227458,0.207326,-1.286704,1.516376,0.891974,-2.508393,0.402201,0.057693,0.959916,-0.274274,-0.289352,0.138167,0.244809,13.397335,20.772446,-23.545044,,,,,,,
1530639413.247427,0.224929,-1.282553,1.537581,-0.367417,1.229464,0.303153,0.063400,0.958745,-0.277098,-0.401001,0.161495,1.547865,13.641098,20.659889,-23.502663,,,,,,,
