timestamp(unix),attitude_roll(radians),attitude_pitch(radians),attitude_yaw(radians),rotation_rate_x(radians/s),rotation_rate_y(radians/s),rotation_rate_z(radians/s),gravity_x(G),gravity_y(G),gravity_z(G),user_acc_x(G),user_acc_y(G),user_acc_z(G),magnetic_field_x(microteslas),magnetic_field_y(microteslas),magnetic_field_z(microteslas),latitude(degree),longitude(degree),altitude(meter),speed(m/s),course(degree),timestamp(unix),User Mark
,,,,,,,,,,,,,,,,39.778985,-84.063215,290.378017,1.160000,-1.000000,1530639486.000014,
,,,,,,,,,,,,,,,,39.778985,-84.063215,290.378017,1.160000,-1.000000,1530639494.000014,
1530639498.437970,0.034697,0.280508,-0.952885,-0.031191,0.116093,0.377213,0.033334,-0.276844,-0.960336,0.049949,0.079930,-0.166479,14.198256,4.707245,-47.929085,,,,,,,
1530639498.457938,0.034955,0.280383,-0.943817,-0.041354,0.160751,0.464894,0.033584,-0.276724,-0.960362,-0.024474,0.034948,0.014836,14.261732,4.537239,-48.128090,,,,,,,
1530639498.477907,0.034492,0.278866,-0.932131,-0.126478,0.108942,0.617629,0.033153,-0.275265,-0.960796,0.003728,0.000073,0.117016,14.332739,4.603401,-48.088509,,,,,,,
,,,,,,,,,,,,,,,,39.778985,-84.063215,290.378021,-1.000000,-1.000000,1530639498.487692,
1530639498.497876,0.030905,0.275772,-0.918032,-0.213095,-0.054970,0.698654,0.029732,-0.272290,-0.961756,-0.016945,-0.020633,0.174265,14.375349,4.878326,-47.917427,,,,,,,
,,,,,,,,,,,,,,,,39.778985,-84.063215,290.378021,-1.000000,-1.000000,1530639498.492676,
1530639498.517845,0.023469,0.270640,-0.902912,-0.315100,-0.227418,0.737734,0.022613,-0.267348,-0.963335,-0.025390,-0.059465,0.170366,14.307734,4.983414,-47.904121,,,,,,,
1530639498.537814,0.013920,0.263656,-0.886981,-0.390996,-0.270785,0.786866,0.013438,-0.260612,-0.965350,-0.035823,-0.069313,0.121936,13.843119,5.424690,-47.813499,,,,,,,
,,,,,,,,,,,,,,,,39.778985,-84.063215,290.378021,-1.000000,-1.000000,1530639498.531770,
,,,,,,,,,,,,,,,,39.778985,-84.063215,290.378021,-1.000000,-1.000000,1530639498.537175,
1530639498.557783,0.005173,0.255583,-0.869742,-0.417833,-0.173040,0.860969,0.005005,-0.252809,-0.967503,-0.042740,-0.074049,0.056157,13.793158,5.712326,-48.112511,,,,,,,
1530639498.577751,-0.001697,0.247789,-0.851318,-0.356303,-0.058521,0.899688,-0.001645,-0.245261,-0.969456,-0.047473,-0.075525,0.007389,13.699736,5.874023,-47.900856,,,,,,,
1530639498.597720,-0.006799,0.242922,-0.833455,-0.202854,-0.080362,0.858042,-0.006599,-0.240540,-0.970617,-0.034782,-0.077652,-0.092463,13.800261,5.943779,-47.883400,,,,,,,
1530639498.617689,-0.012552,0.239839,-0.816543,-0.114345,-0.052429,0.805462,-0.012192,-0.237547,-0.971300,-0.015854,-0.067232,-0.065688,13.756937,5.819893,-47.849815,,,,,,,
1530639498.637658,-0.016526,0.238511,-0.800374,-0.035527,0.010621,0.783355,-0.016057,-0.236256,-0.971558,-0.011653,-0.072612,-0.083862,13.817530,5.697639,-47.856071,,,,,,,
1530639498.657627,-0.019168,0.237692,-0.784548,-0.030203,0.084662,0.771794,-0.018627,-0.235460,-0.971706,-0.016834,-0.091841,-0.018254,13.805769,5.705070,-47.710854,,,,,,,
1530639498.677595,-0.021203,0.237035,-0.768595,-0.013580,0.073485,0.790975,-0.020608,-0.234822,-0.971820,0.004114,-0.098018,0.042605,13.980486,5.286430,-47.666679,,,,,,,
1530639498.697564,-0.024569,0.236779,-0.751928,0.014461,0.010310,0.825961,-0.023881,-0.234572,-0.971805,0.037095,-0.088273,0.066623,13.937876,5.155411,-47.711143,,,,,,,
1530639498.717533,-0.028136,0.236886,-0.734882,0.023814,0.037838,0.835701,-0.027347,-0.234676,-0.971689,0.028171,-0.089878,0.096750,14.126291,4.947304,-47.752342,,,,,,,
1530639498.737502,-0.030185,0.236932,-0.717777,0.023833,0.140536,0.830803,-0.029338,-0.234722,-0.971620,0.013835,-0.098729,0.113084,13.967543,5.223022,-47.445137,,,,,,,
1530639498.757471,-0.030698,0.237422,-0.701002,0.047044,0.187020,0.812444,-0.029832,-0.235198,-0.971490,0.012605,-0.098252,0.106743,14.192072,4.969490,-47.466881,,,,,,,
1530639498.777440,-0.030155,0.238175,-0.684579,0.055610,0.230226,0.789916,-0.029299,-0.235930,-0.971328,0.011218,-0.088243,0.113845,14.592970,4.682007,-47.206779,,,,,,,
1530639498.797408,-0.029601,0.239457,-0.669139,0.105357,0.197477,0.734222,-0.028752,-0.237175,-0.971041,0.022374,-0.076942,0.047854,14.743303,4.559959,-47.223808,,,,,,,
1530639498.817377,-0.028224,0.242301,-0.655035,0.175163,0.276349,0.659442,-0.027396,-0.239937,-0.970402,0.018637,-0.057670,0.007771,15.018118,4.259041,-46.962944,,,,,,,
1530639498.837346,-0.024579,0.246283,-0.642242,0.221756,0.377194,0.601187,-0.023835,-0.243801,-0.969532,0.002884,-0.060093,-0.017604,15.252172,3.954887,-46.836281,,,,,,,
1530639498.857315,-0.019213,0.250480,-0.630524,0.192787,0.419491,0.552091,-0.018613,-0.247869,-0.968615,-0.020206,-0.067866,-0.022215,15.791235,3.660461,-46.523613,,,,,,,
,,,,,,,,,,,,,,,,39.779329,-84.063510,291.091553,-1.000000,-1.000000,1530639498.822364,
1530639498.877284,-0.013980,0.253419,-0.619604,0.120665,0.394322,0.523616,-0.013533,-0.250716,-0.967966,-0.016328,-0.062730,-0.032385,16.005671,3.619545,-46.449013,,,,,,,
1530639498.897252,-0.008821,0.254668,-0.609625,0.023622,0.366056,0.465196,-0.008536,-0.251924,-0.967709,-0.008828,-0.084258,-0.025058,16.291189,3.502861,-46.261971,,,,,,,
1530639498.917221,-0.006277,0.253476,-0.599676,-0.116325,0.166960,0.528282,-0.006077,-0.250770,-0.968028,0.033604,-0.095375,-0.054006,16.432299,3.255135,-46.266838,,,,,,,
1530639498.937190,-0.007700,0.249683,-0.587471,-0.216760,0.074663,0.630289,-0.007461,-0.247097,-0.968962,0.002776,-0.034993,-0.159395,16.642107,3.135750,-46.202827,,,,,,,
1530639498.957159,-0.009211,0.245057,-0.574335,-0.229558,0.086630,0.656370,-0.008936,-0.242611,-0.970082,-0.019552,-0.008747,-0.238505,16.680460,3.275131,-46.044106,,,,,,,
1530639498.977128,-0.011183,0.240508,-0.560746,-0.208700,0.053404,0.671082,-0.010861,-0.238196,-0.971156,-0.016956,0.001837,-0.217808,16.657358,3.430237,-46.026619,,,,,,,
1530639498.997097,-0.013699,0.236803,-0.547963,-0.152567,0.004170,0.604459,-0.013317,-0.234596,-0.972002,-0.053013,0.025170,-0.180617,16.637980,3.508568,-46.137016,,,,,,,
1530639499.017065,-0.017245,0.234084,-0.536839,-0.119370,-0.065920,0.521800,-0.016774,-0.231952,-0.972583,-0.047359,0.031314,-0.139142,16.757193,3.369492,-46.242683,,,,,,,
1530639499.037034,-0.019870,0.231941,-0.527415,-0.072562,0.030687,0.437643,-0.019336,-0.229867,-0.973030,-0.063122,0.061319,-0.125038,16.657373,3.339088,-46.128548,,,,,,,
1530639499.057003,-0.017207,0.232689,-0.519734,0.137829,0.362409,0.348560,-0.016743,-0.230595,-0.972906,-0.104900,0.090016,-0.136607,16.843763,3.431717,-46.136421,,,,,,,
1530639499.076972,-0.006288,0.239342,-0.513725,0.460323,0.758046,0.270449,-0.006109,-0.237064,-0.971475,-0.079111,0.077228,-0.082724,17.482786,3.101402,-45.596504,,,,,,,
1530639499.096941,0.010760,0.252487,-0.508313,0.766370,1.000710,0.284538,0.010418,-0.249812,-0.968238,-0.022473,0.050685,-0.027581,18.397943,2.424255,-45.295845,,,,,,,
1530639499.116910,0.029633,0.269946,-0.502062,0.898904,0.995702,0.363989,0.028556,-0.266679,-0.963362,0.052438,0.062440,-0.015687,19.138876,1.810982,-45.135551,,,,,,,
1530639499.136878,0.045326,0.288102,-0.493206,0.870303,0.870918,0.530862,0.043443,-0.284133,-0.957800,0.128279,0.077468,-0.039362,19.898718,0.908676,-44.713219,,,,,,,
1530639499.156847,0.057871,0.304062,-0.481335,0.685721,0.769602,0.663918,0.055185,-0.299398,-0.952531,0.121664,0.087270,-0.094115,20.762972,0.042931,-44.504585,,,,,,,
1530639499.176816,0.068107,0.315357,-0.466744,0.417379,0.720316,0.779788,0.064699,-0.310156,-0.948482,0.089507,0.090276,-0.126073,21.301622,-0.386452,-44.321861,,,,,,,
1530639499.196785,0.075161,0.321132,-0.449799,0.116795,0.539878,0.866250,0.071252,-0.315641,-0.946200,0.058738,0.113722,-0.099882,21.705706,-0.798218,-44.221596,,,,,,,
1530639499.216754,0.076733,0.321944,-0.431603,-0.093758,0.267430,0.844526,0.072719,-0.316412,-0.945831,0.024021,0.138723,-0.077332,22.070017,-1.337051,-43.826637,,,,,,,
1530639499.236722,0.073154,0.320363,-0.417644,-0.115402,-0.078258,0.549736,0.069370,-0.314911,-0.946583,-0.040760,0.145340,-0.051174,22.102335,-1.326965,-43.816673,,,,,,,
1530639499.256691,0.066149,0.320944,-0.409158,0.087523,-0.296699,0.361014,0.062726,-0.315462,-0.946863,-0.019437,0.134447,-0.002448,22.003065,-1.305382,-44.015266,,,,,,,
1530639499.276660,0.057465,0.324916,-0.402849,0.216882,-0.340588,0.316281,0.054429,-0.319229,-0.946113,-0.059006,0.168121,0.073784,21.734583,-1.727158,-43.845451,,,,,,,
1530639499.296629,0.049466,0.329951,-0.395844,0.222595,-0.239503,0.384653,0.046779,-0.323997,-0.944901,-0.060252,0.187263,0.167328,21.626074,-2.099174,-43.964699,,,,,,,
1530639499.316598,0.042606,0.332875,-0.387541,0.054555,-0.196602,0.414692,0.040255,-0.326762,-0.944249,-0.071886,0.147578,0.211339,21.355539,-2.316002,-44.386681,,,,,,,
1530639499.336567,0.034775,0.331559,-0.379714,-0.162968,-0.310851,0.344202,0.032874,-0.325518,-0.944964,-0.105506,0.103411,0.210955,21.141100,-2.375343,-44.303932,,,,,,,
1530639499.356536,0.025195,0.325764,-0.374753,-0.376436,-0.445306,0.162480,0.023868,-0.320033,-0.947106,-0.131641,0.061213,0.181648,20.775595,-1.996323,-44.535927,,,,,,,
1530639499.376504,0.015001,0.316127,-0.374495,-0.540140,-0.528585,-0.078841,0.014257,-0.310888,-0.950340,-0.142172,0.050298,0.113685,20.349066,-1.558212,-44.673775,,,,,,,
1530639499.396473,0.006613,0.304457,-0.379547,-0.588452,-0.453979,-0.329266,0.006309,-0.299775,-0.953989,-0.172156,0.059968,0.011484,20.076094,-1.099579,-44.721214,,,,,,,
1530639499.416442,0.003257,0.293950,-0.389610,-0.468196,-0.218457,-0.550507,0.003117,-0.289735,-0.957102,-0.158818,0.070679,-0.078024,19.559210,-0.359261,-44.788155,,,,,,,
1530639499.436411,0.004705,0.286942,-0.402989,-0.275427,-0.086399,-0.659778,0.004512,-0.283020,-0.959103,-0.072658,0.084794,-0.113422,19.547911,0.250504,-44.768379,,,,,,,
1530639499.456380,0.005696,0.283375,-0.416542,-0.124732,-0.194916,-0.618767,0.005469,-0.279597,-0.960102,0.032175,0.094905,-0.131207,19.387465,0.830956,-44.704781,,,,,,,
1530639499.476349,0.002586,0.281590,-0.428680,-0.072809,-0.390793,-0.551239,0.002485,-0.277883,-0.960612,0.066378,0.097296,-0.133199,19.168291,0.986115,-44.698555,,,,,,,
1530639499.496317,-0.002951,0.280471,-0.440082,-0.045672,-0.433971,-0.534480,-0.002836,-0.276808,-0.960921,0.041288,0.085402,-0.116075,18.861814,1.194061,-44.974174,,,,,,,
1530639499.516286,-0.007096,0.280003,-0.451429,-0.007959,-0.301522,-0.533168,-0.006820,-0.276358,-0.961030,0.021712,0.068137,-0.077803,18.370237,1.523384,-45.131447,,,,,,,
1530639499.536255,-0.008093,0.280038,-0.462468,0.005502,-0.136055,-0.516338,-0.007777,-0.276393,-0.961013,0.021586,0.045130,-0.031540,18.324572,1.372559,-45.022301,,,,,,,
1530639499.556224,-0.007239,0.279629,-0.473366,-0.056322,-0.128268,-0.522109,-0.006958,-0.275999,-0.961133,0.033050,0.019880,0.017636,18.276930,1.609215,-45.191963,,,,,,,
1530639499.576193,-0.005883,0.278400,-0.487055,-0.039790,-0.112347,-0.749779,-0.005657,-0.274818,-0.961480,-0.059086,-0.003304,-0.028541,18.208399,1.839996,-45.029976,,,,,,,
1530639499.596163,-0.005735,0.276773,-0.503679,-0.092629,-0.239862,-0.825325,-0.005516,-0.273253,-0.961927,-0.012550,-0.041902,-0.059939,18.052565,2.272751,-44.999519,,,,,,,
1530639499.616131,-0.004075,0.275237,-0.523089,-0.064170,-0.118509,-0.974959,-0.003921,-0.271775,-0.962353,-0.084320,-0.003311,-0.101704,17.716619,2.625351,-45.278252,,,,,,,
1530639499.636100,0.002036,0.274977,-0.543934,0.025000,0.102311,-0.984553,0.001959,-0.271525,-0.962429,-0.064657,-0.002614,-0.105442,17.714144,2.986649,-45.049690,,,,,,,
1530639499.656069,0.010631,0.276779,-0.562885,0.132860,0.198418,-0.839639,0.010226,-0.273258,-0.961886,-0.017490,0.015110,-0.048795,17.763628,3.223061,-45.052284,,,,,,,
1530639499.676038,0.018027,0.279996,-0.578321,0.183969,0.128824,-0.675508,0.017324,-0.276352,-0.960900,0.024272,0.023025,0.030801,17.836367,3.654617,-45.127953,,,,,,,
1530639499.696007,0.022529,0.283577,-0.591270,0.194788,0.008968,-0.584524,0.021628,-0.279791,-0.959817,0.026743,0.006476,0.082895,18.084135,3.280350,-45.048500,,,,,,,
1530639499.715976,0.024330,0.286710,-0.603726,0.150861,-0.118997,-0.595455,0.023334,-0.282798,-0.958896,-0.015567,0.005790,0.092883,18.011457,3.175743,-45.040947,,,,,,,
1530639499.735945,0.024606,0.287625,-0.616674,0.000991,-0.179598,-0.604935,0.023593,-0.283675,-0.958630,-0.029849,0.009506,0.091443,17.619314,3.518036,-45.170784,,,,,,,
1530639499.755913,0.023729,0.285315,-0.627696,-0.154190,-0.204709,-0.478294,0.022767,-0.281460,-0.959303,0.037490,0.045727,0.049894,17.430273,4.109573,-45.360741,,,,,,,
1530639499.775882,0.022536,0.281330,-0.636910,-0.198833,-0.177600,-0.405427,0.021649,-0.277634,-0.960443,0.032001,0.068283,-0.006476,17.260855,4.346443,-45.157997,,,,,,,
1530639499.795851,0.020935,0.277749,-0.644201,-0.146147,-0.183812,-0.307878,0.020131,-0.274192,-0.961464,0.037745,0.073844,-0.067833,17.143389,4.523888,-45.124611,,,,,,,
1530639499.815820,0.018609,0.276499,-0.649921,-0.003988,-0.193082,-0.251194,0.017901,-0.272989,-0.961851,0.026304,0.088037,-0.113329,16.873503,4.812126,-45.271111,,,,,,,
1530639499.835789,0.015892,0.277877,-0.654874,0.108979,-0.230903,-0.214835,0.015282,-0.274315,-0.961519,0.017509,0.091285,-0.106612,16.675680,4.636177,-45.204155,,,,,,,
1530639499.855758,0.011888,0.280053,-0.659085,0.114971,-0.256555,-0.177270,0.011425,-0.276407,-0.960973,0.013081,0.089181,-0.053599,16.592695,4.480827,-45.281548,,,,,,,
1530639499.875727,0.008482,0.281503,-0.662644,0.065427,-0.199342,-0.147350,0.008148,-0.277800,-0.960604,0.006714,0.080000,0.011370,16.269976,4.567146,-45.399208,,,,,,,
1530639499.895696,0.005999,0.281247,-0.665528,-0.026045,-0.152039,-0.119181,0.005764,-0.277554,-0.960693,0.006504,0.064480,0.070663,16.033312,4.676208,-45.530083,,,,,,,
1530639499.915664,0.003903,0.279403,-0.668015,-0.094314,-0.142168,-0.106545,0.003752,-0.275781,-0.961213,0.004762,0.049356,0.092973,15.956018,4.735390,-45.631020,,,,,,,
1530639499.935633,0.000940,0.276832,-0.670491,-0.121496,-0.205023,-0.115186,0.000904,-0.273309,-0.961926,0.005352,0.046762,0.079129,15.909601,4.676285,-45.400826,,,,,,,
1530639499.955602,-0.002961,0.274203,-0.673144,-0.121416,-0.245807,-0.124011,-0.002850,-0.270780,-0.962637,0.008816,0.043286,0.053122,15.659555,4.964752,-45.375511,,,,,,,
1530639499.975571,-0.007151,0.271415,-0.676107,-0.143325,-0.244600,-0.137792,-0.006890,-0.268095,-0.963368,0.009255,0.035780,0.033635,15.427511,5.128807,-45.460899,,,,,,,
1530639499.995540,-0.010850,0.268393,-0.679090,-0.154950,-0.209340,-0.127792,-0.010461,-0.265183,-0.964141,0.010568,0.026520,0.013961,15.121424,5.429268,-45.658653,,,,,,,
1530639500.015509,-0.013701,0.265241,-0.681872,-0.158135,-0.155272,-0.124262,-0.013221,-0.262142,-0.964939,0.014305,0.021740,-0.004788,15.020407,5.320114,-45.554970,,,,,,,
1530639500.035478,-0.015206,0.262289,-0.684678,-0.142447,-0.087962,-0.120870,-0.014686,-0.259292,-0.965687,0.018241,0.019851,-0.013790,15.012915,5.341774,-45.529045,,,,,,,
1530639500.055446,-0.015120,0.260005,-0.687189,-0.092291,0.022279,-0.101458,-0.014611,-0.257086,-0.966278,0.029153,0.022863,-0.028625,14.860178,5.795158,-45.329842,,,,,,,
1530639500.075415,-0.012292,0.258772,-0.688558,-0.045726,0.185142,-0.028910,-0.011882,-0.255894,-0.966632,0.028560,0.016331,-0.024839,15.092867,5.855957,-45.387749,,,,,,,
1530639500.095384,-0.007522,0.258307,-0.688041,0.004839,0.253987,0.070111,-0.007272,-0.255444,-0.966796,0.053064,0.013150,-0.033341,15.249823,5.889015,-45.391609,,,,,,,
1530639500.115353,-0.005709,0.258491,-0.686765,-0.043350,0.069659,0.068657,-0.005519,-0.255622,-0.966761,0.015666,-0.002816,-0.047063,15.369047,5.747589,-45.318977,,,,,,,
1530639500.135322,-0.000694,0.251922,-0.683378,-0.473030,0.407213,0.284097,-0.000672,-0.249266,-0.968435,0.090974,0.029158,0.054464,15.614134,6.155930,-45.386986,,,,,,,
1530639500.155291,0.005270,0.241832,-0.672774,-0.463237,0.398215,0.626921,0.005117,-0.239482,-0.970887,0.112086,-0.009313,-0.041838,15.908068,6.352272,-45.248314,,,,,,,
1530639500.175260,0.008988,0.235070,-0.659811,-0.288074,0.309860,0.624627,0.008740,-0.232911,-0.972459,0.086810,-0.022155,-0.057952,16.349081,6.387268,-44.887657,,,,,,,
1530639500.195229,0.010880,0.230169,-0.647271,-0.195837,0.166257,0.633737,0.010593,-0.228142,-0.973570,0.069913,0.049843,-0.024507,16.731245,6.342262,-45.076118,,,,,,,
1530639500.215197,0.006611,0.232336,-0.631575,0.260578,-0.168901,0.868837,0.006433,-0.230251,-0.973110,0.113409,0.001354,-0.113148,16.718031,6.238815,-45.098183,,,,,,,
1530639500.235166,-0.001717,0.240926,-0.615797,0.487805,-0.216060,0.653723,-0.001667,-0.238602,-0.971116,0.013111,-0.042312,-0.061599,16.563215,5.682114,-45.326622,,,,,,,
1530639500.255135,-0.007119,0.248676,-0.608785,0.296585,-0.211641,0.183389,-0.006900,-0.246121,-0.969215,-0.048810,0.019818,0.062888,16.360735,5.169617,-45.173210,,,,,,,
1530639500.275104,-0.011314,0.251446,-0.609044,0.074296,-0.205349,-0.077370,-0.010958,-0.248805,-0.968492,-0.066541,-0.005849,0.075608,16.150408,5.164398,-45.097404,,,,,,,
1530639500.295073,-0.015465,0.251773,-0.610978,0.017698,-0.283695,-0.079303,-0.014977,-0.249122,-0.968356,0.024468,0.018439,0.030093,16.050554,4.820663,-45.613609,,,,,,,
1530639500.315042,-0.020880,0.252549,-0.613170,0.039920,-0.298991,-0.103340,-0.020216,-0.249873,-0.968068,0.012403,0.029429,0.010838,15.644545,5.159538,-45.508385,,,,,,,
1530639500.335011,-0.026063,0.253473,-0.615166,0.045949,-0.263884,-0.071958,-0.025227,-0.250768,-0.967718,0.005665,0.007070,0.020636,15.468748,5.072670,-45.229332,,,,,,,
1530639500.354980,-0.031298,0.254396,-0.615716,0.045206,-0.247952,0.018721,-0.030286,-0.251661,-0.967341,0.005567,0.003049,0.007014,15.227289,5.025528,-45.464439,,,,,,,
1530639500.374948,-0.035775,0.255193,-0.614831,0.030250,-0.206225,0.051439,-0.034609,-0.252432,-0.966995,-0.024946,0.007513,-0.016922,15.054575,4.943420,-45.568596,,,,,,,
1530639500.394917,-0.039455,0.255317,-0.612787,0.003159,-0.121943,0.156752,-0.038166,-0.252552,-0.966830,-0.010952,0.004322,-0.026181,14.923147,5.006264,-45.735069,,,,,,,
1530639500.414886,-0.041700,0.254881,-0.608905,-0.023531,-0.028487,0.212492,-0.040341,-0.252131,-0.966852,-0.026370,0.010019,-0.023337,14.721888,4.991631,-45.573753,,,,,,,
1530639500.434855,-0.042301,0.253848,-0.604530,-0.055196,0.049740,0.235856,-0.040933,-0.251131,-0.967087,-0.026328,0.011232,-0.014434,14.824472,4.992294,-45.667381,,,,,,,
1530639500.454824,-0.042190,0.252383,-0.599548,-0.060630,0.076078,0.258693,-0.040841,-0.249712,-0.967458,-0.011298,0.012636,-0.005518,14.836813,5.037613,-45.656639,,,,,,,
1530639500.474793,-0.042001,0.251153,-0.594666,-0.039488,0.072903,0.237958,-0.040672,-0.248521,-0.967772,-0.009774,0.013520,-0.003328,14.985323,5.022446,-45.769585,,,,,,,
1530639500.494762,-0.042020,0.250557,-0.590165,-0.006815,0.055367,0.218110,-0.040696,-0.247944,-0.967919,-0.003951,0.006092,-0.004310,14.990046,4.951874,-45.627861,,,,,,,
1530639500.514731,-0.042513,0.250341,-0.586116,0.004923,0.016892,0.194070,-0.041176,-0.247735,-0.967952,0.001335,0.006890,-0.006901,15.145418,4.807831,-45.483589,,,,,,,
1530639500.534699,-0.043468,0.250513,-0.582645,0.025076,-0.013835,0.166743,-0.042098,-0.247901,-0.967870,0.001922,0.002951,-0.012614,15.195894,4.598030,-45.713722,,,,,,,
1530639500.554668,-0.045025,0.250919,-0.579693,0.030550,-0.051182,0.139545,-0.043601,-0.248294,-0.967703,0.002280,0.000369,-0.015177,14.997984,4.964844,-45.557167,,,,,,,
1530639500.574637,-0.046930,0.251484,-0.577225,0.040143,-0.069824,0.121018,-0.045437,-0.248841,-0.967478,0.003140,-0.002273,-0.005072,14.935305,4.811180,-45.652428,,,,,,,
1530639500.594606,-0.049444,0.252281,-0.575243,0.048798,-0.114869,0.089430,-0.047859,-0.249613,-0.967162,0.006904,-0.015112,-0.000596,14.778708,4.663010,-45.422935,,,,,,,
1530639500.614575,-0.052263,0.253350,-0.574058,0.060682,-0.127828,0.047182,-0.050572,-0.250648,-0.966756,-0.006191,-0.010948,0.012670,14.752058,4.601555,-45.650658,,,,,,,
1530639500.634544,-0.055392,0.254429,-0.574078,0.052829,-0.183676,-0.017722,-0.053582,-0.251693,-0.966323,-0.015098,0.000671,0.020751,14.564421,4.754051,-45.510902,,,,,,,
1530639500.654513,-0.059922,0.255340,-0.575480,0.036594,-0.281477,-0.081650,-0.057945,-0.252575,-0.965841,-0.011971,-0.002034,0.033636,14.316690,4.579590,-45.650703,,,,,,,
1530639500.674482,-0.067725,0.256179,-0.578712,0.038543,-0.554531,-0.185448,-0.065465,-0.253386,-0.965147,-0.036800,0.030196,0.014418,14.014692,4.750488,-45.743279,,,,,,,
1530639500.694450,-0.079288,0.257832,-0.583104,0.086007,-0.690119,-0.215728,-0.076586,-0.254985,-0.963907,0.024066,-0.011311,0.030802,13.408228,4.441605,-45.830299,,,,,,,
1530639500.714419,-0.094014,0.260150,-0.587963,0.098844,-0.866564,-0.242602,-0.090716,-0.257225,-0.962084,0.028598,-0.018425,0.025225,12.879660,4.492096,-45.950798,,,,,,,
1530639500.734388,-0.110672,0.262599,-0.593237,0.093832,-0.912739,-0.269734,-0.106660,-0.259591,-0.959810,0.050950,0.009103,0.034304,11.974676,4.411079,-45.981346,,,,,,,
1530639500.754357,-0.127001,0.265206,-0.599566,0.101603,-0.877044,-0.323574,-0.122232,-0.262108,-0.957266,0.020166,0.018593,0.016440,11.020010,4.402481,-46.261742,,,,,,,
1530639500.774326,-0.141836,0.268773,-0.606101,0.162419,-0.787638,-0.324867,-0.136286,-0.265549,-0.954416,0.008920,0.025986,-0.018393,10.188356,4.373055,-46.263893,,,,,,,
1530639500.794295,-0.153319,0.274659,-0.612652,0.324210,-0.574346,-0.366547,-0.146995,-0.271219,-0.951227,-0.032525,0.026834,-0.052847,9.697149,4.152802,-46.670860,,,,,,,
1530639500.814264,-0.158845,0.286119,-0.620401,0.601962,-0.329661,-0.483730,-0.151747,-0.282232,-0.947269,-0.097978,0.024678,-0.159970,9.277071,3.857430,-46.510262,,,,,,,
1530639500.834233,-0.161046,0.300958,-0.627928,0.713745,-0.140151,-0.436555,-0.153143,-0.296435,-0.942695,-0.067209,0.005679,-0.136437,8.865385,3.519310,-46.613609,,,,,,,
1530639500.854201,-0.159902,0.315840,-0.633120,0.670530,0.043172,-0.285294,-0.151346,-0.310615,-0.938410,-0.066382,-0.023949,-0.089300,9.030134,2.814110,-46.615044,,,,,,,
1530639500.874170,-0.157042,0.326808,-0.634001,0.447107,0.192677,-0.024422,-0.148119,-0.321022,-0.935417,-0.018705,-0.045113,-0.023979,8.965921,2.432335,-46.641762,,,,,,,
1530639500.894139,-0.152542,0.331100,-0.631191,0.117226,0.319461,0.174920,-0.143698,-0.325083,-0.934704,0.000372,-0.032308,0.048916,9.288809,2.129929,-46.457954,,,,,,,
1530639500.914108,-0.147379,0.329407,-0.626140,-0.117568,0.346342,0.289718,-0.138951,-0.323482,-0.935977,0.001164,-0.011937,0.041522,9.832663,1.701988,-46.730751,,,,,,,
1530639500.934077,-0.142359,0.324918,-0.620179,-0.200721,0.363771,0.327360,-0.134455,-0.319231,-0.938090,-0.012182,-0.005186,0.016444,10.017176,1.838867,-46.437263,,,,,,,
1530639500.954046,-0.136742,0.319920,-0.614731,-0.217012,0.368609,0.267157,-0.129400,-0.314491,-0.940399,-0.021922,-0.003853,0.017441,10.352114,2.175400,-46.348900,,,,,,,
1530639500.974015,-0.131361,0.315280,-0.612161,-0.216557,0.292598,0.084515,-0.124528,-0.310082,-0.942519,-0.052734,-0.000052,0.016860,10.671106,2.340500,-46.295067,,,,,,,
1530639500.993984,-0.125112,0.311731,-0.613219,-0.174426,0.306878,-0.066854,-0.118771,-0.306707,-0.944365,-0.039813,-0.004741,0.037092,11.098768,2.401588,-46.241142,,,,,,,
1530639501.013953,-0.119402,0.308873,-0.615602,-0.154320,0.217592,-0.086912,-0.113481,-0.303985,-0.945894,0.001039,-0.009903,0.021318,11.171659,2.638054,-46.175743,,,,,,,
1530639501.033921,-0.115972,0.306065,-0.617563,-0.155545,0.109241,-0.062617,-0.110335,-0.301309,-0.947122,0.015105,-0.005744,0.013192,11.440886,2.676338,-46.057503,,,,,,,
1530639501.053890,-0.114419,0.302818,-0.619456,-0.178536,0.051905,-0.071281,-0.108975,-0.298211,-0.948259,0.006192,-0.007270,0.004747,11.409849,2.867050,-46.059120,,,,,,,
1530639501.073859,-0.113005,0.299705,-0.621910,-0.160475,0.043263,-0.099554,-0.107738,-0.295239,-0.949330,-0.009449,-0.010471,-0.025722,11.500834,2.951180,-46.068199,,,,,,,
1530639501.093828,-0.112068,0.297215,-0.624424,-0.130122,-0.002063,-0.091471,-0.106930,-0.292858,-0.950158,-0.004505,-0.012608,-0.029288,11.512606,3.211266,-46.170448,,,,,,,
1530639501.113797,-0.112201,0.295195,-0.626350,-0.108350,-0.045344,-0.059554,-0.107123,-0.290927,-0.950729,0.002142,-0.009549,-0.015610,11.457441,3.365730,-46.094978,,,,,,,
1530639501.133766,-0.112893,0.293266,-0.627563,-0.104438,-0.052207,-0.025121,-0.107844,-0.289080,-0.951211,0.003870,-0.010846,-0.008079,11.546759,3.346016,-46.182304,,,,,,,
1530639501.153735,-0.113702,0.291233,-0.628249,-0.102456,-0.037954,-0.011049,-0.108679,-0.287134,-0.951705,-0.000955,-0.011053,-0.004563,11.530329,3.471893,-46.128487,,,,,,,
1530639501.173704,-0.113567,0.289621,-0.628901,-0.069888,0.018395,-0.019752,-0.108603,-0.285589,-0.952179,-0.008722,-0.009317,-0.019699,11.443819,3.466408,-46.016060,,,,,,,
1530639501.193672,-0.112718,0.288981,-0.629719,-0.021586,0.031682,-0.027751,-0.107815,-0.284975,-0.952452,-0.004444,-0.008375,-0.028246,11.574324,3.542366,-46.247078,,,,,,,
1530639501.213641,-0.112190,0.289134,-0.630471,0.016164,0.014003,-0.027162,-0.107308,-0.285122,-0.952465,0.004281,-0.002308,-0.021457,11.479628,3.705070,-46.005592,,,,,,,
1530639501.233610,-0.111977,0.289858,-0.631081,0.043426,-0.001466,-0.026449,-0.107081,-0.285816,-0.952283,0.010203,-0.000622,-0.012210,11.493238,3.597443,-45.892952,,,,,,,
1530639501.253579,-0.111951,0.291005,-0.631710,0.060243,-0.008064,-0.030974,-0.107020,-0.286915,-0.951959,0.009456,-0.003979,-0.010733,11.537378,3.427765,-46.058632,,,,,,,
1530639501.273548,-0.111841,0.292373,-0.632490,0.065529,0.001907,-0.036373,-0.106871,-0.288226,-0.951580,0.007094,-0.005674,-0.010899,11.492250,3.527908,-45.656181,,,,,,,
1530639501.293517,-0.111711,0.293489,-0.633331,0.045622,-0.005800,-0.038355,-0.106712,-0.289294,-0.951274,0.013847,-0.006010,-0.007192,11.473761,3.495438,-45.967003,,,,,,,
1530639501.313486,-0.111423,0.294205,-0.634177,0.028802,0.011837,-0.033780,-0.106415,-0.289979,-0.951098,0.011612,-0.007964,-0.000287,11.250074,3.689262,-46.045067,,,,,,,
1530639501.333455,-0.111092,0.294770,-0.634857,0.024555,0.002962,-0.027307,-0.106082,-0.290520,-0.950971,0.007769,-0.005424,-0.002566,11.322981,3.579468,-46.019173,,,,,,,
1530639501.353424,-0.110819,0.295370,-0.635385,0.033905,0.012820,-0.016571,-0.105803,-0.291094,-0.950826,0.004851,-0.006620,-0.003565,11.410189,3.531319,-45.932808,,,,,,,
1530639501.373392,-0.110142,0.296492,-0.635857,0.069628,0.037156,-0.025461,-0.105124,-0.292167,-0.950572,-0.003244,-0.005334,-0.013326,11.520864,3.339294,-46.049797,,,,,,,
1530639501.393361,-0.108655,0.298572,-0.636603,0.118018,0.081433,-0.045179,-0.103644,-0.294156,-0.950121,-0.016198,-0.008472,-0.029142,11.598146,3.087700,-46.130089,,,,,,,
1530639501.413330,-0.106513,0.301415,-0.637337,0.148352,0.108963,-0.036745,-0.101519,-0.296872,-0.949506,-0.013548,-0.006015,-0.043445,11.627878,3.108925,-46.117302,,,,,,,
1530639501.433299,-0.103849,0.304671,-0.637525,0.171192,0.139671,-0.008794,-0.098888,-0.299980,-0.948806,-0.015110,-0.003838,-0.048798,11.757551,2.934578,-46.376045,,,,,,,
1530639501.453268,-0.101355,0.308336,-0.637106,0.196152,0.125136,0.016749,-0.096410,-0.303474,-0.947950,-0.013575,-0.005685,-0.047518,11.972986,2.641174,-46.194389,,,,,,,
1530639501.473237,-0.099525,0.312261,-0.636176,0.203336,0.095187,0.037025,-0.094556,-0.307211,-0.946932,-0.005557,-0.001139,-0.021604,12.032866,2.625069,-46.209251,,,,,,,
1530639501.493206,-0.098865,0.315731,-0.635127,0.161364,0.036663,0.041502,-0.093825,-0.310511,-0.945928,-0.000123,0.005228,0.006124,11.923777,2.598907,-46.201881,,,,,,,
1530639501.513175,-0.098441,0.317935,-0.634337,0.093342,0.047845,0.023949,-0.093356,-0.312606,-0.945284,-0.005063,0.005126,0.036120,12.171469,2.316917,-46.198494,,,,,,,
1530639501.533144,-0.096959,0.319179,-0.634346,0.052728,0.095576,-0.012059,-0.091918,-0.313787,-0.945034,-0.014161,0.009909,0.030330,12.200308,2.555214,-46.235085,,,,,,,
1530639501.553112,-0.094477,0.320083,-0.635074,0.044558,0.127785,-0.039858,-0.089545,-0.314645,-0.944976,-0.010278,0.007180,0.027206,12.340033,2.462791,-46.105141,,,,,,,
1530639501.573081,-0.091620,0.321105,-0.636149,0.049900,0.122346,-0.051805,-0.086816,-0.315615,-0.944907,-0.000709,0.004000,0.020057,12.449789,2.329475,-46.191780,,,,,,,
1530639501.593050,-0.089342,0.322049,-0.637377,0.035286,0.084870,-0.059385,-0.084636,-0.316511,-0.944805,0.004665,0.001463,0.021328,12.563562,2.491417,-46.128578,,,,,,,
1530639501.613019,-0.087782,0.322671,-0.638859,0.019649,0.051833,-0.070164,-0.083145,-0.317101,-0.944740,-0.001786,0.008690,0.013862,12.632608,2.216576,-46.262093,,,,,,,
1530639501.632988,-0.086357,0.322895,-0.640279,-0.006710,0.057239,-0.052599,-0.081792,-0.317313,-0.944787,0.006979,0.008521,0.023126,12.696669,2.234589,-45.927422,,,,,,,
1530639501.652957,-0.085188,0.322105,-0.641386,-0.067638,0.036191,-0.039108,-0.080709,-0.316564,-0.945131,0.016179,0.001135,0.040270,12.823854,2.191940,-46.154778,,,,,,,
1530639501.672926,-0.085109,0.319711,-0.642597,-0.163011,-0.043226,-0.043865,-0.080698,-0.314292,-0.945890,0.023340,-0.002892,0.042112,12.617643,2.382690,-46.079872,,,,,,,
1530639501.692895,-0.085711,0.315775,-0.644672,-0.222371,-0.060523,-0.094003,-0.081373,-0.310553,-0.947067,0.002516,0.003440,0.021209,12.506388,2.669090,-45.856636,,,,,,,
1530639501.712864,-0.086381,0.311593,-0.647523,-0.212753,-0.089077,-0.115820,-0.082119,-0.306575,-0.948298,-0.002247,0.011760,-0.011053,12.587221,2.654427,-46.119057,,,,,,,
1530639501.732833,-0.087879,0.308234,-0.650475,-0.163450,-0.136556,-0.116575,-0.083630,-0.303376,-0.949194,0.007641,0.008118,-0.022837,12.405588,2.965919,-46.080956,,,,,,,
1530639501.752802,-0.090211,0.306148,-0.653655,-0.099233,-0.182742,-0.145517,-0.085900,-0.301388,-0.949624,0.003060,0.006405,-0.023230,12.153101,3.306152,-46.078102,,,,,,,
1530639501.772770,-0.093787,0.305068,-0.657442,-0.059065,-0.261978,-0.183003,-0.089326,-0.300358,-0.949635,0.005158,0.000126,-0.018795,11.797464,3.396553,-46.069969,,,,,,,
1530639501.792739,-0.098042,0.304896,-0.662445,-0.009127,-0.316647,-0.261452,-0.093370,-0.300194,-0.949297,-0.016813,-0.006538,-0.022657,11.728456,3.488365,-46.068016,,,,,,,
1530639501.812708,-0.104162,0.305454,-0.668977,-0.001241,-0.458617,-0.324773,-0.099161,-0.300726,-0.948541,0.006006,-0.008875,-0.024878,11.353716,3.512230,-46.218132,,,,,,,
1530639501.832677,-0.113117,0.305674,-0.676750,-0.048934,-0.632585,-0.387663,-0.107643,-0.300936,-0.947550,0.020332,-0.008100,-0.009298,10.709135,3.566948,-46.117348,,,,,,,
1530639501.852646,-0.123725,0.304796,-0.686159,-0.128036,-0.680637,-0.459306,-0.117722,-0.300098,-0.946616,0.015137,-0.003445,0.000068,10.348024,3.769150,-46.215950,,,,,,,
1530639501.872615,-0.133738,0.302461,-0.697452,-0.217496,-0.664533,-0.548873,-0.127287,-0.297870,-0.946082,-0.001345,0.001194,-0.002816,9.379831,4.024521,-46.372948,,,,,,,
1530639501.892584,-0.142159,0.299338,-0.710810,-0.250430,-0.594436,-0.626913,-0.135380,-0.294888,-0.945893,-0.010997,-0.005146,-0.008636,8.891531,4.245598,-46.376183,,,,,,,
1530639501.912553,-0.149914,0.296820,-0.725129,-0.199791,-0.629527,-0.663214,-0.142822,-0.292481,-0.945546,-0.012543,0.002747,-0.021861,8.212797,4.561005,-46.368141,,,,,,,
1530639501.932522,-0.159666,0.296167,-0.740305,-0.090334,-0.700993,-0.710024,-0.152067,-0.291856,-0.944296,-0.013293,0.009614,-0.055093,7.733786,4.537674,-46.734734,,,,,,,
1530639501.952491,-0.170268,0.298097,-0.754241,0.021272,-0.803115,-0.634056,-0.161973,-0.293702,-0.942074,0.026368,-0.012497,-0.045993,7.018839,4.614288,-46.491402,,,,,,,
1530639501.972460,-0.186147,0.301659,-0.767645,0.095911,-1.019391,-0.650991,-0.176717,-0.297105,-0.938350,0.004506,0.059678,-0.021596,6.250353,4.461838,-46.625008,,,,,,,
1530639501.992429,-0.203122,0.305968,-0.778134,0.125461,-0.965815,-0.418088,-0.192359,-0.301216,-0.933952,0.100089,-0.029045,0.030830,5.114836,4.526253,-46.499275,,,,,,,
1530639502.012397,-0.217418,0.309747,-0.782170,0.171112,-0.651146,-0.108604,-0.205443,-0.304818,-0.929989,0.092253,0.019631,0.009167,4.349615,4.573128,-46.509804,,,,,,,
1530639502.032366,-0.226849,0.313670,-0.781349,0.221153,-0.345362,0.048724,-0.213934,-0.308552,-0.926838,0.042944,0.040134,-0.042630,3.863329,4.488266,-46.684746,,,,,,,
1530639502.052335,-0.231157,0.317566,-0.780861,0.192527,-0.129427,-0.046996,-0.217648,-0.312256,-0.924730,-0.028980,-0.016144,0.003557,3.711069,4.038544,-46.618980,,,,,,,
1530639502.072304,-0.233287,0.320959,-0.781392,0.135944,-0.143726,-0.051850,-0.219371,-0.315477,-0.923228,0.000865,-0.014724,0.014217,3.765512,3.834160,-46.479317,,,,,,,
1530639502.092273,-0.237091,0.322772,-0.781255,0.071400,-0.197188,0.019758,-0.222747,-0.317197,-0.921830,0.056426,-0.012393,0.033600,3.492842,3.909241,-46.585335,,,,,,,
1530639502.112242,-0.242788,0.324429,-0.780547,0.130229,-0.311947,0.009950,-0.227869,-0.318767,-0.920034,0.031229,0.002468,-0.010798,3.232342,3.830589,-46.781624,,,,,,,
1530639502.132211,-0.249887,0.328963,-0.779781,0.289992,-0.352540,-0.034011,-0.234034,-0.323062,-0.916984,0.019465,-0.005063,-0.059777,2.929819,3.660858,-46.812355,,,,,,,
1530639502.152180,-0.257371,0.336083,-0.779508,0.364960,-0.374211,-0.096391,-0.240298,-0.329792,-0.912959,0.007068,-0.004711,-0.052724,2.633804,3.208839,-46.451469,,,,,,,
1530639502.172149,-0.266013,0.343715,-0.780419,0.361130,-0.505289,-0.137967,-0.247510,-0.336987,-0.908393,0.045560,-0.008960,-0.013009,2.201790,2.786591,-46.567863,,,,,,,
1530639502.192118,-0.276730,0.351796,-0.781140,0.414625,-0.573750,-0.137788,-0.256479,-0.344584,-0.903039,0.050333,0.017314,-0.019202,1.687717,2.540352,-46.427238,,,,,,,
1530639502.212087,-0.287911,0.361742,-0.782091,0.495936,-0.588755,-0.206675,-0.265573,-0.353904,-0.896785,-0.005041,0.025291,-0.064214,1.112900,2.373680,-46.452721,,,,,,,
1530639502.232056,-0.300362,0.373713,-0.785911,0.563756,-0.736342,-0.418424,-0.275444,-0.365075,-0.889298,-0.042732,0.054269,-0.084900,0.352249,1.928329,-46.181664,,,,,,,
1530639502.252025,-0.313878,0.387777,-0.792197,0.601161,-0.819672,-0.502268,-0.285826,-0.378132,-0.880523,0.036512,0.014072,-0.042649,-0.216211,1.193031,-46.226921,,,,,,,
1530639502.271993,-0.326820,0.402167,-0.799394,0.562896,-0.760687,-0.569523,-0.295419,-0.391414,-0.871506,0.008356,0.026774,-0.033508,-0.988832,0.395561,-45.987373,,,,,,,
1530639502.291962,-0.336689,0.416045,-0.809827,0.474056,-0.680021,-0.736435,-0.302182,-0.404146,-0.863338,-0.058048,0.047853,-0.034810,-1.590496,-0.122566,-46.091682,,,,,,,
1530639502.311931,-0.343891,0.426398,-0.822310,0.160759,-0.561349,-0.641928,-0.306965,-0.413594,-0.857154,-0.028927,0.003209,0.033149,-2.215303,-0.219414,-45.956825,,,,,,,
1530639502.331900,-0.349336,0.426547,-0.832594,-0.308718,-0.465327,-0.297800,-0.311606,-0.413730,-0.855412,0.094748,-0.070264,0.123844,-2.756273,-0.375183,-45.850578,,,,,,,
1530639502.351869,-0.357433,0.418437,-0.837099,-0.481745,-0.541913,0.089784,-0.319686,-0.406333,-0.855976,0.184783,-0.060158,0.056827,-3.422056,0.199722,-45.497231,,,,,,,
1530639502.371838,-0.371256,0.408816,-0.837607,-0.423482,-0.754313,0.151773,-0.332890,-0.397523,-0.855079,0.026814,0.050767,-0.012307,-4.025574,0.608994,-45.450737,,,,,,,
1530639502.391807,-0.386250,0.401394,-0.838307,-0.311908,-0.731913,0.099998,-0.346774,-0.390702,-0.852701,-0.013486,-0.007156,-0.022665,-4.659027,0.714401,-45.599388,,,,,,,
1530639502.411776,-0.399090,0.396078,-0.839324,-0.253783,-0.635495,0.042683,-0.358496,-0.385803,-0.850080,-0.015558,-0.002762,0.003004,-5.288298,1.123741,-45.497734,,,,,,,
1530639502.431745,-0.410044,0.392071,-0.841071,-0.205355,-0.528252,0.016799,-0.368400,-0.382103,-0.847513,-0.002358,0.012733,0.020304,-5.714397,1.155609,-45.219170,,,,,,,
1530639502.451714,-0.417379,0.388324,-0.843501,-0.224815,-0.351193,-0.044695,-0.375184,-0.378638,-0.846091,0.011003,0.010565,0.020591,-6.099957,1.309059,-45.210335,,,,,,,
1530639502.471683,-0.423581,0.385609,-0.846543,-0.097729,-0.430563,-0.066924,-0.380845,-0.376124,-0.844682,0.032243,0.027338,-0.005782,-6.470455,1.468719,-45.052406,,,,,,,
1530639502.491652,-0.433823,0.386758,-0.846302,0.144810,-0.548315,0.028067,-0.389295,-0.377188,-0.840344,0.022535,-0.008417,-0.023608,-6.891254,1.209137,-45.219597,,,,,,,
1530639502.511621,-0.445326,0.392014,-0.842905,0.423813,-0.437945,0.018074,-0.398076,-0.382051,-0.834010,-0.019710,-0.009932,-0.026296,-7.231394,1.011597,-44.958046,,,,,,,
1530639502.531589,-0.450927,0.403083,-0.838730,0.657647,-0.073896,-0.117478,-0.400873,-0.392256,-0.827910,-0.108847,-0.022355,-0.044206,-7.383373,0.377991,-44.889503,,,,,,,
1530639502.551558,-0.451144,0.416672,-0.835707,0.673862,0.063421,-0.180625,-0.398692,-0.404719,-0.822950,-0.075887,-0.040685,-0.026369,-7.248993,-0.171761,-44.880608,,,,,,,
1530639502.571527,-0.452346,0.429945,-0.832655,0.668288,-0.050583,-0.136892,-0.397298,-0.416821,-0.817566,0.001622,-0.014118,-0.030029,-7.295996,-0.753227,-44.881645,,,,,,,
1530639502.591496,-0.457920,0.442067,-0.828351,0.607956,-0.275170,-0.062914,-0.399586,-0.427808,-0.810747,0.045719,0.022611,-0.013319,-7.359213,-1.479004,-44.557060,,,,,,,
1530639502.611465,-0.467395,0.451909,-0.823641,0.500607,-0.395809,-0.012741,-0.405333,-0.436684,-0.803127,0.059172,0.016487,0.015560,-7.664221,-1.965675,-44.785591,,,,,,,
1530639502.631434,-0.478297,0.458682,-0.818908,0.351107,-0.441529,0.060894,-0.412694,-0.442767,-0.796016,0.070912,-0.007139,0.043132,-8.057430,-2.206596,-44.720238,,,,,,,
1530639502.651403,-0.487489,0.462121,-0.813820,0.205527,-0.295370,0.163457,-0.419277,-0.445847,-0.790839,0.016247,-0.004439,0.056724,-8.453304,-2.381874,-44.677803,,,,,,,
1530639502.671372,-0.493259,0.461954,-0.809255,0.040555,-0.143232,0.200461,-0.423868,-0.445698,-0.788472,-0.006003,-0.020336,0.061849,-8.528070,-2.244049,-44.329506,,,,,,,
1530639502.691341,-0.498196,0.460262,-0.805420,0.026927,-0.239281,0.202301,-0.428116,-0.444183,-0.787031,0.015228,0.001938,0.005385,-8.806749,-2.314201,-44.174461,,,,,,,
1530639502.711310,-0.508505,0.460095,-0.800939,0.139594,-0.546971,0.153237,-0.436243,-0.444033,-0.782641,0.024515,0.068239,-0.053968,-9.322674,-2.242683,-44.162468,,,,,,,
1530639502.731279,-0.527469,0.462423,-0.797023,0.212780,-1.014430,0.062837,-0.450483,-0.446118,-0.773333,0.060652,0.080548,-0.079756,-9.901443,-2.408218,-43.948357,,,,,,,
1530639502.751248,-0.551246,0.466492,-0.795492,0.199084,-1.118483,-0.055071,-0.467787,-0.449756,-0.760851,0.176650,0.036197,-0.116804,-10.719738,-2.712112,-43.558144,,,,,,,
1530639502.771217,-0.575608,0.466876,-0.793801,-0.033819,-1.244147,0.089173,-0.486088,-0.450099,-0.749085,0.085454,0.025844,0.022553,-11.794029,-2.859779,-43.086693,,,,,,,
1530639502.791185,-0.598120,0.465300,-0.794159,-0.085463,-1.035888,-0.012809,-0.503226,-0.448691,-0.738539,0.127341,0.084677,0.040389,-12.593357,-2.703026,-42.603706,,,,,,,
1530639502.811154,-0.614885,0.465820,-0.798116,-0.023325,-0.872701,-0.307125,-0.515401,-0.449156,-0.729808,0.170034,0.178572,0.045833,-13.404701,-2.698151,-42.429497,,,,,,,
1530639502.831123,-0.636773,0.468889,-0.802541,0.038763,-1.449770,-0.190855,-0.530429,-0.451895,-0.717242,0.237841,0.195792,-0.046109,-14.433451,-2.829475,-41.949287,,,,,,,
1530639502.851092,-0.677292,0.471187,-0.803558,0.101446,-2.373025,-0.138813,-0.558395,-0.453944,-0.694355,0.287094,0.271113,-0.125331,-16.076801,-2.815865,-41.171730,,,,,,,
1530639502.871061,-0.727729,0.485542,-0.811890,0.455839,-2.739469,-1.281122,-0.588296,-0.466688,-0.660387,0.255929,0.525496,-0.125899,-17.946070,-3.418510,-39.799110,,,,,,,
1530639502.891030,-0.743833,0.527369,-0.844890,0.502220,-0.499408,-2.910168,-0.585117,-0.503262,-0.635898,0.161838,0.661419,0.104541,-18.583401,-4.825516,-38.954842,,,,,,,
1530639502.910999,-0.698748,0.546634,-0.879050,-0.699290,1.776448,-1.196330,-0.549524,-0.519814,-0.654077,0.484140,-0.104148,0.383844,-17.391476,-5.383438,-39.482910,,,,,,,
1530639502.930968,-0.647287,0.533111,-0.907597,-1.627456,2.083115,-0.162521,-0.519343,-0.508215,-0.687023,0.614710,-0.105310,0.465129,-15.880456,-4.892258,-40.321777,,,,,,,
1530639502.950937,-0.591121,0.492011,-0.930646,-2.594949,2.110681,0.685944,-0.491189,-0.472399,-0.731828,0.449395,0.511095,0.049135,-14.116537,-3.161125,-41.342484,,,,,,,
1530639502.970906,-0.554528,0.432767,-0.943747,-2.839266,1.068255,1.223862,-0.478000,-0.419384,-0.771773,0.422778,0.616040,-0.307558,-13.182057,-0.818741,-41.950447,,,,,,,
1530639502.990875,-0.545958,0.372666,-0.951261,-2.678480,-0.061898,1.338567,-0.483596,-0.364100,-0.795968,0.302658,0.414149,-0.245947,-13.115757,1.960106,-42.214073,,,,,,,
1530639503.010844,-0.554907,0.311228,-0.956017,-2.862441,-0.716953,1.409635,-0.501552,-0.306228,-0.809116,0.229854,0.551376,-0.033611,-13.561216,4.713577,-41.828819,,,,,,,
1530639503.030813,-0.567162,0.241270,-0.973847,-3.845330,-0.929722,0.935909,-0.521680,-0.238936,-0.818999,-0.077731,0.686370,0.343230,-14.015194,7.698181,-41.468758,,,,,,,
1530639503.050782,-0.579259,0.155652,-1.014509,-5.160069,-0.965025,0.516194,-0.540787,-0.155024,-0.826751,-0.159867,0.708644,0.413040,-15.008954,11.545616,-40.351456,,,,,,,
1530639503.070750,-0.587717,0.058447,-1.074329,-5.937675,-0.601949,-0.069108,-0.553515,-0.058413,-0.830788,-0.335996,0.799640,0.216744,-15.656484,15.834061,-38.769730,,,,,,,
1530639503.090719,-0.592515,-0.034737,-1.154713,-6.156583,-0.035856,-1.144724,-0.558112,0.034730,-0.829038,-0.499963,0.649520,0.031004,-16.384478,20.011116,-36.562469,,,,,,,
1530639503.110688,-0.592024,-0.115506,-1.251608,-5.962567,0.638304,-2.063517,-0.554323,0.115250,-0.824283,-0.455595,0.457001,-0.108105,-16.957193,23.262161,-34.432243,,,,,,,
1530639503.130657,-0.586952,-0.184699,-1.355882,-5.597568,1.188549,-2.471360,-0.544406,0.183651,-0.818471,-0.380582,0.215290,-0.259120,-17.468731,26.075783,-32.491333,,,,,,,
1530639503.150626,-0.590922,-0.244268,-1.458297,-5.001694,0.506214,-2.483163,-0.540589,0.241846,-0.805776,-0.459106,-0.106027,-0.610469,-18.347954,28.397690,-30.411720,,,,,,,
1530639503.170595,-0.625650,-0.292179,-1.546185,-3.957061,-1.209802,-1.817718,-0.560805,0.288039,-0.776229,-0.397874,-0.503249,-0.946321,-19.921799,30.145767,-27.976303,,,,,,,
1530639503.190564,-0.683467,-0.326238,-1.607098,-2.586810,-2.357537,-0.973964,-0.598177,0.320482,-0.734490,-0.475660,-0.786500,-1.077034,-21.893326,31.144272,-25.139954,,,,,,,
1530639503.210533,-0.753915,-0.343211,-1.645072,-1.387624,-3.188415,-0.765346,-0.644577,0.336513,-0.686498,-0.548599,-0.965663,-1.066676,-23.643356,31.658768,-22.566956,,,,,,,
1530639503.230502,-0.831473,-0.341887,-1.668079,-0.319292,-3.670581,-0.851332,-0.696158,0.335266,-0.634792,-0.467690,-0.894897,-0.958409,-25.564070,31.578369,-20.422546,,,,,,,
1530639503.250471,-0.912297,-0.324279,-1.677283,0.502227,-4.019608,-1.022476,-0.749690,0.318625,-0.580037,-0.334157,-0.764487,-0.781306,-27.532640,31.114357,-18.069557,,,,,,,
1530639503.270440,-0.994977,-0.298279,-1.677027,0.889453,-4.190644,-1.051154,-0.801710,0.293876,-0.520478,-0.114397,-0.630515,-0.578475,-29.590704,30.293022,-16.262100,,,,,,,
1530639503.290409,-1.078611,-0.271988,-1.670929,0.899873,-4.335129,-0.910674,-0.848904,0.268647,-0.455182,0.106076,-0.527330,-0.428363,-31.588089,29.476860,-13.617332,,,,,,,
1530639503.310378,-1.168019,-0.253675,-1.665219,0.576122,-4.579033,-0.425226,-0.890534,0.250964,-0.379430,0.360291,-0.440035,-0.265864,-32.974400,28.895966,-11.062683,,,,,,,
1530639503.330347,-1.263720,-0.249809,-1.646396,1.209676,-5.172933,0.341693,-0.923633,0.247219,-0.292890,0.968250,0.309773,-0.729403,-33.828964,28.841629,-7.987503,,,,,,,
1530639503.350315,-1.365763,-0.245338,-1.621684,0.947385,-5.513876,-0.148959,-0.949736,0.242885,-0.197503,0.566787,0.412251,-0.355735,-34.695908,28.953690,-4.641273,,,,,,,
1530639503.370284,-1.484335,-0.235774,-1.626476,-0.792793,-6.012492,-0.596575,-0.968702,0.233596,-0.083965,0.257856,0.137224,-0.336155,-35.233536,28.672432,-0.614250,,,,,,,
1530639503.390253,-1.591462,-0.229472,-1.652460,-1.360062,-4.293413,-0.131411,-0.973579,0.227464,0.020122,0.344199,-0.399964,-0.346966,-35.152462,28.327118,4.197075,,,,,,,
1530639503.410222,-1.646835,-0.233631,-1.678456,-1.098581,-1.519496,0.527371,-0.970021,0.231512,0.073902,0.144597,-0.597158,-0.205692,-34.860455,28.163109,7.142799,,,,,,,
1530639503.430191,-1.673318,-0.245863,-1.694642,-0.510876,-1.098209,0.718347,-0.964835,0.243393,0.099264,-0.137765,-0.336792,-0.606223,-34.329124,28.274345,8.834740,,,,,,,
1530639503.450160,-1.699362,-0.259981,-1.707688,-0.597481,-1.094286,0.793706,-0.958419,0.257062,0.123904,-0.093827,-0.158430,-0.160754,-33.671700,28.600822,9.815041,,,,,,,
1530639503.470129,-1.721383,-0.275073,-1.723183,-0.619884,-0.743284,0.960655,-0.951514,0.271617,0.144379,0.057578,-0.134303,0.139588,-32.924858,29.013496,10.940063,,,,,,,
1530639503.490098,-1.730661,-0.303736,-1.739818,-0.469843,0.244203,1.826632,-0.942058,0.299087,0.151898,0.312282,-0.100784,0.290302,-32.110683,29.912567,11.532616,,,,,,,
1530639503.510067,-1.714677,-0.336142,-1.754090,-0.452955,1.336928,1.528656,-0.934279,0.329848,0.135361,-0.015504,-0.150496,0.418549,-31.156715,30.853844,11.506516,,,,,,,
1530639503.530036,-1.684093,-0.353719,-1.773349,-1.003902,2.215242,0.655461,-0.932077,0.346389,0.106056,-0.172797,0.081285,0.584786,-30.767555,31.641762,10.709274,,,,,,,
1530639503.550005,-1.639252,-0.357410,-1.803237,-1.537619,3.073600,0.113087,-0.934612,0.349849,0.064080,-0.087971,0.271382,0.543815,-30.912029,31.853905,9.773071,,,,,,,
1530639503.569974,-1.582864,-0.354216,-1.831112,-0.965360,3.334396,-0.112858,-0.937850,0.346855,0.011319,-0.205521,0.240715,0.005420,-31.310795,31.422302,8.301666,,,,,,,
1530639503.589943,-1.523933,-0.360598,-1.832048,0.332011,2.466260,0.530254,-0.934659,0.352834,-0.043834,-0.053150,0.074718,-0.523946,-31.569826,31.166130,6.457115,,,,,,,
1530639503.609911,-1.482431,-0.372828,-1.822028,0.407755,1.741252,0.647828,-0.927667,0.364251,-0.082187,0.019342,-0.115807,-0.282238,-31.443367,31.771881,4.696785,,,,,,,
1530639503.629880,-1.452048,-0.386556,-1.822181,-0.434719,1.452130,0.832291,-0.919690,0.377001,-0.109728,0.164197,-0.057604,0.077272,-30.753048,32.108910,3.144005,,,,,,,
1530639503.649849,-1.428980,-0.420345,-1.832522,-0.680377,1.185821,2.159133,-0.903783,0.408075,-0.129037,0.202443,-0.174829,-0.086096,-29.494848,33.437401,2.917931,,,,,,,
1530639503.669818,-1.421646,-0.477363,-1.833153,-0.298772,-0.300129,3.109941,-0.878348,0.459439,-0.131986,0.165244,0.020298,-0.444476,-27.538948,35.038460,3.313599,,,,,,,
1530639503.689787,-1.438123,-0.543980,-1.819548,0.476528,-1.427850,3.482346,-0.848136,0.517546,-0.113190,0.094199,0.334719,-0.562180,-25.056168,36.772987,3.863449,,,,,,,
1530639503.709756,-1.441701,-0.605095,-1.782145,1.501395,-1.071034,2.918775,-0.815604,0.568840,-0.105880,-0.054879,0.495217,-0.198457,-22.933868,38.477737,3.533531,,,,,,,
1530639503.729725,-1.441711,-0.640551,-1.739137,1.395189,-1.306782,1.416390,-0.795096,0.597637,-0.103209,-0.259836,0.625492,-0.021364,-21.628986,39.417473,3.079033,,,,,,,
1530639503.749694,-1.445979,-0.648738,-1.711905,0.826651,-0.805401,0.137113,-0.790647,0.604181,-0.099202,-0.320635,0.543234,0.300664,-21.387156,39.668888,3.000710,,,,,,,
1530639503.769663,-1.452900,-0.650021,-1.699153,0.327383,-0.826092,0.279312,-0.790545,0.605203,-0.093637,-0.031568,0.075278,0.279061,-21.026066,39.994179,3.189537,,,,,,,
1530639503.789632,-1.474219,-0.663358,-1.694182,0.089193,-1.288788,0.951535,-0.784257,0.615766,-0.075978,0.100862,-0.008558,0.097432,-20.375475,40.287491,3.503136,,,,,,,
1530639503.809601,-1.496704,-0.681424,-1.692428,-0.083855,-1.099056,0.820561,-0.774546,0.629899,-0.057493,0.095499,0.084883,0.047804,-19.757542,40.572052,3.985939,,,,,,,
1530639503.829570,-1.516312,-0.692839,-1.696823,-0.276832,-0.780567,0.429414,-0.768294,0.638724,-0.041902,0.078429,0.032113,0.050797,-19.240746,40.831764,4.913177,,,,,,,
1530639503.849539,-1.527885,-0.703261,-1.703450,-0.270010,-0.148142,0.606033,-0.762035,0.646708,-0.032720,0.120296,-0.114665,0.101766,-18.807995,41.135258,4.917015,,,,,,,
1530639503.869508,-1.523976,-0.721430,-1.710735,-0.311061,0.916956,1.113120,-0.750040,0.660459,-0.035143,0.118860,-0.208493,0.199312,-18.163094,41.569836,4.977692,,,,,,,
1530639503.889476,-1.496880,-0.750147,-1.717877,-0.369707,1.957967,1.592235,-0.729591,0.681746,-0.054027,0.059516,-0.303161,0.135753,-16.984631,41.928715,4.663849,,,,,,,
1530639503.909445,-1.440699,-0.787629,-1.722490,-0.317858,3.669460,2.007620,-0.699565,0.708682,-0.091529,-0.036259,-0.368854,0.204139,-15.737849,42.604523,3.913216,,,,,,,
1530639503.929414,-1.344387,-0.835893,-1.719992,-0.378306,5.257466,2.565973,-0.653403,0.741896,-0.150517,0.030081,-0.529219,0.200093,-14.048015,43.540283,2.180832,,,,,,,
1530639503.949383,-1.214091,-0.886704,-1.709008,-0.387613,6.639922,2.515575,-0.592189,0.774993,-0.220677,0.114513,-0.564101,0.180454,-11.896055,44.150116,0.922211,,,,,,,
1530639503.969352,-1.066712,-0.935091,-1.694579,-0.839275,6.474291,2.224077,-0.519893,0.804653,-0.286782,0.203609,-0.455822,0.022454,-9.906483,44.631771,-0.257034,,,,,,,
1530639503.989321,-0.983793,-0.978273,-1.712208,-1.983170,3.947815,1.104584,-0.464973,0.829534,-0.309311,0.143470,-0.257696,-0.411835,-8.563356,44.623299,-0.002235,,,,,,,
1530639504.009290,-0.979494,-1.010567,-1.782000,-2.671062,2.925730,-0.160268,-0.441160,0.847133,-0.296214,0.078077,-0.121731,-0.373647,-8.321827,44.836208,1.981430,,,,,,,
1530639504.029259,-0.998228,-1.032858,-1.879144,-2.718820,3.475571,-0.490373,-0.430650,0.858767,-0.277596,0.070970,-0.290881,-0.100639,-8.684660,44.166443,3.371651,,,,,,,
1530639504.049228,-1.017560,-1.061056,-1.979548,-3.057663,3.084690,0.177879,-0.415162,0.872871,-0.256390,-0.052276,-0.230293,-0.008319,-8.787039,43.756374,5.281441,,,,,,,
1530639504.069197,-1.075357,-1.109493,-2.088535,-3.621117,1.060062,1.168523,-0.391595,0.895473,-0.211616,-0.092749,-0.187984,-0.021981,-8.098551,43.287884,7.728142,,,,,,,
1530639504.089166,-1.201073,-1.168758,-2.216821,-3.570598,-1.203464,1.716822,-0.364854,0.920265,-0.141398,0.006197,-0.273674,-0.134771,-6.772032,42.818348,10.786743,,,,,,,
1530639504.109135,-1.377508,-1.223854,-2.359511,-3.144804,-2.638483,2.005190,-0.333692,0.940417,-0.065314,0.111906,-0.425021,-0.178018,-4.695002,42.271950,13.858330,,,,,,,
1530639504.129104,-1.604058,-1.268580,-2.534098,-2.922589,-3.165299,2.030476,-0.297472,0.954679,0.009898,0.097490,-0.508726,-0.137584,-2.008787,41.447525,16.780449,,,,,,,
1530639504.149073,-1.902507,-1.297674,-2.779637,-3.361208,-3.181955,2.065274,-0.255034,0.962933,0.087843,0.101195,-0.679181,0.040987,0.685247,40.285046,19.602097,,,,,,,
1530639504.169042,-2.277938,-1.297076,-3.095364,-3.909792,-3.918327,2.099929,-0.205499,0.962772,0.175614,0.135858,-0.591358,-0.071885,3.874598,38.361191,22.436749,,,,,,,
1530639504.189011,-2.654222,-1.257895,2.890490,-4.323818,-4.834219,2.227192,-0.144154,0.951444,0.271980,0.080906,-0.359922,-0.102760,7.715578,35.912033,25.515007,,,,,,,
1530639504.208979,-2.963580,-1.196867,2.656463,-3.828585,-3.879817,3.072078,-0.064681,0.930899,0.359504,0.350448,0.891565,-0.018424,11.828424,33.199226,27.983383,,,,,,,
1530639504.228948,3.112494,-1.155710,2.481980,-1.182680,-1.188758,2.988888,0.011733,0.915082,0.403098,0.364564,2.518466,0.063211,15.043447,31.166801,28.927399,,,,,,,
1530639504.248917,3.055048,-1.165674,2.409667,1.414274,1.149205,0.171548,0.034067,0.919054,0.392656,0.013616,2.849165,0.262724,15.490065,31.017174,28.593529,,,,,,,
1530639504.268886,3.137518,-1.205461,2.467564,2.112530,1.406419,-1.617452,0.001456,0.934004,0.357260,-0.226355,1.094866,0.088358,14.097303,32.252563,27.783398,,,,,,,
1530639504.288855,-3.017824,-1.245954,2.581811,2.104351,0.720524,-1.883837,-0.039401,0.947701,0.316718,-0.060544,0.169624,-0.124854,12.471663,33.724060,26.878357,,,,,,,
1530639504.308824,-2.870824,-1.276932,2.729615,1.865341,0.094648,-1.878915,-0.077474,0.957132,0.279099,0.041982,-0.214547,-0.193497,11.030870,34.792671,25.643410,,,,,,,
1530639504.328793,-2.727644,-1.298182,2.881987,1.624909,-0.323334,-1.446956,-0.108300,0.963070,0.246508,0.149468,-0.365124,-0.256137,9.958811,36.140854,24.423195,,,,,,,
1530639504.348762,-2.633524,-1.316893,3.000642,1.509929,-1.695205,-0.686594,-0.122198,0.967939,0.219455,0.168631,-0.288328,-0.477557,9.870676,36.614471,23.180519,,,,,,,
1530639504.368731,-2.610221,-1.339608,3.102407,1.701961,-5.244646,-0.485743,-0.116106,0.973395,0.197539,-0.061293,-0.031790,-0.959959,10.980513,37.141685,21.697014,,,,,,,
1530639504.388700,-2.611560,-1.364669,-3.029305,1.998342,-8.483386,-1.000638,-0.103474,0.978831,0.176588,-0.248180,0.223196,-0.994734,13.205263,37.829338,19.253609,,,,,,,
1530639504.408669,-2.565178,-1.383787,-2.809581,1.854326,-8.006414,-1.484295,-0.101331,0.982565,0.155881,-0.285235,0.260081,-0.374142,14.911112,38.858063,16.079140,,,,,,,
1530639504.428638,-2.425273,-1.394247,-2.536810,2.025019,-5.448885,-1.775768,-0.115323,0.984456,0.132467,-0.314410,0.159191,-0.062429,15.392702,39.763279,13.136024,,,,,,,
1530639504.448607,-2.123147,-1.400301,-2.144089,3.291003,-3.680739,-2.107534,-0.144439,0.985501,0.089024,-0.203736,0.165576,-0.393803,14.944487,40.645580,10.098724,,,,,,,
1530639504.468576,-1.675485,-1.379360,-1.637743,4.192652,-1.773060,-2.645054,-0.189226,0.981732,0.019882,-0.170332,0.240299,-0.166931,13.563215,41.615181,6.375610,,,,,,,
1530639504.488545,-1.325963,-1.314051,-1.271624,4.211614,0.358394,-3.094429,-0.246361,0.967221,-0.061552,-0.146278,0.270648,0.231596,11.367243,42.474392,2.792900,,,,,,,
1530639504.508514,-1.137356,-1.225780,-1.101799,3.523107,1.696763,-3.441938,-0.306937,0.941070,-0.142048,-0.167352,0.397996,0.330997,8.860430,42.982166,-0.482445,,,,,,,
1530639504.528483,-1.088432,-1.143794,-1.068486,1.575417,0.093073,-3.233690,-0.366891,0.910211,-0.192111,-0.104438,0.682089,-0.051114,6.158808,43.213062,-2.471977,,,,,,,
1530639504.548452,-1.117037,-1.093866,-1.097452,0.171646,0.059567,-1.993681,-0.412600,0.888408,-0.201225,0.152102,0.540776,0.213905,4.161135,43.284222,-3.170433,,,,,,,
1530639504.568421,-1.115577,-1.072515,-1.115849,0.133718,1.332395,-0.716636,-0.429247,0.878405,-0.210120,0.265993,0.379697,0.255500,3.256311,43.506130,-3.146835,,,,,,,
1530639504.588389,-1.078842,-1.063663,-1.110211,0.430262,1.588009,-0.180384,-0.428078,0.874140,-0.229407,0.279015,0.246068,0.248847,2.831539,43.783825,-3.235313,,,,,,,
1530639504.608358,-1.031976,-1.054943,-1.091451,0.745867,1.404588,-0.170613,-0.423387,0.869872,-0.253112,0.205217,0.051133,0.361633,2.860828,43.762150,-4.035576,,,,,,,
1530639504.628327,-0.989027,-1.040602,-1.065670,1.034481,0.798320,-0.312504,-0.422508,0.862709,-0.277884,0.244927,-0.079063,0.365469,2.869738,43.887569,-4.694572,,,,,,,
1530639504.648296,-0.953094,-1.022285,-1.039804,1.052096,0.683095,-0.412475,-0.425065,0.853302,-0.301986,0.314805,-0.198227,0.452865,2.825022,43.635353,-5.596825,,,,,,,
1530639504.668265,-0.919853,-1.004658,-1.021088,0.834801,0.974462,-0.392576,-0.426694,0.843978,-0.325011,0.419675,-0.284225,0.483412,2.480581,43.578793,-6.655861,,,,,,,
1530639504.688234,-0.887975,-0.991897,-1.009182,0.539817,1.100380,-0.229205,-0.424440,0.837065,-0.345213,0.520143,-0.369719,0.447523,2.488066,43.920006,-7.365494,,,,,,,
1530639504.708203,-0.863024,-0.985949,-1.002907,0.190294,0.849806,-0.055201,-0.419471,0.833796,-0.358926,0.556862,-0.433802,0.436746,2.532352,43.678028,-7.553444,,,,,,,
1530639504.728172,-0.855305,-0.986558,-1.005635,-0.229403,0.253526,-0.011532,-0.416305,0.834132,-0.361819,0.537597,-0.482249,0.491229,2.721390,43.741016,-7.732796,,,,,,,
1530639504.748141,-0.866523,-0.992560,-1.018640,-0.592374,-0.130696,0.014209,-0.416514,0.837428,-0.353879,0.505320,-0.527491,0.560681,2.607744,43.960335,-7.380699,,,,,,,
1530639504.768110,-0.885419,-1.004004,-1.040493,-0.946573,0.076311,0.107425,-0.415680,0.843627,-0.339857,0.462936,-0.577957,0.636732,2.714132,44.096218,-6.545639,,,,,,,
1530639504.788079,-0.903778,-1.021472,-1.069873,-1.268694,0.427584,0.249525,-0.410207,0.852878,-0.323002,0.402272,-0.617663,0.574879,2.937920,44.361248,-5.652084,,,,,,,
1530639504.808048,-0.926992,-1.043711,-1.108907,-1.569790,0.533566,0.262954,-0.402322,0.864277,-0.301932,0.251367,-0.541248,0.415961,3.125154,44.305073,-4.697601,,,,,,,
1530639504.828017,-0.959836,-1.063214,-1.159129,-1.516413,0.477612,-0.108897,-0.398135,0.873922,-0.278834,-0.014310,-0.258566,0.055720,3.354002,44.394196,-3.022568,,,,,,,
1530639504.847986,-1.015142,-1.069195,-1.213013,-1.096182,-1.538828,-0.667758,-0.408492,0.876814,-0.253638,-0.374726,0.223284,-0.855859,3.227415,44.495224,-1.618317,,,,,,,
1530639504.867955,-1.121548,-1.052718,-1.248763,0.397895,-4.100575,-1.600923,-0.446074,0.868772,-0.215065,-1.121309,1.156176,-2.873024,2.228218,44.067356,-1.020584,,,,,,,
1530639504.887924,-1.164474,-1.008769,-1.264340,0.271959,0.361326,-2.214392,-0.489514,0.846176,-0.210621,-1.744296,1.626571,-0.685573,0.348286,43.870277,-1.171974,,,,,,,
1530639504.907893,-1.145339,-0.978445,-1.282480,0.281275,1.807100,-1.205568,-0.508540,0.829630,-0.230437,-0.735662,0.721304,-0.300798,-1.190649,44.002232,-1.590073,,,,,,,
1530639504.927862,-1.120102,-0.959384,-1.277739,0.633158,0.589618,-0.603674,-0.516705,0.818838,-0.250039,0.004147,-0.149832,-0.394736,-2.026129,43.912746,-2.309647,,,,,,,
1530639504.947831,-1.111461,-0.951068,-1.259916,0.564933,-0.935003,0.213691,-0.520611,0.814036,-0.257505,0.440991,-0.471660,-0.097414,-2.216352,43.899555,-3.025246,,,,,,,
1530639504.967800,-1.134160,-0.964369,-1.246619,-0.352730,-1.863149,1.019268,-0.516464,0.821689,-0.241022,0.518615,-0.098178,0.153284,-1.582411,44.170403,-2.684067,,,,,,,
1530639504.987769,-1.167051,-0.992365,-1.266789,-1.328220,0.142029,0.998357,-0.502753,0.837321,-0.214784,0.363868,0.497624,0.367707,-0.765909,44.217640,-1.589325,,,,,,,
1530639505.007737,-1.151703,-1.013685,-1.286515,-0.552980,1.899322,0.663143,-0.482979,0.848786,-0.215160,0.287941,0.440429,-0.019734,-0.164623,44.341419,-1.083771,,,,,,,
1530639505.027706,-1.146265,-1.028194,-1.290683,-0.266877,-0.491532,0.616210,-0.470530,0.856368,-0.212688,0.366755,-0.298415,0.429714,0.456577,44.421978,-1.088219,,,,,,,
1530639505.047675,-1.160386,-1.042014,-1.279739,0.060723,-1.331078,0.842700,-0.462589,0.863422,-0.201281,0.513599,-0.514423,0.310259,1.075546,44.313927,-1.093590,,,,,,,
1530639505.067644,-1.170393,-1.060218,-1.271797,-0.382554,-0.556482,0.914798,-0.450029,0.872462,-0.190483,0.449861,-0.377558,0.625893,1.825537,44.449455,-0.820457,,,,,,,
1530639505.087613,-1.190415,-1.082687,-1.278665,-0.601621,-0.943650,1.040377,-0.435437,0.883221,-0.174112,0.252713,0.081531,0.451532,2.715151,44.470894,-0.344788,,,,,,,
1530639505.107582,-1.215630,-1.107500,-1.277942,-0.292573,-1.449477,1.219065,-0.419007,0.894584,-0.155408,0.156709,0.362481,0.308057,3.531023,44.916462,0.120255,,,,,,,
1530639505.127551,-1.235555,-1.129913,-1.269457,-0.206940,-1.263644,1.001190,-0.402982,0.904375,-0.140396,0.059247,0.498304,0.288284,4.520498,44.811642,-0.038475,,,,,,,
1530639505.147520,-1.269824,-1.147173,-1.282950,-0.905400,-1.300536,0.622350,-0.392587,0.911606,-0.121860,0.131571,0.289475,0.056369,5.160036,44.647808,0.460968,,,,,,,
1530639505.167489,-1.365410,-1.168211,-1.345473,-1.554467,-1.970255,0.760856,-0.383563,0.920051,-0.079905,0.123217,0.022713,-0.266179,5.755434,44.886742,1.540581,,,,,,,
1530639505.187458,-1.446699,-1.187534,-1.404202,-1.052357,-0.930520,0.759436,-0.371073,0.927450,-0.046287,-0.002432,0.065348,0.036140,6.314920,44.864323,2.531311,,,,,,,
1530639505.207427,-1.480568,-1.202534,-1.438800,-0.515589,0.414869,0.615682,-0.358530,0.932954,-0.032438,-0.044241,-0.032991,0.153745,6.928747,44.559357,3.036797,,,,,,,
1530639505.227396,-1.468973,-1.212981,-1.453890,-0.234431,1.767193,0.439090,-0.348414,0.936664,-0.035600,-0.086034,-0.125232,0.224931,7.045858,44.527344,3.389374,,,,,,,
1530639505.247365,-1.434718,-1.221958,-1.468319,-0.393951,2.628342,0.433083,-0.338646,0.939770,-0.046369,-0.074623,-0.208539,0.245160,7.249014,44.360180,3.989662,,,,,,,
1530639505.267334,-1.424806,-1.235220,-1.510357,-1.104407,2.166839,0.635801,-0.325811,0.944221,-0.047906,-0.050105,-0.272254,0.129449,7.655447,44.020485,4.760361,,,,,,,
