timestamp(unix),attitude_roll(radians),attitude_pitch(radians),attitude_yaw(radians),rotation_rate_x(radians/s),rotation_rate_y(radians/s),rotation_rate_z(radians/s),gravity_x(G),gravity_y(G),gravity_z(G),user_acc_x(G),user_acc_y(G),user_acc_z(G),magnetic_field_x(microteslas),magnetic_field_y(microteslas),magnetic_field_z(microteslas),latitude(degree),longitude(degree),altitude(meter),speed(m/s),course(degree),timestamp(unix),User Mark
,,,,,,,,,,,,,,,,39.778903,-84.063145,290.311855,0.550000,-1.000000,1530639862.000070,
1530639870.245527,-0.043651,0.313389,-1.503943,-0.000627,0.089495,0.231170,-0.041511,-0.308284,-0.950388,0.052635,-0.000279,0.014795,-0.137688,6.036407,-50.481445,,,,,,,
,,,,,,,,,,,,,,,,39.778903,-84.063145,290.311855,0.550000,-1.000000,1530639870.000070,
1530639870.265495,-0.046763,0.313297,-1.498525,-0.015583,-0.150327,0.271162,-0.044471,-0.308197,-0.950283,0.061286,-0.011109,-0.013584,-0.229496,6.182175,-50.449097,,,,,,,
1530639870.285464,-0.050970,0.312160,-1.492092,-0.061174,-0.042530,0.329325,-0.048486,-0.307115,-0.950436,0.032861,-0.024229,-0.027316,-0.209339,6.041870,-50.435211,,,,,,,
1530639870.305433,-0.051165,0.310198,-1.484593,-0.083668,0.163543,0.382330,-0.048702,-0.305247,-0.951027,0.024471,-0.001454,-0.040123,-0.211975,6.084511,-50.326721,,,,,,,
1530639870.325402,-0.049615,0.308255,-1.476054,-0.055720,0.199658,0.426428,-0.047257,-0.303396,-0.951692,0.035416,0.002188,-0.060652,0.011570,6.162514,-50.431686,,,,,,,
,,,,,,,,,,,,,,,,39.778903,-84.063145,290.311859,-1.000000,-1.000000,1530639870.304870,
,,,,,,,,,,,,,,,,39.778903,-84.063145,290.311859,-1.000000,-1.000000,1530639870.309059,
1530639870.345370,-0.048334,0.308006,-1.466971,0.051166,0.190726,0.436028,-0.046041,-0.303159,-0.951827,0.038824,0.009427,-0.072312,0.158752,6.125801,-50.020782,,,,,,,
1530639870.365339,-0.047212,0.309934,-1.457687,0.145534,0.195102,0.437197,-0.044946,-0.304996,-0.951292,0.034829,0.011997,-0.052568,0.359566,6.110466,-49.961014,,,,,,,
,,,,,,,,,,,,,,,,39.778903,-84.063145,290.311859,-1.000000,-1.000000,1530639870.347000,
,,,,,,,,,,,,,,,,39.778903,-84.063145,290.311859,-1.000000,-1.000000,1530639870.352304,
1530639870.385308,-0.046238,0.312857,-1.448466,0.171811,0.186309,0.430411,-0.043978,-0.307778,-0.950441,0.033068,0.013588,-0.038832,0.449768,5.880623,-50.148270,,,,,,,
1530639870.405277,-0.044771,0.315937,-1.439407,0.177139,0.230545,0.418700,-0.042541,-0.310707,-0.949553,0.018722,0.021614,-0.035829,0.603584,5.762413,-49.842896,,,,,,,
1530639870.425245,-0.041934,0.319209,-1.430683,0.188789,0.300199,0.402730,-0.039804,-0.313816,-0.948649,0.016473,0.024830,-0.022909,0.795105,5.627594,-49.902802,,,,,,,
1530639870.445214,-0.037748,0.322466,-1.422159,0.179406,0.360974,0.394495,-0.035794,-0.316907,-0.947781,0.015805,0.024136,-0.000446,1.159557,5.552429,-50.060349,,,,,,,
1530639870.465183,-0.032280,0.325364,-1.413958,0.150167,0.425126,0.377862,-0.030581,-0.319654,-0.947041,0.011050,0.027692,0.026844,1.593243,5.377457,-50.040939,,,,,,,
1530639870.485152,-0.026674,0.327324,-1.406272,0.089573,0.369030,0.351275,-0.025255,-0.321510,-0.946569,0.009188,0.024437,0.032797,1.945435,5.126450,-50.071884,,,,,,,
1530639870.505120,-0.023594,0.327881,-1.399042,0.017364,0.214602,0.337287,-0.022335,-0.322038,-0.946463,0.000500,0.021150,0.028067,2.155815,5.234077,-50.058502,,,,,,,
1530639870.525089,-0.022517,0.327098,-1.392087,-0.047567,0.152868,0.327970,-0.021321,-0.321296,-0.946739,-0.023540,0.024009,0.012763,2.308460,5.108192,-49.933899,,,,,,,
1530639870.545058,-0.021616,0.325474,-1.385030,-0.078150,0.161565,0.348829,-0.020479,-0.319758,-0.947278,-0.038756,0.026240,-0.027026,2.444130,5.175743,-50.002548,,,,,,,
1530639870.565027,-0.021571,0.323591,-1.377182,-0.078506,0.099435,0.393830,-0.020450,-0.317973,-0.947879,-0.047207,0.029170,-0.081479,2.459946,5.148277,-49.854996,,,,,,,
1530639870.584995,-0.022431,0.322317,-1.368149,-0.037112,0.112201,0.461397,-0.021275,-0.316765,-0.948265,-0.049923,0.028816,-0.078254,2.627621,5.412621,-49.432755,,,,,,,
1530639870.604964,-0.023980,0.321692,-1.357625,-0.010352,0.066495,0.524524,-0.022747,-0.316173,-0.948429,-0.061267,0.026668,-0.062985,2.798622,5.408203,-49.852951,,,,,,,
1530639870.624933,-0.026981,0.321535,-1.345769,0.018501,0.038451,0.587714,-0.025595,-0.316024,-0.948406,-0.061609,0.018905,-0.007420,2.703297,5.528603,-49.888107,,,,,,,
1530639870.644902,-0.030353,0.321329,-1.332823,0.002425,0.042579,0.629967,-0.028795,-0.315828,-0.948379,-0.070388,0.011766,0.051102,2.820385,5.328827,-49.819763,,,,,,,
1530639870.664870,-0.033949,0.320280,-1.319287,-0.041787,0.036929,0.650904,-0.032216,-0.314832,-0.948600,-0.066081,-0.004595,0.089759,2.826450,5.337837,-49.967575,,,,,,,
1530639870.684839,-0.038077,0.318155,-1.305340,-0.092348,0.009151,0.679353,-0.036157,-0.312815,-0.949126,-0.048804,-0.009298,0.081496,2.806843,5.450844,-50.024429,,,,,,,
1530639870.704808,-0.042597,0.315273,-1.290934,-0.126043,0.017879,0.695931,-0.040485,-0.310076,-0.949849,-0.037426,-0.009642,0.058706,2.776009,5.680069,-49.818573,,,,,,,
1530639870.724777,-0.045909,0.312089,-1.276206,-0.126222,0.107159,0.715777,-0.043676,-0.307047,-0.950692,-0.027232,-0.010076,0.032418,2.892246,5.670074,-49.999054,,,,,,,
1530639870.744745,-0.047699,0.309430,-1.261345,-0.089530,0.164551,0.715663,-0.045417,-0.304516,-0.951424,-0.018304,-0.005924,-0.001457,3.068417,5.706467,-49.897202,,,,,,,
1530639870.764714,-0.048245,0.307485,-1.246524,-0.062214,0.221999,0.708100,-0.045964,-0.302663,-0.951989,-0.003658,-0.004069,0.004128,3.315136,5.557053,-49.817001,,,,,,,
1530639870.784683,-0.048307,0.305728,-1.232071,-0.054689,0.224361,0.685381,-0.046049,-0.300987,-0.952516,0.006727,-0.003975,0.005692,3.466228,5.594315,-49.395340,,,,,,,
,,,,,,,,,,,,,,,,39.779203,-84.063457,290.944336,-1.000000,-1.000000,1530639870.760546,
1530639870.804652,-0.047821,0.304001,-1.217985,-0.057762,0.246507,0.675813,-0.045611,-0.299340,-0.953056,0.013445,-0.009147,0.011451,3.686268,5.450935,-49.452957,,,,,,,
1530639870.824620,-0.047550,0.302253,-1.204530,-0.061604,0.197124,0.633551,-0.045377,-0.297672,-0.953589,0.014448,-0.013211,0.008094,3.931446,5.559212,-49.496262,,,,,,,
1530639870.844589,-0.048076,0.299951,-1.191905,-0.105349,0.145499,0.598177,-0.045912,-0.295474,-0.954247,0.011824,-0.014158,0.020577,4.204685,5.643349,-49.425201,,,,,,,
1530639870.864558,-0.049041,0.296620,-1.179919,-0.162912,0.134571,0.584719,-0.046881,-0.292289,-0.955180,0.006369,-0.007332,0.015559,4.355171,5.734253,-49.473602,,,,,,,
1530639870.884527,-0.049217,0.291987,-1.168089,-0.236326,0.176545,0.584627,-0.047114,-0.287855,-0.956514,-0.006490,0.004606,0.006777,4.399399,5.935310,-49.329330,,,,,,,
1530639870.904495,-0.048860,0.285950,-1.155956,-0.292154,0.201747,0.614462,-0.046858,-0.282069,-0.958249,-0.012118,0.004816,-0.013308,4.633774,6.225426,-49.390167,,,,,,,
1530639870.924464,-0.047966,0.279912,-1.143208,-0.253574,0.226940,0.641139,-0.046081,-0.276271,-0.959974,-0.030808,-0.003713,-0.042330,4.929821,6.186989,-49.146301,,,,,,,
1530639870.944433,-0.047466,0.276195,-1.130151,-0.099428,0.195970,0.642579,-0.045650,-0.272697,-0.961016,-0.042744,-0.022027,-0.063062,5.023983,6.209404,-49.129715,,,,,,,
1530639870.964402,-0.047032,0.275558,-1.117029,0.051633,0.204800,0.635616,-0.045241,-0.272084,-0.961209,-0.065752,-0.025920,-0.040149,5.246819,6.464027,-49.121841,,,,,,,
1530639870.984371,-0.046564,0.277776,-1.103854,0.188950,0.212432,0.642821,-0.044763,-0.274218,-0.960625,-0.082205,-0.041212,-0.040138,5.453655,6.133041,-49.165558,,,,,,,
1530639871.004340,-0.045878,0.281993,-1.089832,0.266189,0.238600,0.686339,-0.044051,-0.278271,-0.959492,-0.095338,-0.047596,-0.040050,5.542274,5.975410,-48.959946,,,,,,,
1530639871.024309,-0.045131,0.287096,-1.074559,0.299202,0.278980,0.751970,-0.043269,-0.283168,-0.958094,-0.102788,-0.060841,-0.031652,5.865028,5.812614,-49.182816,,,,,,,
1530639871.044278,-0.043595,0.292364,-1.058177,0.296792,0.340545,0.788963,-0.041732,-0.288217,-0.956655,-0.109269,-0.058966,-0.027582,6.230057,5.323753,-48.812347,,,,,,,
1530639871.064246,-0.040740,0.297441,-1.041912,0.277094,0.412511,0.759321,-0.038940,-0.293075,-0.955296,-0.108856,-0.056687,-0.029933,6.588379,4.853439,-48.976730,,,,,,,
1530639871.084215,-0.036845,0.301542,-1.026185,0.206971,0.441356,0.741876,-0.035174,-0.296993,-0.954232,-0.095777,-0.056950,-0.020454,7.012741,4.655098,-48.844406,,,,,,,
1530639871.104184,-0.033302,0.304168,-1.011222,0.128663,0.380946,0.701435,-0.031768,-0.299499,-0.953567,-0.097718,-0.037964,-0.051941,7.591099,4.093086,-48.371262,,,,,,,
1530639871.124153,-0.031376,0.305746,-0.996837,0.096278,0.288318,0.688389,-0.029916,-0.301004,-0.953153,-0.087271,-0.013128,-0.101946,8.090412,3.870735,-48.381348,,,,,,,
1530639871.144121,-0.030796,0.307984,-0.982757,0.168798,0.228809,0.670074,-0.029343,-0.303138,-0.952495,-0.083130,0.001533,-0.149510,8.241749,3.778618,-48.482529,,,,,,,
1530639871.164090,-0.029609,0.312451,-0.968912,0.283215,0.308364,0.654136,-0.028171,-0.307392,-0.951166,-0.078655,0.025852,-0.077841,8.743549,2.930687,-48.555283,,,,,,,
1530639871.184059,-0.027397,0.318177,-0.955430,0.301246,0.311843,0.629157,-0.026019,-0.312836,-0.949451,-0.064939,0.039505,0.015445,8.944084,2.830887,-48.375015,,,,,,,
1530639871.204028,-0.026849,0.322264,-0.943012,0.150897,0.157875,0.552367,-0.025464,-0.316715,-0.948179,-0.062747,0.039874,0.097837,9.131416,2.746124,-48.556625,,,,,,,
1530639871.223996,-0.029012,0.322316,-0.933599,-0.052302,0.017711,0.397471,-0.027514,-0.316765,-0.948105,-0.067899,0.008583,0.129074,9.006882,2.739532,-48.246811,,,,,,,
1530639871.243965,-0.030351,0.319220,-0.927245,-0.180214,0.071662,0.264278,-0.028813,-0.313826,-0.949043,-0.071864,0.042815,0.104530,9.207874,2.945953,-48.160126,,,,,,,
1530639871.263934,-0.028470,0.315174,-0.923172,-0.194245,0.213544,0.180986,-0.027064,-0.309982,-0.950357,-0.057241,0.072891,0.058649,9.488159,2.842995,-48.070084,,,,,,,
1530639871.283903,-0.024636,0.311894,-0.920002,-0.137402,0.251248,0.153598,-0.023445,-0.306862,-0.951465,-0.024071,0.081154,0.011249,9.749199,3.198448,-48.017426,,,,,,,
1530639871.303871,-0.021210,0.309748,-0.916834,-0.099750,0.210298,0.167024,-0.020199,-0.304819,-0.952196,0.004848,0.087121,0.000109,9.898071,2.872528,-48.159027,,,,,,,
1530639871.323840,-0.019225,0.307635,-0.913072,-0.109469,0.129464,0.203404,-0.018322,-0.302806,-0.952876,0.021221,0.091380,-0.013844,10.079723,3.236649,-47.884537,,,,,,,
1530639871.343809,-0.019345,0.305288,-0.908183,-0.113124,0.049538,0.267768,-0.018449,-0.300568,-0.953582,0.033906,0.093124,-0.014786,10.305519,3.024597,-47.738571,,,,,,,
1530639871.363778,-0.020009,0.303200,-0.901814,-0.078044,0.078849,0.337641,-0.019095,-0.298576,-0.954195,0.041922,0.090797,0.005449,10.088959,3.336731,-47.661514,,,,,,,
1530639871.383746,-0.019437,0.302224,-0.894540,-0.014290,0.186849,0.361209,-0.018555,-0.297644,-0.954496,0.047410,0.090003,0.045393,10.411045,2.996025,-47.521591,,,,,,,
1530639871.403715,-0.016117,0.302231,-0.886991,0.014970,0.330286,0.370215,-0.015385,-0.297651,-0.954551,0.068318,0.096312,0.105140,10.600727,3.131073,-47.550751,,,,,,,
1530639871.423684,-0.011359,0.301312,-0.879469,-0.083571,0.335868,0.365900,-0.010847,-0.296773,-0.954886,0.099089,0.089742,0.140525,11.005241,2.843910,-47.397522,,,,,,,
1530639871.443653,-0.008510,0.297168,-0.871900,-0.277680,0.201139,0.382420,-0.008137,-0.292813,-0.956135,0.133351,0.068372,0.131672,11.094563,3.196617,-47.454971,,,,,,,
1530639871.463621,-0.008569,0.289789,-0.863735,-0.402680,0.074031,0.411182,-0.008212,-0.285750,-0.958269,0.143084,0.059005,0.084108,11.230556,3.530205,-47.122849,,,,,,,
1530639871.483590,-0.010387,0.281460,-0.855309,-0.409008,0.007755,0.417404,-0.009978,-0.277759,-0.960599,0.136626,0.048709,0.024945,11.409096,3.625481,-47.027069,,,,,,,
1530639871.503559,-0.005206,0.279091,-0.848284,0.009159,0.414608,0.309212,-0.005005,-0.275482,-0.961293,0.034836,0.044418,-0.149669,11.664661,3.711609,-47.034454,,,,,,,
1530639871.523528,-0.000596,0.280376,-0.839730,0.076031,0.253394,0.471656,-0.000573,-0.276717,-0.960951,0.126076,0.051894,-0.205690,11.941235,3.578011,-47.058701,,,,,,,
1530639871.543496,-0.003357,0.279910,-0.829768,-0.087648,-0.105459,0.491080,-0.003226,-0.276269,-0.961075,0.094550,0.016610,-0.202316,11.940453,3.525925,-47.128845,,,,,,,
1530639871.563465,-0.008358,0.276284,-0.820449,-0.225508,-0.080647,0.421491,-0.008041,-0.272782,-0.962042,0.025009,0.001603,-0.170191,11.811916,3.476486,-47.151703,,,,,,,
1530639871.583434,-0.008514,0.271202,-0.813490,-0.258151,0.197271,0.302384,-0.008202,-0.267890,-0.963415,-0.013709,0.013984,-0.105616,12.116333,3.382111,-47.090836,,,,,,,
1530639871.603403,-0.003007,0.265808,-0.808746,-0.272072,0.396659,0.204272,-0.002902,-0.262689,-0.964876,-0.005155,0.006082,-0.018553,12.368382,3.832970,-47.028824,,,,,,,
1530639871.623371,0.004309,0.260582,-0.805455,-0.247531,0.402530,0.152267,0.004164,-0.257643,-0.966231,0.027224,0.000715,0.043929,12.663204,3.963318,-46.890427,,,,,,,
1530639871.643340,0.010256,0.256489,-0.802574,-0.177256,0.294317,0.153153,0.009920,-0.253686,-0.967236,0.047422,0.018365,0.069073,12.890575,4.151237,-46.786987,,,,,,,
1530639871.663309,0.014135,0.253975,-0.798776,-0.107480,0.211076,0.214561,0.013681,-0.251254,-0.967825,0.056021,0.012942,0.085226,13.202000,4.156181,-46.600113,,,,,,,
1530639871.683278,0.016003,0.251950,-0.794127,-0.110791,0.127025,0.236838,0.015497,-0.249292,-0.968304,0.034247,-0.001013,0.092801,13.348644,4.401550,-46.316299,,,,,,,
1530639871.703246,0.016600,0.249635,-0.789616,-0.123148,0.067598,0.210805,0.016085,-0.247050,-0.968869,0.003660,-0.025991,0.053067,13.438244,4.307648,-46.423462,,,,,,,
1530639871.723215,0.017013,0.247531,-0.786555,-0.095151,0.059379,0.120944,0.016494,-0.245011,-0.969380,-0.025618,-0.035110,0.003041,13.465088,4.397057,-46.434753,,,,,,,
1530639871.743184,0.019039,0.246575,-0.785618,-0.018808,0.142874,0.015917,0.018462,-0.244084,-0.969578,-0.040999,-0.037257,-0.046581,13.441574,4.469078,-46.239929,,,,,,,
1530639871.763153,0.022890,0.246994,-0.786312,0.030884,0.201718,-0.035017,0.022193,-0.244490,-0.969398,-0.017127,-0.037355,-0.063302,13.728855,4.528976,-46.245880,,,,,,,
1530639871.783121,0.027786,0.248035,-0.787134,0.055941,0.256823,-0.023159,0.026932,-0.245500,-0.969023,0.002319,-0.027190,-0.065859,13.822582,4.410744,-46.036499,,,,,,,
1530639871.803090,0.033125,0.249427,-0.787515,0.072542,0.272124,-0.001691,0.032094,-0.246848,-0.968522,0.014582,-0.019768,-0.058257,14.126003,4.344666,-45.899658,,,,,,,
1530639871.823059,0.037687,0.251362,-0.787590,0.108128,0.213535,0.008437,0.036494,-0.248724,-0.967887,0.020909,-0.016962,-0.050317,14.381260,4.234390,-45.879807,,,,,,,
1530639871.843028,0.041020,0.254069,-0.787385,0.149890,0.154847,0.032513,0.039692,-0.251344,-0.967084,0.029323,-0.015013,-0.029575,14.635345,4.243423,-45.904663,,,,,,,
1530639871.862997,0.042910,0.257484,-0.786794,0.177056,0.063114,0.046878,0.041483,-0.254648,-0.966144,0.029165,-0.017508,-0.022504,14.626717,4.034492,-46.047073,,,,,,,
1530639871.882965,0.041999,0.261005,-0.786182,0.173984,-0.099126,0.041816,0.040565,-0.258052,-0.965279,0.025902,-0.021352,-0.035163,14.647888,3.778717,-45.686508,,,,,,,
1530639871.902934,0.038166,0.264416,-0.786017,0.167978,-0.235789,0.009941,0.036831,-0.261346,-0.964542,0.015659,-0.015342,-0.041470,14.365486,3.621178,-45.955185,,,,,,,
1530639871.922903,0.033302,0.267355,-0.786664,0.132728,-0.247580,-0.039352,0.032113,-0.264182,-0.963938,0.008262,-0.015451,-0.021032,14.128132,3.446587,-45.833603,,,,,,,
1530639871.942872,0.028464,0.268741,-0.788549,0.024179,-0.293483,-0.100970,0.027438,-0.265518,-0.963715,0.003629,-0.016328,-0.020156,13.811592,3.426895,-45.849350,,,,,,,
1530639871.962840,0.022149,0.267460,-0.791258,-0.101401,-0.391487,-0.130301,0.021360,-0.264282,-0.964209,0.000598,0.003189,-0.075464,13.529682,3.475677,-46.131073,,,,,,,
1530639871.982808,0.015729,0.265705,-0.794462,-0.045636,-0.304124,-0.155280,0.015176,-0.262590,-0.964788,-0.010126,0.027208,-0.167658,13.255440,3.835243,-46.128693,,,,,,,
1530639872.002777,0.015157,0.267721,-0.798508,0.201143,0.070380,-0.206798,0.014616,-0.264534,-0.964265,-0.034819,0.053475,-0.173659,13.019184,3.942627,-46.056152,,,,,,,
1530639872.026482,0.023729,0.275472,-0.805312,0.373695,0.356770,-0.283828,0.022832,-0.272001,-0.962026,-0.032369,0.039854,-0.069987,13.411007,3.348206,-46.140121,,,,,,,
,,,,,,,,,,,,,,,,39.778891,-84.063193,291.096767,-1.000000,-1.000000,1530639871.448030,
1530639872.046451,0.033138,0.282645,-0.812549,0.342777,0.352825,-0.350389,0.031817,-0.278897,-0.959794,-0.001818,0.018246,0.075684,13.845119,3.055008,-45.949112,,,,,,,
,,,,,,,,,,,,,,,,39.778908,-84.063209,291.090298,-1.000000,-1.000000,1530639872.000030,
1530639872.066419,0.041073,0.287752,-0.820592,0.240262,0.248184,-0.378919,0.039373,-0.283797,-0.958076,0.007166,0.025420,0.116858,13.931129,3.160118,-45.868423,,,,,,,
1530639872.086388,0.047106,0.291695,-0.828825,0.209654,0.169637,-0.353092,0.045100,-0.287576,-0.956695,0.039983,0.016397,0.092911,14.116257,3.251671,-45.913239,,,,,,,
1530639872.106357,0.051144,0.295702,-0.835021,0.216020,0.067228,-0.230699,0.048903,-0.291411,-0.955347,0.045290,-0.011949,0.032434,13.997593,3.197060,-45.692062,,,,,,,
1530639872.126327,0.051493,0.299676,-0.839045,0.206912,-0.094577,-0.138629,0.049176,-0.295211,-0.954166,0.030978,-0.000199,-0.017148,14.186848,3.024521,-45.702240,,,,,,,
1530639872.146294,0.048810,0.303462,-0.841536,0.186527,-0.195435,-0.079580,0.046562,-0.298826,-0.953171,0.004250,0.021192,-0.037567,13.972927,2.808189,-45.911469,,,,,,,
1530639872.166263,0.045285,0.306267,-0.842958,0.113828,-0.187973,-0.037783,0.043163,-0.301501,-0.952488,-0.000041,0.027438,-0.028515,13.761181,2.665466,-45.993408,,,,,,,
1530639872.186232,0.042298,0.307458,-0.843993,0.029876,-0.153769,-0.031330,0.040302,-0.302637,-0.952253,-0.003651,0.022135,-0.019701,13.598122,2.665237,-45.918793,,,,,,,
1530639872.206202,0.040594,0.307445,-0.844878,-0.008933,-0.069849,-0.032672,0.038680,-0.302624,-0.952325,0.000932,0.028302,-0.007667,13.510147,2.533829,-46.036270,,,,,,,
1530639872.226171,0.040214,0.307341,-0.845616,0.012976,-0.016958,-0.019702,0.038319,-0.302525,-0.952371,0.016613,0.032017,-0.002799,13.448158,2.587692,-46.111298,,,,,,,
1530639872.246138,0.040170,0.308015,-0.846147,0.059030,-0.000486,-0.009326,0.038270,-0.303168,-0.952168,0.024597,0.032447,0.001515,13.362164,2.342697,-45.864777,,,,,,,
1530639872.266108,0.040540,0.309781,-0.846348,0.114443,0.034690,0.009656,0.038600,-0.304850,-0.951618,0.024526,0.037028,0.006183,13.378403,2.613594,-46.017670,,,,,,,
1530639872.286077,0.042234,0.312605,-0.846287,0.162569,0.121802,0.021429,0.040175,-0.307538,-0.950687,0.022096,0.031537,0.019077,13.480034,2.262871,-46.202316,,,,,,,
1530639872.306046,0.045420,0.315968,-0.846144,0.170936,0.180298,0.022700,0.043157,-0.310737,-0.949516,0.024302,0.027976,0.030372,13.787804,2.123360,-46.115662,,,,,,,
1530639872.326013,0.049084,0.318685,-0.846036,0.121669,0.191372,0.020046,0.046594,-0.313318,-0.948504,0.014960,0.021494,0.038913,13.897766,2.018753,-46.059235,,,,,,,
1530639872.345983,0.052657,0.320388,-0.845877,0.071301,0.160446,0.024748,0.049954,-0.314935,-0.947798,0.009433,0.019220,0.015150,13.870564,2.101021,-45.947113,,,,,,,
1530639872.365952,0.054090,0.321198,-0.845530,0.028246,0.029021,0.035358,0.051298,-0.315704,-0.947470,0.006792,0.015456,-0.006479,13.836502,2.213753,-45.919174,,,,,,,
1530639872.385921,0.052886,0.321224,-0.844766,-0.013852,-0.083714,0.056835,0.050158,-0.315728,-0.947523,-0.010165,0.012414,-0.012743,13.819794,2.124565,-45.832764,,,,,,,
1530639872.405889,0.050206,0.320523,-0.843533,-0.048559,-0.118015,0.069981,0.047629,-0.315063,-0.947875,-0.024680,0.019363,-0.009294,13.789227,2.037880,-45.814651,,,,,,,
1530639872.425858,0.047903,0.319396,-0.842191,-0.062220,-0.078286,0.072474,0.045463,-0.313993,-0.948336,-0.033301,0.016050,0.000353,13.743141,1.940552,-46.079117,,,,,,,
1530639872.445827,0.046190,0.317954,-0.840802,-0.075857,-0.061725,0.072701,0.043860,-0.312624,-0.948864,-0.038138,0.017138,0.000026,13.654381,2.156738,-46.014587,,,,,,,
1530639872.465796,0.044398,0.316454,-0.839465,-0.075819,-0.068318,0.068356,0.042180,-0.311199,-0.949408,-0.032368,0.017895,-0.002344,13.560905,2.166656,-45.949966,,,,,,,
1530639872.485765,0.042515,0.315076,-0.838134,-0.066381,-0.067217,0.068260,0.040410,-0.309889,-0.949914,-0.034108,0.016569,0.002358,13.495453,2.248253,-46.001404,,,,,,,
1530639872.505733,0.040128,0.313904,-0.836862,-0.049550,-0.108027,0.062486,0.038157,-0.308774,-0.950370,-0.034586,0.012281,-0.008508,13.528530,2.177681,-45.941559,,,,,,,
1530639872.525702,0.037560,0.313341,-0.835976,-0.014791,-0.097974,0.043835,0.035722,-0.308239,-0.950638,-0.034929,0.014721,-0.010483,13.295914,2.210106,-46.167511,,,,,,,
1530639872.545671,0.035648,0.313097,-0.835528,-0.012589,-0.065865,0.029941,0.033908,-0.308006,-0.950780,-0.027514,0.012001,0.006291,13.106628,2.368462,-46.040848,,,,,,,
1530639872.565639,0.034361,0.312623,-0.835168,-0.030353,-0.044827,0.021603,0.032689,-0.307555,-0.950968,-0.021230,0.007705,0.012278,13.223167,2.502571,-46.101288,,,,,,,
1530639872.585608,0.033058,0.311783,-0.834915,-0.045004,-0.060256,0.018452,0.031459,-0.306756,-0.951268,-0.015574,0.004770,-0.005809,13.100746,2.444016,-45.937988,,,,,,,
1530639872.605577,0.031320,0.310936,-0.834751,-0.033400,-0.090011,0.010634,0.029814,-0.305950,-0.951581,-0.017317,0.003429,-0.030796,13.128723,2.171364,-46.128906,,,,,,,
1530639872.625546,0.028939,0.310618,-0.834685,-0.004018,-0.124231,0.009077,0.027550,-0.305647,-0.951746,-0.015770,0.001524,-0.037924,12.884739,2.094131,-46.006592,,,,,,,
1530639872.645514,0.025881,0.310563,-0.834709,-0.009210,-0.155102,0.003592,0.024640,-0.305594,-0.951843,-0.020627,-0.001306,-0.019547,12.881493,2.288574,-46.401001,,,,,,,
1530639872.665483,0.022855,0.309962,-0.834821,-0.038578,-0.139640,0.003980,0.021764,-0.305023,-0.952096,-0.016439,-0.001664,-0.009192,12.708672,2.219917,-46.292221,,,,,,,
1530639872.685452,0.020294,0.308991,-0.834879,-0.046982,-0.119775,0.005244,0.019332,-0.304098,-0.952444,-0.010024,0.001928,-0.007822,12.496685,2.553230,-46.353302,,,,,,,
1530639872.705420,0.018217,0.308292,-0.835004,-0.020736,-0.091051,0.000786,0.017358,-0.303432,-0.952695,-0.009713,0.001018,-0.011279,12.408203,2.423729,-46.336685,,,,,,,
1530639872.725389,0.016489,0.308358,-0.835155,0.017001,-0.084452,0.002575,0.015710,-0.303495,-0.952703,-0.006860,0.006147,-0.015345,12.241440,2.435356,-46.343552,,,,,,,
1530639872.745358,0.014472,0.308908,-0.835259,0.030613,-0.107660,0.005552,0.013786,-0.304019,-0.952566,0.001229,0.007113,-0.015436,12.162411,2.486961,-46.305054,,,,,,,
1530639872.765326,0.012096,0.309451,-0.835463,0.028596,-0.117527,-0.004184,0.011521,-0.304536,-0.952431,-0.003144,0.012330,-0.012397,12.199818,2.251419,-46.325821,,,,,,,
1530639872.785295,0.010081,0.309999,-0.835932,0.026619,-0.099760,-0.019172,0.009600,-0.305057,-0.952285,-0.003360,0.018589,-0.008210,11.975517,2.152542,-46.457581,,,,,,,
1530639872.805264,0.008403,0.310219,-0.836763,0.003665,-0.085299,-0.033959,0.008002,-0.305267,-0.952233,-0.002814,0.019638,0.000069,11.869774,2.244888,-46.355377,,,,,,,
1530639872.825233,0.007103,0.309821,-0.837828,-0.028768,-0.077497,-0.043280,0.006765,-0.304888,-0.952364,-0.003347,0.018923,-0.005827,11.823471,2.390739,-46.327209,,,,,,,
1530639872.845201,0.005872,0.309090,-0.838937,-0.034021,-0.074191,-0.042128,0.005594,-0.304192,-0.952594,-0.007669,0.018975,-0.020199,11.683697,2.457054,-46.103165,,,,,,,
1530639872.865170,0.004644,0.308628,-0.840065,-0.014068,-0.081901,-0.045618,0.004424,-0.303752,-0.952741,-0.009292,0.021022,-0.026629,11.693661,2.251945,-46.320023,,,,,,,
1530639872.885139,0.003277,0.308312,-0.841174,-0.013047,-0.077508,-0.042372,0.003123,-0.303451,-0.952842,-0.008952,0.018386,-0.012093,11.617184,2.528694,-46.459290,,,,,,,
1530639872.905108,0.002151,0.307956,-0.842185,-0.015173,-0.065387,-0.039054,0.002050,-0.303111,-0.952953,-0.014196,0.016353,-0.004414,11.507370,2.500168,-46.357208,,,,,,,
1530639872.925076,0.001130,0.307548,-0.843099,-0.024755,-0.055569,-0.021648,0.001077,-0.302723,-0.953078,0.001670,0.020405,0.006102,11.653046,2.677757,-46.413239,,,,,,,
1530639872.945045,0.000048,0.306703,-0.843378,-0.045907,-0.053505,0.000157,0.000046,-0.301917,-0.953334,0.001068,0.025000,0.011730,11.452446,2.523323,-46.380356,,,,,,,
1530639872.965014,-0.001183,0.305516,-0.843584,-0.057396,-0.066712,-0.005178,-0.001128,-0.300786,-0.953691,-0.005280,0.010914,-0.001463,11.400921,2.572289,-46.474548,,,,,,,
1530639872.984983,-0.002272,0.304592,-0.844098,-0.031051,-0.046737,-0.021542,-0.002167,-0.299904,-0.953967,-0.012741,0.007881,-0.011884,11.247383,2.602882,-46.311340,,,,,,,
1530639873.004951,-0.002404,0.304279,-0.844944,-0.004764,0.004102,-0.031281,-0.002294,-0.299606,-0.954060,-0.006190,0.007476,-0.012203,11.255676,2.763565,-46.281876,,,,,,,
1530639873.024920,-0.001824,0.304376,-0.845809,0.014117,0.019559,-0.032491,-0.001740,-0.299698,-0.954033,0.004792,0.000992,-0.016564,11.356823,2.743217,-46.388748,,,,,,,
1530639873.044889,-0.000776,0.304916,-0.846588,0.041325,0.057040,-0.026124,-0.000740,-0.300213,-0.953872,0.009727,0.000912,-0.013551,11.433052,2.504730,-46.411896,,,,,,,
1530639873.064858,0.000898,0.306033,-0.847222,0.068524,0.088993,-0.018708,0.000856,-0.301278,-0.953536,0.013670,-0.002814,-0.022493,11.486156,2.569099,-46.383041,,,,,,,
,,,,,,,,,,,,,,,,39.778938,-84.063229,290.011196,-1.000000,-1.000000,1530639873.000061,
1530639873.084827,0.002686,0.307535,-0.847719,0.082114,0.085640,-0.013477,0.002560,-0.302711,-0.953079,0.013569,-0.010049,-0.033310,11.601051,2.335983,-46.222397,,,,,,,
1530639873.104795,0.004561,0.309556,-0.848128,0.121901,0.093305,-0.006321,0.004344,-0.304636,-0.952459,0.019536,-0.004827,-0.042826,11.644966,2.264694,-46.241974,,,,,,,
1530639873.124764,0.006689,0.312892,-0.848277,0.200421,0.118563,0.009145,0.006364,-0.307812,-0.951426,0.028197,-0.005207,-0.048742,11.603088,2.267067,-46.197311,,,,,,,
1530639873.144733,0.009324,0.317344,-0.848145,0.226581,0.141693,0.015447,0.008858,-0.312044,-0.950026,0.019050,0.007250,-0.017808,11.921642,1.697533,-46.223984,,,,,,,
1530639873.164702,0.011924,0.321029,-0.848242,0.155456,0.120894,-0.006542,0.011314,-0.315543,-0.948844,0.004601,0.009467,0.004065,11.915482,1.788078,-46.132568,,,,,,,
1530639873.184670,0.014743,0.323037,-0.849476,0.078319,0.135667,-0.063889,0.013980,-0.317448,-0.948172,0.003476,0.001851,0.012092,12.072056,1.619820,-46.212769,,,,,,,
1530639873.204639,0.018093,0.323661,-0.851156,0.009181,0.139063,-0.072840,0.017152,-0.318040,-0.947922,0.021178,-0.002120,0.016999,12.175766,1.480698,-46.187042,,,,,,,
1530639873.224608,0.020802,0.323063,-0.852718,-0.040164,0.097076,-0.064971,0.019724,-0.317473,-0.948062,0.027288,0.014738,0.011523,12.248463,1.766357,-46.176926,,,,,,,
1530639873.244577,0.022999,0.321741,-0.854330,-0.073686,0.088283,-0.068967,0.021817,-0.316219,-0.948435,0.016315,0.019817,0.019206,12.460331,1.580620,-46.164871,,,,,,,
1530639873.264546,0.024685,0.319627,-0.856011,-0.123963,0.045289,-0.075109,0.023432,-0.314213,-0.949063,0.010885,0.016621,0.014462,12.316406,2.105255,-46.101624,,,,,,,
1530639873.284514,0.025891,0.316905,-0.857666,-0.136571,0.035335,-0.071786,0.024599,-0.311627,-0.949886,0.003722,0.015149,0.006344,12.487514,2.066879,-46.097336,,,,,,,
1530639873.304483,0.027081,0.314228,-0.859066,-0.130464,0.037385,-0.049193,0.025752,-0.309083,-0.950686,0.007420,0.017411,0.010776,12.505077,2.287781,-46.209137,,,,,,,
1530639873.324452,0.027947,0.311585,-0.860166,-0.128396,0.014173,-0.045013,0.026598,-0.306568,-0.951477,0.007948,0.015613,0.010910,12.453663,2.762634,-46.104294,,,,,,,
1530639873.344421,0.028173,0.309049,-0.861567,-0.119795,-0.027605,-0.070115,0.026835,-0.304153,-0.952245,0.000967,0.004668,-0.004771,12.463726,2.790405,-46.079269,,,,,,,
1530639873.364389,0.027403,0.306756,-0.863356,-0.111313,-0.078319,-0.080156,0.026120,-0.301968,-0.952960,-0.004453,0.006146,-0.015973,12.387112,2.807205,-46.081070,,,,,,,
1530639873.384358,0.026312,0.304286,-0.865250,-0.133286,-0.078268,-0.086396,0.025100,-0.299612,-0.953731,-0.005462,0.008566,0.006496,12.281891,2.912880,-46.187775,,,,,,,
1530639873.404327,0.025155,0.300940,-0.867177,-0.180515,-0.104787,-0.080622,0.024022,-0.296418,-0.954756,0.001201,0.001619,0.017714,12.103180,2.929298,-46.100525,,,,,,,
1530639873.424296,0.022454,0.297042,-0.868372,-0.196597,-0.187887,-0.035556,0.021469,-0.292693,-0.955965,0.015640,0.008330,0.014193,12.007736,3.239067,-46.092819,,,,,,,
1530639873.444265,0.016890,0.293275,-0.868852,-0.175839,-0.341548,-0.005240,0.016168,-0.289089,-0.957166,0.026175,0.010632,0.005368,11.712917,3.412460,-46.297256,,,,,,,
1530639873.464233,0.007815,0.290349,-0.869014,-0.133934,-0.523773,0.004217,0.007488,-0.286286,-0.958115,0.013493,0.017854,0.001755,11.349010,3.752052,-46.222000,,,,,,,
1530639873.484202,-0.004138,0.288123,-0.869170,-0.102371,-0.644044,-0.005327,-0.003968,-0.284154,-0.958771,-0.001434,0.002766,0.009094,10.799072,3.400497,-46.464722,,,,,,,
1530639873.504171,-0.016862,0.286249,-0.870576,-0.099602,-0.662244,-0.087414,-0.016175,-0.282355,-0.959174,-0.019271,0.003760,0.025473,10.286865,3.623055,-46.614136,,,,,,,
1530639873.524140,-0.029039,0.283658,-0.873386,-0.153789,-0.647582,-0.129905,-0.027874,-0.279869,-0.959633,0.000332,0.008675,0.033684,9.555195,3.909584,-46.629944,,,,,,,
1530639873.544109,-0.039925,0.280753,-0.876405,-0.134963,-0.542740,-0.126364,-0.038351,-0.277079,-0.960081,0.006888,0.019785,0.021361,8.918758,3.965118,-46.801086,,,,,,,
1530639873.564077,-0.047542,0.279069,-0.879446,-0.060537,-0.357300,-0.127341,-0.045686,-0.275461,-0.960226,-0.001738,0.027216,0.000601,8.451904,4.163208,-46.765411,,,,,,,
1530639873.584046,-0.051995,0.279239,-0.881943,0.038805,-0.211829,-0.096422,-0.049958,-0.275624,-0.959966,0.001145,0.007374,-0.026514,8.248577,3.963860,-46.838013,,,,,,,
1530639873.604015,-0.055907,0.280983,-0.883435,0.098193,-0.239777,-0.048660,-0.053687,-0.277300,-0.959282,0.006232,0.002764,-0.044639,7.928398,4.073334,-46.742355,,,,,,,
1530639873.623984,-0.061642,0.283250,-0.884277,0.118020,-0.332612,-0.034217,-0.059148,-0.279478,-0.958328,-0.004267,-0.013063,-0.043579,7.511353,4.088455,-47.016373,,,,,,,
1530639873.643953,-0.068656,0.285256,-0.885433,0.090992,-0.382086,-0.062210,-0.065830,-0.281403,-0.957329,-0.005093,-0.015030,-0.022972,7.240902,3.977852,-46.805664,,,,,,,
1530639873.663921,-0.076299,0.286332,-0.887104,0.023978,-0.417311,-0.073527,-0.073121,-0.282435,-0.956495,0.007737,-0.004231,-0.009218,6.932579,3.938332,-46.854843,,,,,,,
1530639873.683890,-0.084120,0.286018,-0.888573,-0.040184,-0.409724,-0.050161,-0.080608,-0.282134,-0.955983,0.008662,-0.002091,-0.001674,6.404896,3.929741,-46.920258,,,,,,,
1530639873.703859,-0.091710,0.284857,-0.889984,-0.065313,-0.394226,-0.055209,-0.087891,-0.281021,-0.955669,0.003418,-0.010087,-0.008504,6.111164,4.215332,-46.927765,,,,,,,
1530639873.723828,-0.098849,0.284603,-0.891976,0.011676,-0.385049,-0.108831,-0.094719,-0.280776,-0.955088,-0.007637,-0.007890,-0.017873,5.645042,4.314949,-47.096466,,,,,,,
1530639873.743797,-0.106806,0.286330,-0.895329,0.093070,-0.497144,-0.185740,-0.102263,-0.282433,-0.953821,-0.007158,-0.009269,-0.027442,5.261986,4.072586,-47.270859,,,,,,,
1530639873.763765,-0.116674,0.289120,-0.899700,0.126933,-0.579705,-0.221009,-0.111578,-0.285109,-0.951979,0.003408,-0.003832,-0.021425,4.790592,4.242783,-47.115128,,,,,,,
1530639873.783734,-0.126807,0.292433,-0.904392,0.142757,-0.564172,-0.232968,-0.121098,-0.288283,-0.949857,0.003133,0.007918,-0.010257,4.245216,3.965279,-47.095551,,,,,,,
1530639873.803703,-0.136028,0.295474,-0.908556,0.113016,-0.501549,-0.188129,-0.129732,-0.291194,-0.947827,0.011690,0.009669,-0.007404,3.720978,3.808762,-47.054260,,,,,,,
1530639873.823672,-0.143653,0.298018,-0.912400,0.099304,-0.401137,-0.181030,-0.136849,-0.293626,-0.946074,-0.006996,0.005876,-0.006181,3.163792,3.728584,-47.283356,,,,,,,
1530639873.843641,-0.150254,0.299876,-0.915720,0.050738,-0.374900,-0.141559,-0.143009,-0.295402,-0.944609,0.007907,0.003593,-0.002336,2.730240,3.668228,-47.361603,,,,,,,
1530639873.863609,-0.156936,0.300432,-0.918521,-0.009267,-0.378391,-0.112893,-0.149292,-0.295933,-0.943470,0.015427,0.009984,0.008427,2.349758,3.503059,-47.208008,,,,,,,
1530639873.883578,-0.163423,0.300106,-0.920927,-0.034634,-0.353159,-0.088768,-0.155425,-0.295621,-0.942577,0.018722,0.021848,-0.002995,2.011475,3.849487,-47.311493,,,,,,,
1530639873.903547,-0.169396,0.299627,-0.922969,-0.038972,-0.316842,-0.072374,-0.161075,-0.295164,-0.941771,0.019169,0.021207,-0.010621,1.792934,3.557655,-47.255356,,,,,,,
1530639873.923516,-0.175029,0.298679,-0.924446,-0.069690,-0.292803,-0.035258,-0.166427,-0.294258,-0.941124,0.012130,0.007561,-0.012062,1.399799,3.821388,-47.325211,,,,,,,
1530639873.943485,-0.179367,0.296906,-0.925796,-0.111650,-0.216617,-0.035524,-0.170600,-0.292563,-0.940905,0.000175,0.005942,-0.002332,1.264908,4.061768,-47.181061,,,,,,,
1530639873.963453,-0.182886,0.294732,-0.927179,-0.108572,-0.193488,-0.027897,-0.174026,-0.290483,-0.940922,0.014831,0.008394,-0.014049,1.058689,4.164383,-47.209381,,,,,,,
1530639873.983423,-0.185903,0.293200,-0.928137,-0.055185,-0.150525,-0.017476,-0.176946,-0.289017,-0.940829,0.006445,0.009049,-0.028196,0.953064,4.251099,-47.230057,,,,,,,
1530639874.003392,-0.187896,0.293100,-0.929057,0.017324,-0.090800,-0.037373,-0.178826,-0.288921,-0.940503,-0.010322,-0.002720,-0.034824,0.883640,4.215179,-47.196411,,,,,,,
1530639874.023361,-0.188949,0.294175,-0.930090,0.059379,-0.057597,-0.051684,-0.179758,-0.289950,-0.940008,-0.010137,-0.011533,-0.031961,0.793320,4.097610,-47.251938,,,,,,,
1530639874.043330,-0.189936,0.295453,-0.931298,0.047909,-0.066373,-0.059149,-0.180616,-0.291173,-0.939466,-0.000994,-0.003565,-0.022692,0.735092,4.018661,-47.059570,,,,,,,
1530639874.063298,-0.190888,0.296031,-0.932690,0.000783,-0.062989,-0.067262,-0.181478,-0.291726,-0.939128,-0.002177,0.002099,-0.009206,0.812462,3.705070,-47.222794,,,,,,,
,,,,,,,,,,,,,,,,39.778967,-84.063238,290.103664,-1.000000,-1.000000,1530639874.000060,
1530639874.083267,-0.190907,0.295828,-0.934481,-0.036874,0.003350,-0.080562,-0.181507,-0.291532,-0.939183,-0.010860,-0.002322,0.003712,0.669487,3.985107,-47.183044,,,,,,,
1530639874.103236,-0.189043,0.295180,-0.936491,-0.049564,0.108155,-0.070214,-0.179792,-0.290912,-0.939705,-0.004519,-0.010892,0.005379,0.842007,4.098198,-47.352005,,,,,,,
1530639874.123205,-0.185551,0.294603,-0.938253,-0.032807,0.167752,-0.069028,-0.176540,-0.290360,-0.940492,-0.014180,-0.008453,-0.022582,0.943684,3.997337,-47.267899,,,,,,,
1530639874.143174,-0.181655,0.294555,-0.939989,-0.004465,0.174391,-0.072530,-0.172877,-0.290314,-0.941186,-0.008260,-0.004012,-0.034003,1.036354,4.134277,-47.104080,,,,,,,
1530639874.163143,-0.177959,0.295068,-0.941655,0.020735,0.161160,-0.076099,-0.169371,-0.290805,-0.941672,-0.006075,0.005252,-0.030374,1.204575,3.845314,-47.151199,,,,,,,
1530639874.183111,-0.174643,0.296077,-0.943217,0.045865,0.140143,-0.071077,-0.166196,-0.291770,-0.941939,-0.000811,0.001243,-0.021150,1.382519,3.845787,-47.233704,,,,,,,
1530639874.203080,-0.171784,0.297682,-0.944557,0.079395,0.123546,-0.067199,-0.163423,-0.293305,-0.941948,0.001176,0.006973,-0.018288,1.377201,3.818954,-47.266693,,,,,,,
1530639874.223049,-0.169065,0.299465,-0.945743,0.077245,0.124606,-0.060699,-0.160772,-0.295009,-0.941872,0.004095,0.007381,-0.001213,1.504105,3.900291,-47.177658,,,,,,,
1530639874.243018,-0.166267,0.300896,-0.946794,0.059310,0.128936,-0.047544,-0.158066,-0.296376,-0.941900,0.009263,0.006550,-0.001505,1.684231,3.728821,-47.249573,,,,,,,
1530639874.262987,-0.163985,0.301894,-0.947353,0.047508,0.096696,-0.014142,-0.155868,-0.297329,-0.941966,0.014968,0.005276,-0.004826,1.799103,3.702248,-47.039124,,,,,,,
1530639874.282955,-0.162372,0.302936,-0.947439,0.059939,0.077792,0.005049,-0.154298,-0.298324,-0.941910,0.008515,0.004913,-0.009460,1.886028,3.646156,-46.938644,,,,,,,
1530639874.302924,-0.160996,0.304329,-0.947099,0.082924,0.071089,0.015553,-0.152936,-0.299653,-0.941710,0.011960,0.004030,-0.014070,2.063213,3.703476,-47.056168,,,,,,,
1530639874.322893,-0.160279,0.306135,-0.946543,0.099636,0.034589,0.024909,-0.152174,-0.301376,-0.941284,0.021482,0.013305,-0.008087,1.940338,3.480888,-47.310501,,,,,,,
1530639874.342862,-0.160276,0.307804,-0.945748,0.089041,0.002482,0.038888,-0.152090,-0.302966,-0.940787,0.027228,0.015155,-0.002954,1.907154,3.581512,-47.116302,,,,,,,
1530639874.362831,-0.160659,0.309239,-0.944902,0.071206,-0.004144,0.040126,-0.152380,-0.304334,-0.940298,0.018042,0.011334,0.005499,1.927311,3.531052,-47.069427,,,,,,,
1530639874.382800,-0.161005,0.310185,-0.944134,0.048186,-0.010716,0.033866,-0.152660,-0.305235,-0.939961,0.018886,0.012922,0.000401,1.959969,3.250183,-46.994385,,,,,,,
1530639874.402768,-0.162137,0.310918,-0.943792,0.039998,-0.082310,0.010958,-0.153688,-0.305933,-0.939566,0.028245,0.013071,-0.013910,1.979259,3.409622,-46.963409,,,,,,,
1530639874.422737,-0.164914,0.311603,-0.944303,0.026761,-0.193485,-0.034733,-0.156262,-0.306585,-0.938929,0.036617,0.016927,-0.014898,1.686569,3.231888,-47.107834,,,,,,,
1530639874.442706,-0.170545,0.311530,-0.945493,-0.031802,-0.382129,-0.050120,-0.161550,-0.306515,-0.938057,0.064290,0.023052,-0.008065,1.580215,3.234367,-47.285675,,,,,,,
1530639874.462675,-0.180946,0.310592,-0.947859,-0.079386,-0.667522,-0.123249,-0.171350,-0.305623,-0.936608,0.083108,0.021565,-0.011650,0.801235,3.324318,-47.210709,,,,,,,
1530639874.482644,-0.197506,0.309554,-0.952968,-0.085318,-1.083676,-0.285893,-0.186898,-0.304634,-0.933953,0.085900,0.011497,-0.051124,-0.137848,3.517197,-46.946808,,,,,,,
1530639874.502612,-0.223418,0.311233,-0.961633,0.041160,-1.676298,-0.477756,-0.210920,-0.306233,-0.928297,0.138608,0.010914,-0.063891,-1.737741,3.555290,-46.800903,,,,,,,
1530639874.522581,-0.264562,0.315490,-0.974861,0.055102,-2.655809,-0.749026,-0.248581,-0.310283,-0.917569,0.158676,0.096339,-0.051654,-4.072453,3.422607,-46.621704,,,,,,,
1530639874.542550,-0.326018,0.321244,-0.991960,0.042806,-3.723444,-0.886704,-0.303889,-0.315747,-0.898863,0.211421,0.073208,-0.077532,-7.276497,3.202362,-46.205414,,,,,,,
1530639874.562519,-0.405647,0.328592,-1.009975,0.044255,-4.500398,-0.916347,-0.373501,-0.322710,-0.869687,0.181972,0.110720,-0.115360,-11.134689,3.059334,-45.483459,,,,,,,
1530639874.582488,-0.482365,0.338446,-1.025427,0.230901,-3.677696,-0.806525,-0.437561,-0.332021,-0.835645,0.057403,0.180669,-0.152453,-14.738138,2.892357,-44.339325,,,,,,,
1530639874.602456,-0.551488,0.348879,-1.036386,0.076093,-3.798338,-0.594059,-0.492390,-0.341845,-0.800433,0.100499,0.055071,-0.095944,-18.041864,2.594948,-43.264053,,,,,,,
1530639874.622425,-0.615884,0.344718,-1.049198,-0.953999,-2.741200,-0.325605,-0.543695,-0.337931,-0.768243,0.005167,0.085551,0.517968,-20.425098,2.856277,-41.786087,,,,,,,
1530639874.642394,-0.617950,0.321182,-1.080270,-2.157489,0.476662,-0.579824,-0.549738,-0.315689,-0.773388,-0.046377,0.102935,0.861904,-20.797155,4.477890,-41.608841,,,,,,,
1530639874.662363,-0.592953,0.291457,-1.106756,-1.735295,0.626295,0.110961,-0.535245,-0.287348,-0.794319,0.358167,0.064890,-0.340065,-20.391098,5.879753,-41.807175,,,,,,,
1530639874.682332,-0.590574,0.268389,-1.122298,-1.212838,-0.406667,-0.277076,-0.536903,-0.265179,-0.800884,0.221213,0.292095,-0.309834,-20.657307,7.012749,-41.667175,,,,,,,
1530639874.702301,-0.589367,0.266660,-1.156767,-0.797530,-0.260500,-1.957899,-0.536190,-0.263511,-0.801912,0.174694,0.281944,-0.081145,-21.195648,7.348549,-41.731888,,,,,,,
1530639874.722269,-0.571964,0.286938,-1.197269,0.046028,0.795334,-1.908960,-0.519154,-0.283016,-0.806462,0.257985,0.053951,0.044590,-20.770237,6.477341,-41.772995,,,,,,,
1530639874.742238,-0.541097,0.298939,-1.219262,-0.200271,1.205972,-0.777290,-0.492233,-0.294506,-0.819129,0.468551,-0.152607,0.203407,-19.841278,6.117508,-41.988556,,,,,,,
1530639874.762207,-0.535889,0.289474,-1.224833,-0.725549,-0.310880,0.534639,-0.489361,-0.285448,-0.824042,0.556668,-0.002638,0.014441,-19.767960,6.874191,-41.769867,,,,,,,
1530639874.782176,-0.551761,0.264006,-1.215091,-0.901271,-0.770669,1.262294,-0.506026,-0.260950,-0.822096,0.474502,0.447229,0.212157,-20.146397,7.868935,-41.377396,,,,,,,
1530639874.802145,-0.568050,0.231768,-1.203105,-1.163223,-0.462143,1.357172,-0.523604,-0.229699,-0.820413,0.477050,0.545601,0.513635,-20.536810,8.926331,-41.146317,,,,,,,
1530639874.822114,-0.562634,0.196240,-1.199730,-1.616058,0.744312,0.918072,-0.523178,-0.194983,-0.829618,0.362823,0.770255,0.666838,-19.975666,10.465416,-40.853302,,,,,,,
1530639874.842082,-0.523956,0.151041,-1.218929,-2.989920,2.325351,-0.007674,-0.494613,-0.150468,-0.855989,0.188583,1.064728,1.018404,-18.470612,12.982277,-41.162903,,,,,,,
1530639874.862051,-0.471732,0.086217,-1.266365,-4.503339,2.071552,-0.748801,-0.452742,-0.086111,-0.887474,0.049726,1.127187,0.482506,-16.953230,16.070747,-40.855072,,,,,,,
1530639874.882020,-0.440066,-0.002241,-1.327950,-5.889864,1.070200,-0.828355,-0.425998,0.002241,-0.904721,-0.198879,1.159166,0.520932,-16.134556,20.179512,-39.725029,,,,,,,
1530639874.901989,-0.442779,-0.117227,-1.399732,-7.193099,-0.635001,-0.817294,-0.425512,0.116959,-0.897363,-0.496409,1.207580,0.135156,-16.501984,25.330093,-37.376862,,,,,,,
1530639874.921958,-0.496618,-0.246335,-1.487077,-7.898376,-2.502729,-0.957914,-0.462072,0.243852,-0.852658,-0.802409,1.082397,-0.204928,-18.553066,30.513229,-32.801338,,,,,,,
1530639874.941926,-0.593794,-0.366094,-1.588248,-7.297239,-3.819020,-1.084992,-0.522433,0.357971,-0.773900,-0.878690,0.744751,-0.857402,-21.561234,34.833755,-27.108185,,,,,,,
1530639874.961895,-0.733201,-0.457301,-1.695154,-6.223661,-5.450350,-1.013712,-0.600484,0.441528,-0.666687,-0.799983,0.354142,-1.024796,-25.023439,38.015533,-20.686386,,,,,,,
1530639874.981863,-0.904970,-0.522728,-1.800956,-5.257121,-6.281907,-0.695847,-0.681390,0.499246,-0.535221,-0.753470,-0.008706,-1.052899,-27.863073,40.067394,-13.790314,,,,,,,
1530639875.001832,-1.074789,-0.559596,-1.899331,-4.115587,-5.628365,-0.913021,-0.745341,0.530844,-0.403326,-0.841375,-0.237982,-0.970972,-30.035263,40.832809,-7.041748,,,,,,,
1530639875.021801,-1.216510,-0.565063,-1.983449,-2.800519,-4.505418,-1.332546,-0.792103,0.535469,-0.292994,-0.762645,-0.417000,-0.937246,-31.641445,40.891930,-1.656044,,,,,,,
1530639875.041769,-1.327169,-0.554104,-2.032207,-1.394444,-4.169741,-0.932850,-0.825260,0.526182,-0.205131,-0.546994,-0.606122,-0.967004,-32.681110,40.483086,2.277412,,,,,,,
1530639875.061738,-1.434058,-0.549267,-2.040337,0.200467,-5.605294,0.016044,-0.844946,0.522062,-0.116262,-0.393122,-0.779676,-1.620432,-32.737419,40.612141,5.726341,,,,,,,
,,,,,,,,,,,,,,,,39.778987,-84.063239,290.208096,-1.000000,-1.000000,1530639875.000058,
1530639875.081707,-1.536661,-0.550002,-2.049560,-0.448152,-4.527050,-0.072138,-0.852027,0.522689,-0.029096,-0.663080,-0.627394,-0.681094,-32.120377,40.645584,10.343353,,,,,,,
1530639875.101676,-1.614438,-0.544127,-2.031840,1.302773,-4.133281,-0.426494,-0.854765,0.517672,0.037327,-0.438158,-0.622545,-1.014515,-31.806305,40.860863,11.978020,,,,,,,
1530639875.121645,-1.671994,-0.538215,-2.000116,1.238090,-3.473615,-0.354669,-0.854232,0.512604,0.086743,-0.139115,-0.443543,-0.595852,-31.338568,40.684357,13.417091,,,,,,,
1530639875.141614,-1.723569,-0.532871,-1.978184,0.704681,-2.906726,-0.413119,-0.851320,0.508008,0.131080,-0.004118,-0.111249,-0.291099,-30.991880,40.782299,14.439743,,,,,,,
1530639875.161582,-1.759594,-0.526384,-1.966008,0.378184,-1.481526,-0.403841,-0.849265,0.502410,0.162272,0.178657,-0.041381,0.028234,-31.035381,40.593872,14.696243,,,,,,,
1530639875.181551,-1.759662,-0.519042,-1.956214,0.325976,0.411119,-0.478282,-0.852854,0.496049,0.163018,0.418437,0.035934,-0.056145,-31.692566,40.626507,14.397507,,,,,,,
1530639875.201520,-1.732199,-0.506482,-1.951186,-0.070189,1.659761,-0.794829,-0.863091,0.485104,0.140528,0.370507,0.052799,-0.216379,-32.550861,39.962048,13.406769,,,,,,,
1530639875.221489,-1.696059,-0.486934,-1.956934,-0.554137,2.031138,-0.998189,-0.876847,0.467919,0.110414,0.206406,0.000801,-0.255434,-33.657269,39.484428,12.494682,,,,,,,
1530639875.241458,-1.659942,-0.464250,-1.967909,-0.580350,2.070683,-1.128219,-0.890607,0.447752,0.079604,0.071927,-0.069014,-0.168548,-34.947414,38.650345,11.701805,,,,,,,
1530639875.261427,-1.626074,-0.438757,-1.977622,-0.500368,1.785824,-1.284676,-0.903897,0.424815,0.050017,0.108838,-0.157877,-0.095793,-35.997292,37.576309,11.086800,,,,,,,
1530639875.281395,-1.599074,-0.411930,-1.987073,-0.432793,1.430671,-1.332406,-0.915983,0.400378,0.025909,0.126554,-0.262927,-0.090728,-36.870682,36.385841,10.198311,,,,,,,
1530639875.301364,-1.569631,-0.390930,-1.987403,0.372742,1.656851,-0.714359,-0.924554,0.381048,-0.001078,0.119882,-0.232656,-0.237524,-37.637131,35.969406,8.612785,,,,,,,
1530639875.321333,-1.531463,-0.385010,-1.966994,1.054022,1.206712,-0.145710,-0.926077,0.375568,-0.036445,-0.239481,-0.487003,-0.048501,-37.942726,36.201004,7.160278,,,,,,,
1530639875.341302,-1.502558,-0.384739,-1.938408,1.588108,0.593565,0.216650,-0.924739,0.375318,-0.063200,-0.258733,-0.379300,-0.279588,-37.756172,36.305298,5.874611,,,,,,,
1530639875.361271,-1.504505,-0.387663,-1.908262,1.168365,-1.414010,0.171534,-0.923761,0.378026,-0.061327,-0.472464,-0.351063,-0.021528,-37.581543,36.282158,5.973610,,,,,,,
1530639875.381239,-1.539538,-0.391182,-1.888559,0.845993,-2.411068,0.378323,-0.924007,0.381281,-0.028892,-0.019566,0.015890,-0.018563,-36.958782,36.829735,6.972527,,,,,,,
1530639875.401208,-1.573947,-0.403767,-1.870218,0.800840,-1.680862,0.624993,-0.919582,0.392885,0.002897,0.231777,0.061323,0.193071,-36.463444,37.140732,7.625214,,,,,,,
1530639875.421177,-1.581465,-0.411393,-1.856715,0.541485,0.018620,0.237978,-0.916512,0.399886,0.009779,0.286523,0.324326,0.191332,-36.288227,37.259224,7.308327,,,,,,,
1530639875.441146,-1.561198,-0.415407,-1.844210,0.654293,1.007481,0.268510,-0.914910,0.403562,-0.008782,0.207863,0.171908,-0.027106,-35.966183,37.535782,6.281746,,,,,,,
1530639875.461115,-1.540318,-0.424240,-1.830882,0.497141,0.588524,0.518386,-0.910928,0.411629,-0.027772,0.012018,0.319115,-0.067656,-35.734158,37.787598,5.514923,,,,,,,
1530639875.481084,-1.525340,-0.431415,-1.822680,0.308654,0.674511,0.225292,-0.907437,0.418157,-0.041277,-0.191562,0.512996,0.182070,-35.513767,37.652214,4.768623,,,,,,,
1530639875.501052,-1.498349,-0.430997,-1.816903,0.213423,1.546526,-0.077946,-0.906166,0.417776,-0.065765,-0.049079,0.539301,0.293929,-35.562328,37.569229,3.695778,,,,,,,
1530639875.521021,-1.466948,-0.428947,-1.814309,0.148292,1.523264,-0.063342,-0.904505,0.415914,-0.094271,0.100290,0.509929,0.035570,-35.795525,37.638069,2.479828,,,,,,,
1530639875.540990,-1.423469,-0.424255,-1.806472,0.536736,2.301475,-0.393757,-0.901473,0.411642,-0.133781,0.099517,0.499995,-0.088478,-35.816711,37.318611,0.623795,,,,,,,
1530639875.560959,-1.362121,-0.405056,-1.794819,0.765790,3.193256,-0.856744,-0.899142,0.394070,-0.190400,0.405718,0.692859,-0.161925,-36.218307,36.924767,-1.965530,,,,,,,
1530639875.580928,-1.290619,-0.386482,-1.789236,0.207494,3.390515,-0.940440,-0.890123,0.376933,-0.256130,0.208131,0.372671,0.240353,-36.494400,36.139595,-4.523842,,,,,,,
1530639875.600897,-1.234222,-0.370724,-1.791562,0.062057,2.451888,-0.571325,-0.879768,0.362291,-0.307820,0.316521,0.255934,-0.079067,-36.522026,35.657539,-6.289566,,,,,,,
1530639875.620865,-1.200731,-0.371854,-1.800770,-0.721836,1.571675,0.160797,-0.868586,0.363344,-0.336958,0.228327,0.040862,0.093565,-36.340679,36.106613,-7.058029,,,,,,,
1530639875.640834,-1.176990,-0.390500,-1.816630,-1.286884,1.594276,0.910033,-0.853936,0.380651,-0.354820,0.350717,-0.154806,0.334602,-35.601688,36.658012,-7.421608,,,,,,,
1530639875.660803,-1.151283,-0.422303,-1.838318,-1.776543,2.122898,1.274793,-0.833053,0.409863,-0.371532,0.047973,-0.316067,0.403118,-34.524158,37.588181,-6.941032,,,,,,,
1530639875.680772,-1.115646,-0.464449,-1.864036,-1.693072,2.047433,1.328546,-0.803048,0.447930,-0.393030,-0.446662,-0.360848,-0.234122,-33.138115,38.501320,-7.059250,,,,,,,
1530639875.700741,-1.074137,-0.496093,-1.879214,-1.053407,2.688050,0.928997,-0.773193,0.475993,-0.419049,-0.736923,-0.747401,0.031735,-32.017597,39.366188,-7.999329,,,,,,,
1530639875.720709,-1.037288,-0.509522,-1.883573,-0.161649,1.310204,0.271120,-0.751658,0.487760,-0.443959,-0.655812,-0.602613,-0.772457,-31.603697,39.774933,-8.788399,,,,,,,
1530639875.740678,-1.030071,-0.507718,-1.876628,0.552194,-0.481784,-0.034177,-0.749188,0.486184,-0.449824,-0.639042,-0.537042,-0.728200,-31.474255,39.668831,-9.136345,,,,,,,
1530639875.760647,-1.048087,-0.496963,-1.866410,0.697258,-1.427077,-0.310994,-0.761657,0.476758,-0.438840,-0.569703,-0.593656,-0.370151,-31.775404,38.988274,-8.602783,,,,,,,
1530639875.780616,-1.085155,-0.481493,-1.854361,0.991674,-2.686500,-0.505717,-0.783826,0.463103,-0.413705,-0.418216,-0.450881,-0.620734,-32.575100,38.748207,-7.776474,,,,,,,
1530639875.800585,-1.149447,-0.464424,-1.832304,1.386173,-4.291187,-0.104585,-0.815881,0.447908,-0.365671,0.102014,-0.491380,-0.538809,-33.333431,38.306335,-6.210411,,,,,,,
1530639875.820554,-1.237223,-0.457751,-1.797662,1.761580,-5.555770,0.442904,-0.847602,0.441932,-0.293713,0.318762,-0.504951,-0.506580,-33.918972,38.119728,-3.946968,,,,,,,
1530639875.840522,-1.325240,-0.456890,-1.749890,2.219344,-5.187362,0.624231,-0.870507,0.441160,-0.218161,0.248773,-0.364255,-0.235559,-34.042843,38.243240,-1.921539,,,,,,,
1530639875.860491,-1.396362,-0.461773,-1.695586,2.368007,-4.634036,0.898181,-0.881678,0.445536,-0.155374,0.795909,-0.206202,-0.249381,-33.660881,38.418556,-0.755211,,,,,,,
1530639875.880460,-1.436883,-0.482048,-1.644663,1.949197,-2.062590,1.654916,-0.878114,0.463595,-0.118299,0.943620,0.009733,0.381330,-32.838169,39.340088,-0.431076,,,,,,,
1530639875.900429,-1.412224,-0.514380,-1.596346,1.914767,1.313465,1.935803,-0.859675,0.491995,-0.137475,0.261500,0.228189,0.460290,-31.254091,40.038631,-2.059540,,,,,,,
1530639875.920398,-1.337989,-0.545774,-1.549590,1.338746,2.946370,1.932559,-0.831667,0.519080,-0.197194,0.038073,0.463235,0.294774,-29.436924,40.801537,-4.634697,,,,,,,
1530639875.940367,-1.264111,-0.585738,-1.532573,-0.621021,3.563899,2.281072,-0.794422,0.552814,-0.251575,0.296024,0.360073,0.350376,-27.345839,41.808571,-6.442360,,,,,,,
1530639875.960335,-1.203936,-0.644603,-1.553452,-2.463966,2.931470,2.351604,-0.746149,0.600881,-0.286712,0.463510,0.365977,-0.484086,-24.904575,43.064850,-6.083130,,,,,,,
1530639875.980304,-1.200737,-0.699742,-1.607481,-3.082079,1.599558,1.667988,-0.713222,0.644020,-0.276681,0.457225,0.224510,-0.341926,-23.060225,44.171734,-4.392014,,,,,,,
1530639876.000273,-1.209131,-0.754055,-1.669537,-3.144566,1.718300,1.740407,-0.681764,0.684600,-0.257915,0.526674,-0.237807,0.009624,-21.474449,44.910690,-2.425804,,,,,,,
1530639876.020242,-1.206683,-0.808824,-1.731176,-2.941921,2.614092,1.815908,-0.645090,0.723476,-0.245848,0.591242,-0.407787,-0.019624,-19.744938,45.893063,-0.797661,,,,,,,
1530639876.040211,-1.193651,-0.862310,-1.795787,-3.013978,3.480880,1.628878,-0.604955,0.759347,-0.239627,0.540502,-0.416192,0.048831,-17.957933,46.169186,0.677742,,,,,,,
1530639876.060180,-1.153203,-0.914326,-1.869812,-3.301712,5.892895,1.489347,-0.557878,0.792151,-0.247524,0.431978,-0.280493,0.156567,-16.604481,46.410984,1.921707,,,,,,,
,,,,,,,,,,,,,,,,39.778993,-84.063247,290.276394,-1.000000,-1.000000,1530639876.000055,
1530639876.080148,-1.087597,-0.985456,-1.950231,-3.750710,5.969653,3.181315,-0.489231,0.833524,-0.256692,0.547642,-0.407926,0.085793,-14.307812,46.873119,3.464745,,,,,,,
1530639876.100117,-1.064354,-1.093270,-2.035574,-4.783298,3.605038,3.712639,-0.401895,0.888134,-0.222930,0.363794,-0.162075,0.175032,-11.208164,47.227261,6.544472,,,,,,,
1530639876.120086,-1.200365,-1.205454,-2.196447,-5.888443,-1.061961,3.553078,-0.333036,0.934001,-0.129338,0.074140,-0.187358,0.257435,-7.860319,46.776524,11.289635,,,,,,,
1530639876.140055,-1.619930,-1.292560,-2.568330,-6.728733,-4.648053,3.036761,-0.274328,0.961541,0.013490,-0.182246,-0.263284,-0.065019,-4.157997,45.291912,17.485207,,,,,,,
1530639876.160024,-2.291967,-1.288521,-3.133216,-7.629373,-7.431042,2.442999,-0.209193,0.960424,0.183911,-0.246892,0.063776,0.132557,0.471222,42.800564,23.534721,,,,,,,
1530639876.179993,-2.798569,-1.181445,2.789769,-7.172779,-8.094575,1.634659,-0.127669,0.925155,0.357475,-0.231950,1.434677,0.158410,5.735157,38.924332,28.899620,,,,,,,
1530639876.199962,-2.980052,-1.111391,2.709262,-1.425919,-3.783800,0.088545,-0.071318,0.896317,0.437642,-0.286454,3.403168,0.463863,8.901798,37.166191,30.839638,,,,,,,
1530639876.219930,-2.962085,-1.153925,2.739387,3.676075,1.378006,-0.456501,-0.072293,0.914360,0.398395,-0.527393,2.411445,0.496945,8.837570,38.042175,29.034401,,,,,,,
1530639876.239899,-2.790972,-1.225825,2.862425,4.066432,3.194417,-1.819470,-0.116155,0.941085,0.317595,-0.537059,0.704148,0.246294,6.530025,40.074814,26.836933,,,,,,,
1530639876.259868,-2.496364,-1.270419,3.112199,3.711405,2.545538,-2.633097,-0.177937,0.955225,0.236397,-0.051922,-0.110269,-0.122994,3.461666,41.751480,23.963188,,,,,,,
1530639876.279837,-2.197334,-1.284220,-2.918733,2.490181,3.385602,-1.295915,-0.228980,0.959217,0.165741,0.347113,-1.426640,-0.100372,0.891891,43.273716,21.653580,,,,,,,
1530639876.299806,-2.086055,-1.346965,-2.810086,3.115935,-1.638564,3.497415,-0.193147,0.975054,0.109376,1.453706,-0.994555,-1.845506,2.371216,44.079632,19.159805,,,,,,,
1530639876.319775,-2.042018,-1.452497,-2.702593,3.356734,-3.651797,4.239027,-0.105161,0.993011,0.053580,0.187878,0.131364,-0.534201,6.674633,44.084663,16.178947,,,,,,,
1530639876.339744,-1.364614,-1.529538,-1.945813,3.368145,-3.915686,2.330806,-0.040371,0.999149,-0.008444,-0.441333,0.426770,-0.048151,9.957409,44.271065,12.684029,,,,,,,
1530639876.359712,-0.377755,-1.496313,-0.884873,2.973531,-3.476039,-0.086308,-0.027445,0.997227,-0.069164,-0.572195,0.373256,0.262004,11.097809,44.555344,7.786835,,,,,,,
1530639876.379681,-0.466215,-1.439423,-0.915336,2.232554,-2.536627,-1.963449,-0.058882,0.991383,-0.117012,-0.436220,0.292888,0.450065,9.381924,45.034454,5.122269,,,,,,,
1530639876.399650,-0.686189,-1.379537,-1.103898,1.313973,-1.247941,-3.416384,-0.120443,0.981766,-0.147070,-0.263453,0.159226,0.518683,6.437160,45.645203,4.088913,,,,,,,
1530639876.419619,-0.899510,-1.310942,-1.307230,0.490399,-0.697433,-4.285023,-0.201188,0.966427,-0.159814,-0.153868,-0.055035,0.447915,2.718697,45.957813,3.516869,,,,,,,
1530639876.439588,-1.067573,-1.238088,-1.450770,0.251060,-2.218594,-3.959776,-0.286116,0.945161,-0.157505,0.028272,-0.228624,0.300251,-0.582176,45.892620,3.164680,,,,,,,
1530639876.459557,-1.191585,-1.180000,-1.522219,0.042898,-3.201696,-2.583944,-0.353862,0.924606,-0.141014,0.175487,-0.201828,0.379524,-2.632212,45.826321,3.388191,,,,,,,
1530639876.479525,-1.275641,-1.148281,-1.533646,0.677650,-4.028254,-1.057808,-0.392324,0.912060,-0.119281,0.154867,0.115589,0.038440,-3.403694,45.514931,2.790421,,,,,,,
1530639876.499494,-1.284484,-1.123480,-1.442006,3.116944,-4.416753,-0.546431,-0.414939,0.901611,-0.122159,0.369361,0.667648,-0.870456,-4.019550,45.242058,0.404198,,,,,,,
1530639876.519463,-1.192584,-1.087408,-1.292383,3.828193,-0.489462,-0.675284,-0.431934,0.885425,-0.171625,0.308246,0.521893,0.131876,-4.530605,44.897518,-2.626434,,,,,,,
1530639876.539432,-1.068437,-1.050543,-1.186352,2.371701,2.131572,-0.495042,-0.435682,0.867693,-0.239351,0.353529,0.267362,0.258791,-4.501032,44.654442,-4.587341,,,,,,,
1530639876.559401,-1.015781,-1.037269,-1.163820,0.119855,1.379424,-0.173749,-0.432233,0.861018,-0.267996,0.350720,0.031804,0.104041,-4.429291,44.429630,-4.855827,,,,,,,
1530639876.579370,-1.002401,-1.040510,-1.175227,-0.416040,1.001294,0.096539,-0.426254,0.862662,-0.272252,0.335815,-0.094214,-0.038310,-4.137938,44.501450,-4.484596,,,,,,,
1530639876.599339,-0.994023,-1.048966,-1.181045,-0.279856,0.421902,0.385651,-0.417829,0.866908,-0.271825,0.338361,-0.124888,-0.012095,-3.464699,44.353119,-4.326355,,,,,,,
1530639876.619307,-0.987777,-1.059359,-1.176929,-0.129027,-0.046227,0.547877,-0.408578,0.872042,-0.269454,0.297113,-0.138308,0.184966,-3.114992,44.553680,-4.020096,,,,,,,
1530639876.639276,-0.979771,-1.068935,-1.163222,0.133795,-0.295069,0.602113,-0.399456,0.876688,-0.268052,0.273617,-0.180918,0.264420,-2.647358,44.609203,-3.773941,,,,,,,
1530639876.659245,-0.964018,-1.074145,-1.138604,0.477590,-0.298849,0.493811,-0.391426,0.879183,-0.271703,0.216530,-0.202440,0.289434,-2.164976,44.479626,-4.172043,,,,,,,
1530639876.679214,-0.943769,-1.071173,-1.110618,0.719774,-0.225644,0.113023,-0.387959,0.877763,-0.281104,0.065343,-0.205980,0.249366,-2.118271,44.399727,-4.385109,,,,,,,
1530639876.699183,-0.930299,-1.059456,-1.090086,0.756977,-0.241331,-0.333959,-0.392357,0.872089,-0.292430,-0.047813,-0.247044,0.192073,-2.323555,44.068108,-5.166298,,,,,,,
1530639876.719152,-0.923738,-1.042013,-1.079917,0.736342,-0.030582,-0.637943,-0.402507,0.863422,-0.304124,-0.081975,-0.312091,0.114823,-2.958366,43.937778,-5.755844,,,,,,,
1530639876.739120,-0.916760,-1.020666,-1.075047,0.754586,0.088797,-0.820913,-0.414911,0.852456,-0.318068,-0.176306,-0.349771,-0.054826,-3.417145,43.482376,-6.251472,,,,,,,
1530639876.759089,-0.932547,-1.003102,-1.079893,0.186609,-1.027820,-0.713469,-0.431840,0.843143,-0.320350,-0.305709,-0.366245,-0.256646,-4.057127,43.304138,-6.299477,,,,,,,
1530639876.779058,-0.968748,-0.995424,-1.098536,-0.340442,-0.870078,-0.511870,-0.448474,0.838990,-0.308168,-0.386182,-0.236069,-0.295867,-4.684628,43.116085,-5.840851,,,,,,,
1530639876.799027,-0.987589,-0.994474,-1.119174,-0.425726,0.470472,-0.245649,-0.454865,0.838472,-0.300103,-0.401855,-0.032564,-0.565986,-4.838697,43.170288,-5.312447,,,,,,,
1530639876.818996,-0.974206,-0.994424,-1.135972,-0.348051,1.745755,-0.286710,-0.450843,0.838445,-0.306187,-0.328698,0.193843,-0.729061,-4.810448,43.250229,-5.069176,,,,,,,
1530639876.838965,-0.954741,-0.993906,-1.155133,-0.432881,1.586885,-0.296275,-0.445152,0.838163,-0.315155,-0.152336,0.150408,-0.652649,-4.759172,43.174610,-4.628471,,,,,,,
1530639876.858934,-0.948556,-0.995664,-1.172056,-0.386983,0.622992,-0.113748,-0.441996,0.839120,-0.317043,0.116771,0.020209,-0.571141,-4.605570,43.422344,-4.119370,,,,,,,
1530639876.878902,-0.955363,-0.999776,-1.184389,-0.399594,-0.071293,0.035105,-0.441323,0.841350,-0.312032,0.286797,-0.029384,-0.342967,-4.415314,43.365849,-3.528015,,,,,,,
1530639876.898871,-0.975634,-1.007165,-1.196537,-0.504718,-0.887198,0.215640,-0.442397,0.845321,-0.299529,0.236724,0.191346,-0.223238,-4.245367,43.203342,-2.821190,,,,,,,
1530639876.918840,-1.009840,-1.021176,-1.206655,-0.645007,-1.426222,0.586627,-0.442309,0.852723,-0.277895,0.263781,0.510879,0.063722,-3.693127,43.345245,-1.988350,,,,,,,
1530639876.938809,-1.027606,-1.036980,-1.212739,-0.298520,0.166149,0.494624,-0.435584,0.860872,-0.262995,0.140280,0.660750,0.095133,-3.381195,43.321415,-1.850677,,,,,,,
1530639876.958778,-0.982305,-1.026141,-1.184536,1.768569,0.827692,-0.444208,-0.430963,0.855306,-0.287613,-0.142187,0.370738,-0.837463,-3.433247,43.323547,-2.444214,,,,,,,
1530639876.978748,-0.969347,-1.001704,-1.158758,0.439187,-0.951634,-0.568034,-0.444304,0.842390,-0.304911,0.375731,-0.251067,1.357310,-3.937260,43.590359,-2.874039,,,,,,,
1530639876.998716,-1.025070,-1.009477,-1.198442,-1.764563,-1.223204,0.016067,-0.454986,0.846554,-0.276286,0.476776,-0.581600,1.203028,-4.174744,43.915333,-1.463432,,,,,,,
1530639877.018685,-1.098552,-1.037482,-1.252384,-1.771185,-1.505952,0.835527,-0.452746,0.861127,-0.231259,0.380725,-0.333951,0.605084,-3.639402,43.870258,0.301262,,,,,,,
1530639877.038654,-1.154347,-1.068314,-1.284524,-1.132627,-1.262896,1.096285,-0.440440,0.876390,-0.194815,0.109293,0.096434,0.598349,-2.931761,43.863884,1.552399,,,,,,,
