timestamp(unix),attitude_roll(radians),attitude_pitch(radians),attitude_yaw(radians),rotation_rate_x(radians/s),rotation_rate_y(radians/s),rotation_rate_z(radians/s),gravity_x(G),gravity_y(G),gravity_z(G),user_acc_x(G),user_acc_y(G),user_acc_z(G),magnetic_field_x(microteslas),magnetic_field_y(microteslas),magnetic_field_z(microteslas),latitude(degree),longitude(degree),altitude(meter),speed(m/s),course(degree),timestamp(unix),User Mark
,,,,,,,,,,,,,,,,39.779313,-84.063503,291.896088,-1.000000,-1.000000,1530640416.431971,
,,,,,,,,,,,,,,,,39.779313,-84.063503,291.896088,-1.000000,-1.000000,1530640425.431971,
1530640455.104644,0.063287,0.278743,-0.622647,-0.033666,-0.133258,0.039473,0.060803,-0.275148,-0.959477,0.021167,-0.010497,-0.012035,20.513624,0.119911,-46.759750,,,,,,,
1530640455.124613,0.060919,0.276566,-0.621420,-0.167181,-0.070564,0.078947,0.058568,-0.273054,-0.960214,0.021541,-0.019533,0.009897,20.446363,0.266792,-47.067627,,,,,,,
1530640455.144582,0.059179,0.272166,-0.619562,-0.240780,-0.061871,0.102423,0.056967,-0.268819,-0.961505,0.010629,-0.010829,-0.016843,20.394072,0.424843,-46.902435,,,,,,,
1530640455.164552,0.057182,0.267679,-0.617298,-0.202093,-0.087374,0.116987,0.055115,-0.264494,-0.962811,0.018447,-0.005175,-0.041248,20.308458,0.685692,-47.020798,,,,,,,
,,,,,,,,,,,,,,,,39.778552,-84.062788,291.896088,-1.000000,-1.000000,1530640455.161050,
1530640455.184521,0.054552,0.264867,-0.614874,-0.124654,-0.116244,0.137594,0.052623,-0.261781,-0.963692,0.017262,-0.006011,-0.038262,20.127600,0.869240,-46.879196,,,,,,,
,,,,,,,,,,,,,,,,39.777972,-84.062232,291.896088,-1.000000,-1.000000,1530640455.166863,
1530640455.204490,0.049998,0.263673,-0.611984,-0.062927,-0.258817,0.158897,0.048250,-0.260629,-0.964233,0.000074,0.001168,-0.038117,19.973875,0.924652,-46.752487,,,,,,,
1530640455.224459,0.045247,0.263836,-0.609674,0.032836,-0.195629,0.116116,0.043666,-0.260786,-0.964409,0.024708,0.016615,-0.013222,19.860651,0.841316,-46.914322,,,,,,,
,,,,,,,,,,,,,,,,39.777533,-84.061810,291.896088,-1.000000,-1.000000,1530640455.228790,
1530640455.244429,0.040593,0.265749,-0.607883,0.124181,-0.219856,0.103163,0.039157,-0.262632,-0.964101,0.017636,0.008527,-0.015345,19.628141,0.800507,-47.047028,,,,,,,
,,,,,,,,,,,,,,,,39.777201,-84.061492,291.896088,-1.000000,-1.000000,1530640455.234579,
1530640455.264398,0.035105,0.269385,-0.606423,0.206169,-0.290384,0.081460,0.033831,-0.266139,-0.963341,0.009809,0.023554,-0.019966,19.488482,0.343048,-47.294693,,,,,,,
1530640455.284367,0.029527,0.273654,-0.605935,0.218173,-0.265698,0.023209,0.028424,-0.270251,-0.962370,0.011844,0.027453,-0.008150,19.070219,0.381531,-47.212982,,,,,,,
1530640455.304336,0.025130,0.277275,-0.606228,0.175310,-0.237971,0.006546,0.024168,-0.273736,-0.961501,0.023165,0.018319,0.012191,18.876345,0.016663,-47.620575,,,,,,,
1530640455.324305,0.021277,0.279309,-0.606337,0.066125,-0.169585,0.019901,0.020451,-0.275692,-0.961029,0.018047,0.012233,0.003875,18.557741,-0.264992,-47.617065,,,,,,,
1530640455.344275,0.019097,0.278407,-0.605889,-0.080942,-0.081423,0.048856,0.018361,-0.274824,-0.961319,0.015285,0.003996,0.004059,18.449274,0.098366,-47.621231,,,,,,,
1530640455.364244,0.017414,0.275217,-0.605069,-0.160727,-0.083678,0.059401,0.016758,-0.271756,-0.962220,0.020748,0.010236,-0.019897,18.395197,0.205887,-47.637009,,,,,,,
1530640455.384213,0.016592,0.272326,-0.604051,-0.117845,0.005643,0.071241,0.015979,-0.268972,-0.963015,0.036847,0.006720,-0.025785,18.255739,0.270172,-47.570709,,,,,,,
1530640455.404182,0.016900,0.270906,-0.603093,-0.037985,0.020108,0.051047,0.016283,-0.267605,-0.963391,0.027815,0.015957,-0.045703,18.418943,0.243286,-47.645813,,,,,,,
1530640455.424151,0.017379,0.271089,-0.602493,0.021829,0.027849,0.046135,0.016743,-0.267781,-0.963334,0.038936,0.018467,-0.019515,18.446104,0.429634,-47.424133,,,,,,,
1530640455.444120,0.018308,0.271646,-0.602280,0.027275,0.056728,0.020328,0.017636,-0.268318,-0.963169,0.029117,0.008110,0.011295,18.502768,0.289093,-47.580109,,,,,,,
1530640455.464090,0.019475,0.271696,-0.602131,-0.000014,0.042362,0.023787,0.018759,-0.268366,-0.963134,0.033975,0.006845,0.012298,18.573584,0.288292,-47.556152,,,,,,,
1530640455.484059,0.020398,0.271571,-0.601993,0.005180,0.030173,0.030145,0.019649,-0.268245,-0.963150,0.030156,0.006374,0.005295,18.480669,0.392914,-47.717529,,,,,,,
1530640455.504028,0.020566,0.271379,-0.601826,0.002080,-0.007329,0.025686,0.019812,-0.268060,-0.963198,0.028696,0.008524,-0.003965,18.543341,0.387390,-47.629730,,,,,,,
1530640455.523997,0.021100,0.271002,-0.601721,-0.031475,0.033539,0.024081,0.020328,-0.267697,-0.963289,0.016553,0.011502,0.008012,18.442137,0.252663,-47.634430,,,,,,,
1530640455.543966,0.022313,0.270067,-0.601467,-0.050447,0.061066,0.035201,0.021502,-0.266796,-0.963513,0.007398,0.005168,0.004819,18.568663,0.215569,-47.522903,,,,,,,
,,,,,,,,,,,,,,,,39.779288,-84.063511,291.656464,-1.000000,-1.000000,1530640455.496652,
1530640455.563936,0.023669,0.269198,-0.600815,-0.035924,0.069759,0.054502,0.022815,-0.265959,-0.963714,0.010754,0.005354,-0.005066,18.627016,0.387672,-47.398300,,,,,,,
1530640455.583905,0.024541,0.268640,-0.600037,-0.024397,0.035521,0.056372,0.023658,-0.265421,-0.963842,0.010827,0.008463,-0.019861,18.589346,0.403839,-47.601196,,,,,,,
1530640455.603866,0.024837,0.267854,-0.599282,-0.051722,0.013398,0.064103,0.023949,-0.264663,-0.964044,-0.001457,0.011031,-0.007011,18.703051,0.462006,-47.597961,,,,,,,
1530640455.623835,0.024762,0.266566,-0.598029,-0.071764,0.013307,0.078335,0.023885,-0.263420,-0.964386,-0.008077,0.009971,-0.001099,18.763994,0.269867,-47.589188,,,,,,,
1530640455.643805,0.024738,0.264726,-0.596647,-0.108461,0.024361,0.077708,0.023874,-0.261645,-0.964869,-0.012399,0.011126,0.015681,18.774298,0.391235,-47.468704,,,,,,,
1530640455.663774,0.025031,0.262078,-0.595419,-0.141946,0.031061,0.068385,0.024174,-0.259088,-0.965551,-0.012760,0.005929,0.010412,18.630354,0.692734,-47.706528,,,,,,,
1530640455.683743,0.025307,0.259275,-0.594257,-0.132532,0.032140,0.071529,0.024458,-0.256380,-0.966267,-0.014494,0.009356,-0.010861,18.774973,0.779831,-47.632858,,,,,,,
1530640455.703712,0.025390,0.257032,-0.592921,-0.102160,0.021056,0.076543,0.024553,-0.254211,-0.966837,-0.020525,0.011077,-0.021353,18.854029,0.768440,-47.883392,,,,,,,
1530640455.723681,0.024841,0.255465,-0.591524,-0.066533,-0.006579,0.080340,0.024033,-0.252695,-0.967247,-0.018509,0.011469,-0.030311,18.684950,0.938087,-47.744370,,,,,,,
1530640455.743651,0.023902,0.254712,-0.590164,-0.030869,-0.025355,0.079873,0.023129,-0.251967,-0.967459,-0.019726,0.015471,-0.022302,18.599577,1.003761,-47.710541,,,,,,,
1530640455.763620,0.022756,0.254144,-0.588816,-0.031908,-0.029763,0.078784,0.022023,-0.251417,-0.967628,-0.019643,0.013532,-0.005684,18.735590,0.974045,-47.668747,,,,,,,
1530640455.783589,0.022087,0.253264,-0.587596,-0.046494,0.003447,0.066156,0.021381,-0.250565,-0.967864,-0.013583,0.019883,-0.004701,18.795736,0.878632,-47.796280,,,,,,,
1530640455.803558,0.021944,0.252228,-0.586674,-0.036873,0.026782,0.043522,0.021248,-0.249562,-0.968126,-0.008827,0.020757,-0.011641,18.908697,0.888527,-47.710510,,,,,,,
1530640455.823527,0.022180,0.251766,-0.586239,0.001011,0.024678,0.026924,0.021479,-0.249114,-0.968236,0.000265,0.017089,-0.018321,18.947069,1.038544,-47.752335,,,,,,,
1530640455.843496,0.022041,0.252121,-0.586154,0.039953,-0.001714,0.010205,0.021343,-0.249459,-0.968150,0.005787,0.014504,-0.012257,18.788286,1.010315,-47.596313,,,,,,,
1530640455.863466,0.021706,0.252777,-0.586415,0.041144,-0.006010,-0.007084,0.021015,-0.250094,-0.967993,0.007077,0.008364,-0.003396,18.689138,0.951569,-47.193375,,,,,,,
1530640455.883435,0.021748,0.253099,-0.586897,0.019170,0.009494,-0.013246,0.021053,-0.250406,-0.967912,0.010639,0.002450,0.001649,18.681696,0.896828,-47.674118,,,,,,,
1530640455.903404,0.021952,0.253100,-0.587270,0.013836,0.012733,-0.002391,0.021251,-0.250407,-0.967907,0.015080,-0.001592,-0.003177,18.856745,0.712181,-47.662140,,,,,,,
1530640455.923373,0.021897,0.253512,-0.587397,0.039956,-0.013856,0.010146,0.021195,-0.250805,-0.967806,0.018661,-0.004703,-0.019972,18.832247,0.904343,-47.532654,,,,,,,
1530640455.943342,0.021485,0.254540,-0.587258,0.057673,-0.017270,0.023964,0.020791,-0.251801,-0.967556,0.015601,-0.006439,-0.006626,18.846590,0.832405,-47.573898,,,,,,,
1530640455.963312,0.021185,0.255171,-0.586908,0.011439,-0.012917,0.035264,0.020498,-0.252411,-0.967403,0.015742,-0.011322,0.000041,18.764673,0.773216,-47.640656,,,,,,,
1530640455.983281,0.020463,0.254950,-0.586208,-0.019118,-0.042841,0.053778,0.019801,-0.252197,-0.967473,0.019414,-0.012772,-0.014796,18.733572,0.665245,-47.692505,,,,,,,
1530640456.003250,0.019239,0.254575,-0.585283,-0.014989,-0.053941,0.062312,0.018618,-0.251835,-0.967591,0.014494,-0.006436,-0.024703,18.591562,0.845963,-47.826416,,,,,,,
1530640456.023219,0.018183,0.254541,-0.584188,0.003810,-0.030823,0.070847,0.017596,-0.251801,-0.967619,0.006650,-0.000030,-0.015688,18.695826,0.708366,-47.950729,,,,,,,
1530640456.043188,0.017841,0.254657,-0.582786,-0.016225,0.014359,0.083139,0.017264,-0.251914,-0.967596,-0.006843,0.005210,-0.002192,18.738901,0.674591,-47.870636,,,,,,,
1530640456.063158,0.018247,0.253377,-0.581611,-0.093737,0.031019,0.072188,0.017664,-0.250675,-0.967910,-0.002145,0.001514,0.004028,18.649668,0.626160,-47.676514,,,,,,,
1530640456.083127,0.018510,0.250969,-0.579667,-0.145637,0.027288,0.135273,0.017929,-0.248342,-0.968506,0.002304,0.003378,-0.007888,18.609358,0.906090,-47.634415,,,,,,,
1530640456.103096,0.017234,0.247757,-0.575801,-0.162017,-0.042820,0.217082,0.016707,-0.245230,-0.969321,-0.025420,-0.004343,-0.028939,18.544840,0.995201,-47.737442,,,,,,,
1530640456.123065,0.014782,0.245384,-0.570804,-0.091136,-0.076326,0.270087,0.014339,-0.242929,-0.969938,-0.016353,-0.010443,-0.016894,18.584352,0.823669,-47.718506,,,,,,,
1530640456.143034,0.011848,0.245130,-0.566177,0.012301,-0.079105,0.188079,0.011494,-0.242682,-0.970038,-0.014012,0.005927,-0.004923,18.384642,1.022842,-47.394867,,,,,,,
1530640456.163003,0.009128,0.245680,-0.562863,0.033482,-0.087770,0.163009,0.008854,-0.243216,-0.969932,-0.025044,0.026617,0.021018,18.474909,0.805069,-47.607605,,,,,,,
1530640456.182973,0.006782,0.246522,-0.559584,0.049071,-0.073543,0.180171,0.006577,-0.244033,-0.969745,-0.029389,-0.003404,-0.014661,18.441969,0.742134,-47.775024,,,,,,,
1530640456.202942,0.004425,0.248361,-0.556125,0.115183,-0.062484,0.174125,0.004289,-0.245815,-0.969307,-0.017091,0.008236,-0.018211,18.248465,0.597107,-48.016586,,,,,,,
1530640456.222911,0.003002,0.251089,-0.553390,0.139703,-0.009153,0.123427,0.002908,-0.248459,-0.968638,-0.015069,0.020614,-0.000875,18.277937,0.427498,-47.723907,,,,,,,
1530640456.242880,0.002444,0.253535,-0.552569,0.129210,0.003880,-0.004742,0.002366,-0.250827,-0.968029,0.009597,0.015415,0.020702,18.383215,0.294586,-47.747894,,,,,,,
1530640456.262849,0.002545,0.255495,-0.553108,0.099997,0.027203,-0.023731,0.002462,-0.252724,-0.967535,-0.005270,0.013970,0.021780,18.461149,0.078758,-47.868195,,,,,,,
1530640456.282819,0.003392,0.256930,-0.553508,0.066203,0.052407,0.004793,0.003281,-0.254112,-0.967169,0.008133,-0.012947,-0.003137,18.329924,0.054192,-47.618271,,,,,,,
1530640456.302788,0.003639,0.257981,-0.553250,0.061855,-0.007343,0.025043,0.003519,-0.255129,-0.966901,0.014303,-0.002394,-0.023395,18.328794,-0.124947,-47.872910,,,,,,,
1530640456.322757,0.002305,0.258796,-0.553112,0.032675,-0.083361,0.004494,0.002228,-0.255917,-0.966696,0.012893,0.003536,-0.010065,18.418200,-0.187057,-47.890427,,,,,,,
1530640456.342726,0.000142,0.258512,-0.553419,-0.030051,-0.110778,-0.018697,0.000137,-0.255642,-0.966771,0.002320,0.005764,0.010381,18.337511,-0.331223,-47.732407,,,,,,,
1530640456.362695,-0.001449,0.257134,-0.554726,-0.094638,-0.096038,-0.071864,-0.001401,-0.254310,-0.967122,0.005552,0.002998,0.013386,18.101049,0.211777,-47.960861,,,,,,,
1530640456.382665,-0.002637,0.255076,-0.557153,-0.101565,-0.094582,-0.122472,-0.002552,-0.252319,-0.967641,0.005924,0.006469,0.001866,18.031404,0.226860,-48.015839,,,,,,,
1530640456.402634,-0.004288,0.254008,-0.560369,-0.015316,-0.145182,-0.152753,-0.004150,-0.251285,-0.967904,0.001358,0.000782,-0.026496,17.968527,0.439346,-47.973923,,,,,,,
1530640456.422603,-0.006449,0.255017,-0.564327,0.083542,-0.164845,-0.187339,-0.006240,-0.252261,-0.967639,0.003509,0.000812,-0.027890,17.781912,0.231636,-48.250809,,,,,,,
1530640456.442572,-0.008185,0.257079,-0.568803,0.098444,-0.133746,-0.215393,-0.007916,-0.254256,-0.967104,-0.004765,0.003402,-0.012006,17.630518,0.287239,-47.588150,,,,,,,
1530640456.462542,-0.009219,0.258818,-0.573600,0.080721,-0.092801,-0.229024,-0.008911,-0.255938,-0.966652,-0.000824,-0.002698,-0.014580,17.527544,0.018517,-47.899597,,,,,,,
1530640456.482511,-0.009295,0.260308,-0.578304,0.075397,-0.054224,-0.220154,-0.008982,-0.257378,-0.966269,-0.002493,-0.001167,-0.015543,17.656698,-0.165939,-48.175568,,,,,,,
1530640456.502480,-0.008682,0.261551,-0.582736,0.057409,-0.006879,-0.201397,-0.008386,-0.258579,-0.965954,0.000085,-0.007717,0.005031,17.460527,0.156982,-47.944122,,,,,,,
1530640456.522449,-0.007547,0.262255,-0.586738,0.034174,0.007343,-0.181669,-0.007289,-0.259260,-0.965780,0.007793,-0.009127,-0.002207,17.604891,0.022209,-47.947067,,,,,,,
1530640456.542418,-0.006377,0.262978,-0.590318,0.039240,0.017127,-0.160103,-0.006158,-0.259957,-0.965600,0.009073,-0.005042,-0.002448,17.590418,0.105743,-47.604370,,,,,,,
1530640456.562388,-0.005549,0.263440,-0.593460,0.013942,-0.003952,-0.143760,-0.005358,-0.260403,-0.965485,0.010561,-0.009037,-0.002365,17.618784,0.132362,-47.833633,,,,,,,
1530640456.582357,-0.004914,0.263421,-0.596392,-0.013440,0.000374,-0.129425,-0.004744,-0.260385,-0.965493,0.011275,-0.003348,-0.002753,17.565889,0.268929,-47.914307,,,,,,,
1530640456.602326,-0.004168,0.263247,-0.599025,-0.005131,0.005824,-0.119782,-0.004025,-0.260217,-0.965542,0.015942,-0.001044,-0.016636,17.462183,0.274452,-47.813187,,,,,,,
1530640456.622295,-0.003110,0.263837,-0.601553,0.047274,0.028970,-0.116995,-0.003002,-0.260787,-0.965392,0.015499,0.001189,-0.012300,17.602217,0.337471,-47.518066,,,,,,,
1530640456.642264,-0.001948,0.265397,-0.604029,0.090258,0.022320,-0.115326,-0.001880,-0.262293,-0.964987,0.021701,-0.000815,-0.003428,17.561964,0.152435,-47.627136,,,,,,,
1530640456.662234,-0.000400,0.267203,-0.606431,0.081808,0.044356,-0.108662,-0.000386,-0.264035,-0.964513,0.021413,0.001340,-0.000331,17.736933,0.090332,-47.846695,,,,,,,
1530640456.682203,0.000841,0.268511,-0.608675,0.061809,0.026631,-0.098823,0.000811,-0.265296,-0.964167,0.021071,-0.000299,-0.008200,17.706011,0.093864,-47.875000,,,,,,,
1530640456.702172,0.001595,0.269709,-0.610705,0.066984,0.006701,-0.090351,0.001538,-0.266451,-0.963847,0.023578,0.000155,-0.009435,17.731581,-0.037025,-47.588928,,,,,,,
1530640456.722141,0.002369,0.271013,-0.612566,0.066915,0.008849,-0.081709,0.002282,-0.267707,-0.963498,0.024161,0.001274,-0.007999,17.763281,-0.027191,-47.895721,,,,,,,
1530640456.742110,0.003182,0.272391,-0.614355,0.068976,0.013234,-0.077397,0.003065,-0.269035,-0.963125,0.021441,0.003364,-0.001749,17.811090,0.024712,-47.680710,,,,,,,
1530640456.762080,0.003975,0.273643,-0.615904,0.060472,0.009828,-0.063302,0.003827,-0.270240,-0.962785,0.019839,0.005485,-0.004988,17.713793,-0.177567,-47.458542,,,,,,,
1530640456.782049,0.004470,0.274783,-0.617310,0.056236,-0.001247,-0.057917,0.004303,-0.271339,-0.962474,0.018204,0.004340,0.001628,17.721121,0.055161,-48.037766,,,,,,,
1530640456.802018,0.004779,0.275589,-0.618453,0.032003,-0.011273,-0.043686,0.004598,-0.272114,-0.962254,0.010310,0.004795,0.012303,17.797853,-0.181053,-47.888428,,,,,,,
1530640456.821987,0.004698,0.275900,-0.619401,0.013068,-0.026775,-0.036009,0.004521,-0.272413,-0.962170,0.012279,0.008100,0.004498,17.765551,-0.092926,-47.849503,,,,,,,
1530640456.841957,0.004900,0.275995,-0.620091,0.006651,0.009558,-0.021748,0.004715,-0.272504,-0.962143,0.007981,0.012540,0.001282,17.732851,-0.126625,-47.809174,,,,,,,
1530640456.861926,0.005290,0.276190,-0.620499,0.016011,0.005073,-0.012163,0.005089,-0.272692,-0.962088,0.011940,0.011141,-0.011316,17.739420,-0.116623,-47.691223,,,,,,,
1530640456.881895,0.005555,0.276764,-0.620765,0.035876,0.016054,-0.004768,0.005343,-0.273245,-0.961930,0.008832,0.009344,0.002228,17.795095,-0.280540,-47.726166,,,,,,,
1530640456.901864,0.005929,0.277598,-0.620807,0.047325,0.008250,0.005856,0.005702,-0.274046,-0.961700,0.009953,0.005186,-0.001161,17.771917,-0.341324,-47.846222,,,,,,,
1530640456.921833,0.005738,0.278509,-0.620631,0.048315,-0.009464,0.013307,0.005517,-0.274923,-0.961450,0.009330,0.004857,0.006494,17.746977,-0.257690,-47.780518,,,,,,,
1530640456.941803,0.005705,0.278989,-0.620384,0.015784,0.004879,0.015883,0.005485,-0.275384,-0.961319,0.004861,0.008386,0.010742,17.967535,-0.407852,-47.882736,,,,,,,
1530640456.961772,0.006062,0.278978,-0.620182,-0.003066,0.031407,0.011895,0.005827,-0.275374,-0.961320,0.011736,0.001387,0.007081,17.807020,-0.262749,-47.870071,,,,,,,
1530640456.981741,0.007093,0.279141,-0.619903,0.018863,0.057820,0.022573,0.006819,-0.275530,-0.961268,0.017244,-0.003583,-0.004628,17.838629,-0.320549,-47.966904,,,,,,,
1530640457.001710,0.007894,0.279830,-0.619291,0.045979,0.032290,0.041576,0.007586,-0.276192,-0.961073,0.018445,-0.004326,-0.018572,17.901903,-0.352242,-47.947937,,,,,,,
1530640457.021680,0.007577,0.280655,-0.618310,0.031194,-0.013063,0.055537,0.007280,-0.276985,-0.960847,0.015196,-0.001045,-0.004760,17.949568,-0.347023,-47.992569,,,,,,,
1530640457.041649,0.007093,0.280393,-0.617230,-0.041189,-0.006436,0.058497,0.006816,-0.276734,-0.960922,0.009282,0.001755,0.006623,17.766634,-0.281296,-47.930710,,,,,,,
1530640457.061618,0.007040,0.278865,-0.616238,-0.091448,0.016833,0.048358,0.006768,-0.275265,-0.961345,0.008812,-0.000401,-0.000493,17.957674,-0.384911,-47.821503,,,,,,,
1530640457.081587,0.007307,0.277227,-0.615457,-0.071406,0.016925,0.034127,0.007028,-0.273690,-0.961792,0.008658,0.000786,-0.018661,17.851473,-0.269264,-47.879044,,,,,,,
1530640457.101556,0.007418,0.276634,-0.614905,-0.008451,0.001477,0.030144,0.007136,-0.273119,-0.961954,0.008459,0.000246,-0.023810,17.880922,-0.228615,-47.904663,,,,,,,
1530640457.121526,0.007161,0.277069,-0.614395,0.031406,-0.010676,0.029664,0.006887,-0.273538,-0.961837,0.007746,-0.003317,-0.018724,17.907930,-0.361069,-47.894943,,,,,,,
1530640457.141495,0.007110,0.277800,-0.613898,0.033495,0.012505,0.029749,0.006838,-0.274241,-0.961637,0.001494,-0.003469,-0.013568,17.808470,-0.321045,-48.003571,,,,,,,
1530640457.161464,0.007354,0.278207,-0.613243,0.015575,0.028993,0.040805,0.007071,-0.274632,-0.961523,0.006418,-0.005748,-0.013178,17.858522,-0.368126,-47.921600,,,,,,,
1530640457.181433,0.007751,0.278493,-0.612293,0.021752,0.031103,0.054769,0.007452,-0.274907,-0.961442,0.009134,-0.002254,-0.013839,17.909918,-0.426865,-47.930756,,,,,,,
1530640457.201403,0.007881,0.279010,-0.611139,0.026909,0.021092,0.065449,0.007576,-0.275404,-0.961299,0.009727,-0.002931,0.004695,17.814550,-0.397644,-47.919586,,,,,,,
1530640457.221372,0.007897,0.279459,-0.609687,0.021580,0.019914,0.076290,0.007590,-0.275835,-0.961175,0.009911,-0.000501,0.007821,17.890215,-0.550919,-47.790756,,,,,,,
1530640457.241341,0.007608,0.279937,-0.608102,0.023620,-0.000008,0.083720,0.007312,-0.276296,-0.961045,0.010557,-0.001384,-0.000228,17.991339,-0.534248,-47.871063,,,,,,,
1530640457.261310,0.006914,0.280439,-0.606371,0.023563,-0.016618,0.091190,0.006644,-0.276777,-0.960911,0.006372,0.000624,0.005055,17.912592,-0.510971,-47.597580,,,,,,,
1530640457.281280,0.006035,0.280574,-0.604599,-0.007862,-0.023204,0.087181,0.005799,-0.276907,-0.960879,0.004241,0.001196,0.009036,17.969633,-0.552231,-47.516815,,,,,,,
1530640457.301249,0.005267,0.280187,-0.602942,-0.027765,-0.014345,0.084199,0.005062,-0.276535,-0.960990,0.001485,0.003220,-0.000313,17.864725,-0.664978,-47.691666,,,,,,,
1530640457.321218,0.004490,0.279672,-0.601476,-0.023472,-0.024199,0.072241,0.004315,-0.276040,-0.961136,0.003192,0.005822,-0.010971,17.979078,-0.487511,-47.861237,,,,,,,
1530640457.341187,0.003769,0.279504,-0.600259,-0.003439,-0.020804,0.059104,0.003623,-0.275879,-0.961186,-0.001792,0.006943,-0.009167,17.923098,-0.721718,-48.075912,,,,,,,
1530640457.361157,0.003225,0.279650,-0.599310,0.010289,-0.017413,0.047108,0.003100,-0.276019,-0.961147,0.000669,0.004245,-0.006291,17.813662,-0.593018,-47.670898,,,,,,,
1530640457.381126,0.002917,0.279930,-0.598503,0.016647,-0.001901,0.038486,0.002803,-0.276288,-0.961071,-0.001964,0.003339,-0.004521,17.894358,-0.760330,-47.794785,,,,,,,
1530640457.401095,0.002691,0.280102,-0.597730,0.005073,0.001385,0.042936,0.002586,-0.276454,-0.961024,0.000023,-0.000173,0.000056,18.010347,-0.794800,-47.758789,,,,,,,
1530640457.421064,0.002408,0.279988,-0.596883,-0.005419,-0.003036,0.044110,0.002314,-0.276344,-0.961056,-0.000285,0.001762,-0.000858,17.842768,-0.549072,-47.633972,,,,,,,
1530640457.441034,0.002035,0.279847,-0.596104,-0.003285,-0.006319,0.039758,0.001956,-0.276209,-0.961096,-0.000323,-0.000342,-0.001642,17.936018,-0.633919,-47.695160,,,,,,,
1530640457.461003,0.001799,0.279897,-0.595410,0.010389,0.001443,0.034254,0.001729,-0.276256,-0.961082,0.000407,0.000774,-0.003563,17.966177,-0.699142,-47.644501,,,,,,,
1530640457.480972,0.001624,0.280219,-0.594852,0.019899,-0.002916,0.025503,0.001560,-0.276566,-0.960994,0.000774,-0.000717,-0.006475,17.786985,-0.732155,-47.660294,,,,,,,
1530640457.500941,0.001590,0.280489,-0.594485,0.007356,0.004852,0.020282,0.001528,-0.276825,-0.960919,0.000699,0.001328,-0.002460,17.778193,-0.657448,-47.795609,,,,,,,
1530640457.520911,0.001504,0.280310,-0.594278,-0.018783,0.000510,0.010832,0.001445,-0.276653,-0.960969,0.000401,-0.000507,-0.001754,17.812296,-0.604012,-47.786377,,,,,,,
1530640457.540880,0.001436,0.279783,-0.594195,-0.031341,0.001640,0.007737,0.001380,-0.276147,-0.961114,0.001290,-0.000800,-0.001837,17.940180,-0.739098,-47.800568,,,,,,,
1530640457.560849,0.001345,0.279267,-0.594067,-0.019814,-0.007201,0.008646,0.001293,-0.275651,-0.961257,-0.000560,-0.000426,-0.009782,17.891348,-0.670174,-47.664047,,,,,,,
1530640457.580818,0.001236,0.279039,-0.594061,-0.009289,-0.001656,0.004253,0.001188,-0.275432,-0.961320,-0.000608,-0.002980,-0.007583,17.839163,-0.700829,-47.811127,,,,,,,
1530640457.600788,0.001093,0.278909,-0.594003,-0.003013,-0.008295,0.006309,0.001051,-0.275307,-0.961356,-0.000273,-0.003639,-0.012826,17.961000,-0.850983,-47.765289,,,,,,,
1530640457.620757,0.000669,0.278965,-0.594027,0.002267,-0.022617,0.001867,0.000643,-0.275361,-0.961341,-0.002780,-0.005324,-0.006250,17.792021,-0.597572,-47.801163,,,,,,,
1530640457.640726,0.000183,0.278809,-0.594178,-0.014458,-0.022568,-0.004423,0.000176,-0.275211,-0.961384,-0.007455,-0.002071,0.002476,17.773458,-0.553993,-47.714218,,,,,,,
1530640457.660695,0.000019,0.278341,-0.594470,-0.024880,-0.005947,-0.012861,0.000018,-0.274761,-0.961513,-0.005480,0.000606,0.002894,17.791826,-0.653145,-47.864670,,,,,,,
1530640457.680665,0.000285,0.278115,-0.594901,0.001367,0.022777,-0.017317,0.000274,-0.274543,-0.961575,0.001252,0.000602,-0.000797,17.850527,-0.672928,-47.752151,,,,,,,
1530640457.700634,0.001102,0.278710,-0.595275,0.050610,0.039285,-0.012370,0.001060,-0.275116,-0.961410,0.005135,0.000565,-0.013794,17.807192,-0.621590,-47.554794,,,,,,,
1530640457.720603,0.001670,0.280182,-0.595359,0.084018,0.022584,0.006611,0.001605,-0.276531,-0.961004,0.010617,-0.003468,-0.017069,17.973707,-0.793655,-47.709152,,,,,,,
1530640457.740572,0.001398,0.281651,-0.595108,0.059818,-0.024951,0.017421,0.001343,-0.277942,-0.960597,0.007690,-0.002896,-0.007588,17.944017,-0.946327,-47.722183,,,,,,,
1530640457.760542,0.000569,0.281998,-0.594810,-0.006232,-0.037062,0.015910,0.000546,-0.278275,-0.960501,0.001361,-0.003296,0.001853,17.734373,-0.780937,-47.662445,,,,,,,
1530640457.780511,0.000033,0.281367,-0.594656,-0.034485,-0.013814,0.007694,0.000032,-0.277669,-0.960677,-0.000841,0.001775,-0.003938,17.863932,-0.908394,-47.987732,,,,,,,
1530640457.800480,0.000228,0.281247,-0.594629,0.024232,0.010449,0.008267,0.000219,-0.277554,-0.960710,0.006235,0.005856,-0.022642,17.854082,-0.816536,-47.783661,,,,,,,
1530640457.820449,0.000150,0.282818,-0.594591,0.107123,-0.017139,0.002931,0.000144,-0.279063,-0.960273,0.003106,0.000681,-0.009942,17.889090,-0.839760,-47.637039,,,,,,,
1530640457.840419,-0.000467,0.285407,-0.594352,0.134325,-0.028244,0.011219,-0.000448,-0.281548,-0.959547,-0.012568,-0.005897,-0.009096,17.764032,-1.155525,-47.864395,,,,,,,
1530640457.860388,-0.000815,0.287666,-0.594258,0.093435,-0.003934,0.009615,-0.000782,-0.283715,-0.958908,-0.006939,-0.009605,0.003403,17.981943,-1.269798,-47.914124,,,,,,,
1530640457.880357,-0.000499,0.288712,-0.594249,0.036826,0.033643,0.006082,-0.000478,-0.284718,-0.958611,-0.005397,-0.004055,0.003060,17.903254,-1.051369,-48.068237,,,,,,,
1530640457.900326,0.000387,0.289044,-0.594034,0.017877,0.046834,0.014979,0.000371,-0.285036,-0.958517,-0.000997,-0.002760,-0.006724,17.941137,-1.292046,-47.716019,,,,,,,
1530640457.920296,0.000806,0.289739,-0.593679,0.052442,0.015872,0.020934,0.000772,-0.285702,-0.958318,0.006033,-0.003604,-0.004786,17.760927,-1.270813,-47.493500,,,,,,,
1530640457.940265,0.000634,0.291296,-0.593147,0.088029,-0.001858,0.029090,0.000608,-0.287194,-0.957872,0.004046,-0.002525,-0.004240,17.961626,-1.415710,-47.712769,,,,,,,
1530640457.960234,0.000212,0.293162,-0.592500,0.092196,-0.015136,0.033301,0.000203,-0.288981,-0.957335,0.005412,-0.000585,-0.003023,17.948465,-1.407593,-47.601578,,,,,,,
1530640457.980203,-0.000420,0.294554,-0.591908,0.053427,-0.018408,0.029383,-0.000402,-0.290313,-0.956932,0.004629,-0.000626,0.006477,17.865618,-1.498474,-47.747131,,,,,,,
1530640458.000173,-0.000911,0.294740,-0.591557,-0.014600,-0.020479,0.012844,-0.000872,-0.290491,-0.956877,0.001879,-0.002524,0.009673,17.858904,-1.336029,-47.719345,,,,,,,
1530640458.020142,-0.001110,0.294012,-0.591579,-0.040710,-0.006025,-0.000832,-0.001063,-0.289795,-0.957088,0.005015,-0.000641,-0.004429,17.792467,-1.302879,-47.736191,,,,,,,
1530640458.040111,-0.001193,0.293366,-0.591784,-0.023903,-0.007111,-0.004251,-0.001142,-0.289176,-0.957275,0.007795,-0.002298,-0.009872,17.758959,-1.209137,-47.848907,,,,,,,
1530640458.060080,-0.001312,0.293344,-0.592057,0.009696,-0.014817,-0.008958,-0.001256,-0.289155,-0.957281,0.007603,-0.002578,-0.008859,17.775511,-1.444466,-47.842819,,,,,,,
1530640458.080050,-0.001568,0.293705,-0.592294,0.015960,-0.012633,-0.005781,-0.001501,-0.289501,-0.957177,0.007284,-0.003773,-0.002205,17.844675,-1.530785,-47.784485,,,,,,,
1530640458.100019,-0.001621,0.293930,-0.592464,0.010687,-0.000511,-0.002430,-0.001551,-0.289716,-0.957111,0.008234,-0.005023,-0.005993,17.719378,-1.296738,-47.801483,,,,,,,
1530640458.119988,-0.001718,0.294094,-0.592541,0.006487,-0.017076,-0.001387,-0.001645,-0.289873,-0.957064,0.010449,-0.003218,-0.005491,17.783739,-1.615540,-47.885956,,,,,,,
1530640458.139958,-0.002184,0.294198,-0.592593,0.004402,-0.032522,-0.002519,-0.002090,-0.289972,-0.957033,0.008286,-0.005102,-0.003294,17.853395,-1.583839,-47.911118,,,,,,,
1530640458.159927,-0.002887,0.294033,-0.592761,-0.013418,-0.039133,-0.003442,-0.002763,-0.289814,-0.957079,0.005967,-0.003734,-0.009489,17.688845,-1.303612,-47.748535,,,,,,,
1530640458.179896,-0.003394,0.293823,-0.592932,-0.011295,-0.029176,-0.006650,-0.003249,-0.289614,-0.957138,0.004256,0.002626,-0.003403,17.662359,-1.448151,-47.735382,,,,,,,
1530640458.199865,-0.003800,0.293596,-0.593315,-0.012277,-0.025804,-0.015256,-0.003637,-0.289397,-0.957202,0.003775,-0.000993,-0.001935,17.666731,-1.282059,-47.904648,,,,,,,
1530640458.219835,-0.004135,0.293349,-0.593685,-0.016481,-0.023603,-0.014120,-0.003958,-0.289160,-0.957273,-0.000268,-0.001261,-0.000811,17.663633,-1.383522,-47.980255,,,,,,,
1530640458.239804,-0.004396,0.293029,-0.594118,-0.021717,-0.016971,-0.015110,-0.004208,-0.288853,-0.957364,-0.001773,-0.000987,0.000653,17.611734,-1.251678,-47.853592,,,,,,,
1530640458.259773,-0.004417,0.292462,-0.594587,-0.030082,-0.007012,-0.018208,-0.004230,-0.288311,-0.957528,-0.001050,-0.001698,0.004219,17.522230,-0.978172,-47.812988,,,,,,,
1530640458.279742,-0.004596,0.291862,-0.594984,-0.028017,-0.019185,-0.013974,-0.004401,-0.287736,-0.957700,0.004218,-0.001189,-0.005481,17.577333,-1.239952,-47.582687,,,,,,,
1530640458.299712,-0.004880,0.291626,-0.595193,-0.006084,-0.014849,-0.003406,-0.004674,-0.287510,-0.957766,0.004048,0.001942,-0.003782,17.524172,-1.249855,-47.623672,,,,,,,
1530640458.319681,-0.005111,0.291555,-0.595283,-0.002946,-0.008235,-0.002324,-0.004895,-0.287442,-0.957786,0.004133,0.002270,-0.003717,17.564402,-1.419800,-47.802078,,,,,,,
1530640458.339650,-0.005162,0.291564,-0.595415,-0.002956,0.000589,-0.001202,-0.004945,-0.287450,-0.957783,0.008179,0.000081,-0.005367,17.507174,-1.176506,-47.646927,,,,,,,
1530640458.359620,-0.005184,0.291486,-0.595398,-0.006154,-0.003871,0.005282,-0.004966,-0.287376,-0.957805,0.012946,-0.000191,-0.007497,17.599573,-1.383728,-47.597794,,,,,,,
1530640458.379589,-0.005628,0.291307,-0.595276,-0.014564,-0.030384,0.008479,-0.005391,-0.287205,-0.957854,0.007466,-0.002514,-0.007234,17.568960,-1.352745,-47.829086,,,,,,,
1530640458.399558,-0.006517,0.290893,-0.595232,-0.021887,-0.044717,0.006327,-0.006243,-0.286807,-0.957968,0.011248,0.000400,-0.005564,17.515768,-1.349655,-47.720932,,,,,,,
1530640458.419527,-0.007396,0.290547,-0.595298,-0.013433,-0.043564,-0.001304,-0.007086,-0.286476,-0.958061,0.016226,0.008309,0.005821,17.529032,-1.315102,-47.579910,,,,,,,
1530640458.439497,-0.008124,0.290320,-0.595321,-0.013488,-0.038089,0.005194,-0.007784,-0.286259,-0.958121,0.023805,0.001286,0.012732,17.500532,-1.282799,-47.650208,,,,,,,
1530640458.459466,-0.008781,0.290219,-0.595135,0.002153,-0.034855,0.015825,-0.008414,-0.286162,-0.958144,0.025656,0.000777,-0.001267,17.422884,-1.233589,-47.860992,,,,,,,
1530640458.479435,-0.009796,0.290487,-0.594715,0.015687,-0.057026,0.028516,-0.009385,-0.286419,-0.958058,0.022889,-0.006366,-0.012217,17.352522,-1.286644,-47.924805,,,,,,,
1530640458.499404,-0.011642,0.290483,-0.594283,-0.017854,-0.095646,0.027611,-0.011154,-0.286415,-0.958041,0.021087,-0.006127,0.018130,17.182589,-1.245010,-47.896805,,,,,,,
1530640458.519373,-0.014038,0.289128,-0.593632,-0.099769,-0.134366,0.043399,-0.013455,-0.285116,-0.958399,0.023983,0.002401,0.016031,17.061789,-1.098076,-47.886261,,,,,,,
1530640458.539342,-0.016956,0.286389,-0.592958,-0.155309,-0.145353,0.038541,-0.016265,-0.282491,-0.959132,0.020141,-0.006740,-0.001683,16.819063,-0.973923,-47.772522,,,,,,,
1530640458.559311,-0.020651,0.283936,-0.589509,-0.065472,-0.133107,0.338554,-0.019823,-0.280137,-0.959755,0.160509,0.087052,-0.061821,16.754877,-0.884918,-47.900589,,,,,,,
1530640458.579281,-0.026745,0.284045,-0.579945,0.059014,-0.201646,0.506222,-0.025670,-0.280241,-0.959586,0.102071,0.065565,-0.011590,16.627848,-1.063187,-47.917557,,,,,,,
1530640458.599251,-0.035791,0.285372,-0.568589,0.071121,-0.374294,0.568893,-0.034336,-0.281515,-0.958942,0.064579,0.031347,0.040531,16.335737,-1.201836,-47.981049,,,,,,,
1530640458.619220,-0.048706,0.285601,-0.557162,0.010629,-0.549550,0.533107,-0.046715,-0.281734,-0.958355,0.004936,0.024883,0.067135,15.692301,-1.278297,-48.421768,,,,,,,
1530640458.639189,-0.062540,0.284409,-0.548312,-0.032235,-0.621403,0.389769,-0.059988,-0.280591,-0.957951,-0.039835,0.007245,0.053425,14.955843,-1.157646,-48.264130,,,,,,,
1530640458.659158,-0.075406,0.283423,-0.542666,-0.005723,-0.537462,0.222720,-0.072329,-0.279643,-0.957376,-0.060560,-0.001988,0.039224,14.431379,-1.082619,-48.413330,,,,,,,
1530640458.679127,-0.085318,0.283337,-0.540301,0.012202,-0.440437,0.079551,-0.081817,-0.279561,-0.956636,-0.054444,-0.009776,0.027238,13.907675,-1.302071,-48.511169,,,,,,,
1530640458.699096,-0.093413,0.283078,-0.539850,-0.026058,-0.391387,0.012251,-0.089565,-0.279312,-0.956014,-0.030980,-0.020157,0.028188,13.537077,-1.227066,-48.517822,,,,,,,
1530640458.719066,-0.101597,0.281693,-0.540315,-0.107611,-0.441944,-0.016242,-0.097424,-0.277982,-0.955633,-0.009494,-0.018557,0.030889,13.165106,-0.948227,-48.542526,,,,,,,
1530640458.739035,-0.112429,0.278136,-0.541259,-0.226137,-0.627418,-0.008322,-0.107881,-0.274564,-0.955498,0.014680,-0.022098,0.023644,12.650515,-0.787186,-48.712402,,,,,,,
1530640458.759004,-0.127727,0.272734,-0.541646,-0.288496,-0.850840,0.057053,-0.122671,-0.269365,-0.955193,0.027716,-0.046461,0.005791,11.834146,-0.451279,-48.708374,,,,,,,
1530640458.778973,-0.147247,0.266493,-0.539617,-0.302120,-0.989732,0.188109,-0.141536,-0.263350,-0.954261,0.010982,-0.021577,-0.004586,10.784189,-0.146057,-48.785004,,,,,,,
1530640458.798944,-0.167911,0.260659,-0.537224,-0.255691,-1.004959,0.153026,-0.161478,-0.257717,-0.952632,-0.010015,-0.002903,-0.021947,9.930449,0.069397,-48.827209,,,,,,,
1530640458.818913,-0.187580,0.256824,-0.535783,-0.135682,-0.950504,0.094844,-0.180366,-0.254010,-0.950235,-0.002847,0.008679,-0.023840,9.157835,0.317223,-48.601639,,,,,,,
1530640458.838881,-0.205720,0.255448,-0.535017,-0.025199,-0.879563,0.047637,-0.197644,-0.252679,-0.947148,0.009640,0.009179,-0.023829,8.357492,0.331230,-48.812561,,,,,,,
1530640458.858851,-0.223065,0.256199,-0.534298,0.075556,-0.867379,0.036913,-0.213999,-0.253406,-0.943393,0.029017,0.005099,-0.035153,7.562490,0.297104,-48.565002,,,,,,,
1530640458.878820,-0.240834,0.258481,-0.532619,0.162218,-0.876560,0.083400,-0.230589,-0.255613,-0.938877,0.036650,0.001676,-0.029918,6.670763,0.096138,-48.763016,,,,,,,
1530640458.898789,-0.258536,0.261632,-0.529320,0.207813,-0.818521,0.148983,-0.246965,-0.258658,-0.933865,0.029954,0.006354,-0.009982,5.907461,0.047890,-48.795639,,,,,,,
1530640458.918758,-0.274798,0.264675,-0.524886,0.204329,-0.727167,0.188289,-0.261904,-0.261595,-0.928964,0.024477,0.013075,-0.001044,5.162645,-0.046852,-48.468185,,,,,,,
,,,,,,,,,,,,,,,,39.779289,-84.063515,291.658142,-1.000000,-1.000000,1530640458.886213,
1530640458.938728,-0.289079,0.267210,-0.520317,0.189746,-0.594585,0.172904,-0.274953,-0.264041,-0.924491,-0.016979,0.016590,-0.011132,4.479429,-0.313354,-48.731857,,,,,,,
1530640458.958698,-0.297588,0.271760,-0.516953,0.321721,-0.275889,0.055475,-0.282454,-0.268427,-0.920959,-0.032289,0.016764,-0.040329,4.179323,-0.607597,-48.503159,,,,,,,
1530640458.978667,-0.302110,0.277683,-0.514778,0.301076,-0.153046,0.012067,-0.286138,-0.274128,-0.918139,-0.017924,-0.020825,0.015093,3.849131,-1.239174,-48.746674,,,,,,,
1530640458.998636,-0.302761,0.282039,-0.513891,0.176577,0.044878,-0.028794,-0.286377,-0.278315,-0.916804,-0.004913,-0.019445,0.046656,4.060263,-1.503029,-48.551544,,,,,,,
1530640459.018605,-0.300619,0.283588,-0.513667,0.037800,0.114182,0.012927,-0.284284,-0.279802,-0.917002,0.045148,-0.008055,-0.003454,4.187902,-1.443634,-48.639557,,,,,,,
1530640459.038574,-0.299582,0.281860,-0.512331,-0.114201,0.061495,0.136166,-0.283475,-0.278143,-0.917757,0.077665,-0.029840,-0.001478,4.352549,-1.298790,-48.558884,,,,,,,
1530640459.058544,-0.299680,0.276472,-0.510467,-0.283344,0.018225,0.175514,-0.284004,-0.272963,-0.919148,0.038154,-0.009980,-0.012477,4.289095,-0.993134,-48.754852,,,,,,,
1530640459.078513,-0.299760,0.270036,-0.509770,-0.305878,-0.002287,0.109863,-0.284590,-0.266766,-0.920785,0.034757,-0.008426,-0.012580,4.055582,-0.540466,-48.651978,,,,,,,
1530640459.098482,-0.300671,0.264219,-0.510095,-0.273036,-0.096968,0.071307,-0.285884,-0.261155,-0.921992,0.052195,-0.015151,0.003718,4.077988,-0.488045,-48.721878,,,,,,,
1530640459.118451,-0.304213,0.259539,-0.510940,-0.223356,-0.284350,0.027813,-0.289510,-0.256635,-0.922129,0.056111,0.000944,-0.002553,3.701891,-0.110275,-48.903732,,,,,,,
1530640459.138422,-0.313604,0.256750,-0.512496,-0.114759,-0.636097,-0.035442,-0.298377,-0.253939,-0.920047,0.085547,-0.015547,-0.015317,3.150829,-0.159325,-48.951736,,,,,,,
1530640459.158391,-0.330482,0.257184,-0.514558,0.054885,-1.040676,-0.124401,-0.313826,-0.254358,-0.914776,0.081557,0.006113,-0.034794,-2.385065,2.967598,-49.096466,,,,,,,
1530640459.178360,-0.355218,0.261696,-0.516689,0.248466,-1.386895,-0.192847,-0.335953,-0.258719,-0.905649,0.085999,0.014411,-0.015295,-3.772148,2.796455,-48.753906,,,,,,,
1530640459.198329,-0.383734,0.269553,-0.518281,0.385032,-1.459607,-0.220539,-0.360867,-0.266300,-0.893789,0.084683,0.037037,0.011236,-4.979708,2.439857,-48.722809,,,,,,,
1530640459.218298,-0.412577,0.279223,-0.519202,0.451241,-1.447362,-0.238443,-0.385441,-0.275609,-0.880610,0.083851,0.073094,-0.016316,-6.502430,2.189491,-48.398163,,,,,,,
1530640459.238267,-0.439978,0.289802,-0.519855,0.476355,-1.328171,-0.234902,-0.408159,-0.285762,-0.867033,0.073152,0.116832,-0.076769,-7.785620,1.689690,-48.061691,,,,,,,
1530640459.258236,-0.468532,0.299968,-0.519342,0.409865,-1.589081,-0.176129,-0.431412,-0.295489,-0.852390,0.052308,0.076556,-0.130749,-9.286329,1.306503,-47.674774,,,,,,,
1530640459.278206,-0.501915,0.305625,-0.518400,0.176697,-1.579161,-0.003191,-0.458811,-0.300889,-0.836037,0.178110,-0.036849,0.027337,-10.685478,1.194397,-47.120255,,,,,,,
1530640459.298175,-0.533022,0.304013,-0.516321,-0.130990,-1.610126,0.178975,-0.484836,-0.299352,-0.821780,0.094074,0.066060,-0.095273,-12.284773,1.478996,-46.953690,,,,,,,
1530640459.318145,-0.563901,0.296759,-0.516293,-0.462789,-0.925830,0.213856,-0.511124,-0.292422,-0.808233,0.094605,0.162951,0.569265,-13.329512,1.882095,-46.928040,,,,,,,
1530640459.338115,-0.570928,0.281812,-0.523609,-0.899716,-0.414175,0.156271,-0.519096,-0.278096,-0.808209,0.045478,0.164754,-0.060474,-13.574251,2.684235,-46.756378,,,,,,,
1530640459.358083,-0.579817,0.263638,-0.528318,-0.805395,-0.467931,0.422483,-0.528941,-0.260594,-0.807658,0.051585,0.142781,-0.084523,-14.191605,3.741516,-46.742325,,,,,,,
1530640459.378052,-0.588315,0.246255,-0.530840,-0.760052,-0.550540,0.393557,-0.538218,-0.243774,-0.806781,0.152507,0.134551,-0.156949,-14.633656,4.331383,-46.555618,,,,,,,
1530640459.398021,-0.600505,0.233531,-0.537592,-0.642910,-0.791291,-0.076927,-0.549721,-0.231414,-0.802655,0.123619,0.139953,-0.186420,-15.283270,4.940781,-46.397964,,,,,,,
1530640459.417991,-0.618086,0.226697,-0.549331,-0.534703,-1.145790,-0.221081,-0.564650,-0.224760,-0.794137,0.082975,0.067717,-0.170783,-16.327339,5.497063,-45.998810,,,,,,,
1530640459.437960,-0.638895,0.217268,-0.559264,-0.732765,-1.209220,0.021235,-0.582289,-0.215563,-0.783883,0.179335,0.127504,-0.110298,-17.339642,6.016060,-45.805084,,,,,,,
1530640459.457929,-0.663118,0.201567,-0.569624,-1.021219,-1.372379,0.162652,-0.603114,-0.200205,-0.772122,0.126902,0.113367,-0.033100,-18.644402,7.218208,-45.347794,,,,,,,
1530640459.477900,-0.688555,0.177439,-0.581394,-1.415136,-1.266396,0.499550,-0.625445,-0.176509,-0.760041,0.221331,0.014155,0.109178,-19.681339,8.312668,-44.900009,,,,,,,
1530640459.497869,-0.702813,0.144801,-0.587400,-1.312049,-0.445845,1.083734,-0.639602,-0.144296,-0.755041,0.379913,0.067239,-0.067392,-20.199833,9.944893,-44.295868,,,,,,,
1530640459.517838,-0.708948,0.109799,-0.580645,-1.025715,-0.178950,1.585635,-0.647115,-0.109578,-0.754477,0.476018,0.201330,0.041922,-20.110668,11.272270,-44.269714,,,,,,,
1530640459.537808,-0.705985,0.071234,-0.571356,-1.244414,0.461013,1.640666,-0.647138,-0.071173,-0.759043,0.465971,0.258872,0.080698,-19.678465,13.103722,-43.974792,,,,,,,
1530640459.557777,-0.693781,0.029337,-0.565442,-1.439095,0.681107,1.589878,-0.639174,-0.029333,-0.768503,0.510161,0.278067,-0.041464,-18.936213,15.090157,-44.254044,,,,,,,
1530640459.577746,-0.679172,-0.014637,-0.560626,-1.565551,0.774478,1.662855,-0.628082,0.014637,-0.778010,0.445343,0.191677,0.006144,-17.875008,16.751221,-44.033325,,,,,,,
1530640459.597715,-0.661765,-0.061894,-0.553359,-1.616417,0.853754,1.854680,-0.613334,0.061854,-0.787398,0.330878,0.217977,-0.031358,-16.778620,18.897179,-44.139069,,,,,,,
1530640459.617685,-0.644200,-0.110821,-0.545339,-1.737806,0.850696,1.823606,-0.596875,0.110594,-0.794675,0.154569,0.303057,0.042890,-15.630535,21.000122,-43.826279,,,,,,,
1530640459.637654,-0.625808,-0.162022,-0.538561,-1.891979,0.831962,1.826235,-0.578081,0.161314,-0.799875,-0.129377,0.353884,0.035517,-14.220743,22.880257,-43.425201,,,,,,,
1530640459.657623,-0.612263,-0.215973,-0.534204,-2.157277,0.490677,1.704468,-0.561369,0.214298,-0.799338,-0.361193,0.419583,0.038886,-13.320864,25.088600,-42.903351,,,,,,,
1530640459.677593,-0.606086,-0.269963,-0.538110,-2.386390,0.225588,1.258043,-0.549022,0.266696,-0.792116,-0.618779,0.404752,0.016512,-12.425314,27.583466,-41.944702,,,,,,,
1530640459.697562,-0.611228,-0.322538,-0.551741,-2.565548,-0.250728,0.863999,-0.544281,0.316975,-0.776714,-0.737015,0.293865,-0.043278,-12.254671,29.604851,-41.054077,,,,,,,
1530640459.717531,-0.628455,-0.374736,-0.571257,-2.677137,-0.767995,0.801222,-0.547098,0.366027,-0.752800,-0.784720,0.090638,-0.114937,-12.485886,32.049583,-39.617516,,,,,,,
1530640459.737501,-0.658905,-0.424816,-0.593601,-2.538311,-1.347567,0.637322,-0.557831,0.412153,-0.720384,-0.834411,-0.034636,-0.139067,-12.931499,34.181969,-37.861748,,,,,,,
1530640459.757470,-0.704020,-0.468832,-0.619008,-2.322999,-1.959237,0.482157,-0.577443,0.451844,-0.679998,-0.681194,-0.092820,-0.160716,-14.058123,36.075020,-36.184593,,,,,,,
1530640459.777439,-0.758613,-0.508544,-0.644655,-2.184919,-2.192542,0.530252,-0.600863,0.486906,-0.633945,-0.608808,-0.171583,-0.012692,-15.123920,37.617630,-34.431664,,,,,,,
1530640459.797408,-0.811946,-0.546025,-0.674989,-2.251422,-1.695369,0.314421,-0.620118,0.519294,-0.588037,-0.573577,-0.175224,0.048425,-16.390902,39.300446,-32.539612,,,,,,,
1530640459.817378,-0.860303,-0.573303,-0.713538,-1.987319,-1.289245,-0.319530,-0.636840,0.542410,-0.547929,-0.472108,-0.141958,-0.041960,-17.295673,40.452484,-30.605354,,,,,,,
1530640459.837347,-0.904914,-0.586509,-0.756785,-1.700793,-0.918794,-0.744663,-0.654951,0.553457,-0.514513,-0.305452,-0.261343,-0.038618,-18.409027,41.416840,-29.117035,,,,,,,
1530640459.857316,-0.946052,-0.592364,-0.801083,-1.614378,-0.856850,-0.926471,-0.672917,0.558324,-0.485238,-0.213802,-0.281545,-0.097998,-19.497274,42.074181,-27.837425,,,,,,,
1530640459.877286,-0.990388,-0.592654,-0.849031,-1.625638,-0.896788,-1.216667,-0.693627,0.558564,-0.454848,-0.210532,-0.267259,-0.096178,-21.111561,42.726765,-26.376968,,,,,,,
1530640459.897255,-1.034837,-0.587630,-0.897758,-1.504797,-0.897721,-1.247084,-0.715557,0.554390,-0.425005,-0.037052,-0.332832,-0.178816,-22.393845,43.070343,-25.006676,,,,,,,
1530640459.917224,-1.080188,-0.580980,-0.940151,-1.296230,-1.236635,-1.095636,-0.737325,0.548843,-0.393856,0.005178,-0.324814,-0.150455,-23.749172,43.303768,-23.199043,,,,,,,
1530640459.937194,-1.126979,-0.574722,-0.978550,-1.268111,-1.347008,-0.940079,-0.758027,0.543602,-0.360406,0.047379,-0.253319,-0.139472,-25.204496,43.340214,-21.685783,,,,,,,
1530640459.957163,-1.175809,-0.568517,-1.013675,-1.155565,-1.599386,-0.846504,-0.777814,0.538383,-0.324268,0.107251,-0.177238,-0.134488,-26.451468,43.365494,-20.102890,,,,,,,
1530640459.977132,-1.225530,-0.561552,-1.045446,-1.096264,-1.638446,-0.788012,-0.796478,0.532501,-0.286472,0.112853,-0.118209,-0.059872,-27.645000,43.350716,-18.327339,,,,,,,
1530640459.997102,-1.272096,-0.553815,-1.075943,-1.087095,-1.473060,-0.759273,-0.812863,0.525935,-0.250291,0.181302,-0.077083,-0.034728,-28.797604,43.272205,-16.593018,,,,,,,
1530640460.017071,-1.318973,-0.547118,-1.108828,-1.273426,-1.357681,-0.673678,-0.827091,0.520228,-0.212798,0.128681,-0.027614,-0.086427,-29.986794,43.373859,-14.889206,,,,,,,
1530640460.037040,-1.355274,-0.540366,-1.139553,-1.117631,-0.834772,-0.630757,-0.837682,0.514450,-0.183387,0.076177,0.027909,-0.044335,-30.598515,43.261337,-13.642792,,,,,,,
1530640460.057009,-1.383231,-0.530758,-1.167557,-1.092610,-0.708145,-0.744738,-0.847297,0.506187,-0.160814,0.097740,-0.044991,-0.008436,-31.391829,43.280304,-12.164474,,,,,,,
1530640460.076979,-1.405616,-0.518773,-1.193653,-0.881590,-0.271890,-0.784790,-0.856608,0.495815,-0.142796,0.032892,0.028584,-0.111675,-32.174282,43.124088,-11.216965,,,,,,,
1530640460.096948,-1.414154,-0.506114,-1.211678,-0.575830,0.098608,-0.738807,-0.863927,0.484782,-0.136445,0.018574,-0.049708,-0.055068,-32.654633,42.784489,-10.675560,,,,,,,
1530640460.116917,-1.413992,-0.492159,-1.225353,-0.406615,0.478688,-0.794862,-0.870502,0.472530,-0.137628,-0.009091,-0.056575,-0.048102,-33.131390,42.351704,-10.487984,,,,,,,
1530640460.136887,-1.407596,-0.478086,-1.231316,0.136885,0.262570,-0.697087,-0.876079,0.460081,-0.144260,-0.000095,-0.083555,-0.434125,-33.447491,42.108318,-10.724838,,,,,,,
1530640460.156856,-1.406886,-0.462582,-1.222904,0.624760,-0.290539,-0.713583,-0.882908,0.446261,-0.146028,-0.085765,-0.229876,-0.226927,-33.989563,41.545982,-10.869339,,,,,,,
1530640460.176825,-1.406024,-0.447715,-1.213622,0.435085,-0.056080,-0.606889,-0.889229,0.432907,-0.147861,0.009026,-0.108200,-0.120556,-34.435589,40.713768,-11.205544,,,,,,,
1530640460.196795,-1.404975,-0.436719,-1.211782,0.054741,0.016298,-0.519440,-0.893715,0.422968,-0.149570,-0.020881,-0.040675,-0.087688,-34.825859,40.304550,-11.308334,,,,,,,
1530640460.216764,-1.402557,-0.425882,-1.214461,-0.015266,0.328997,-0.558168,-0.897817,0.413124,-0.152489,-0.038523,-0.090050,-0.048118,-35.206863,39.926781,-11.156525,,,,,,,
1530640460.236733,-1.391964,-0.416718,-1.215274,0.115258,0.596991,-0.367367,-0.899839,0.404762,-0.162658,0.014127,-0.205177,-0.134339,-35.304718,39.604874,-11.728119,,,,,,,
1530640460.256703,-1.381377,-0.411069,-1.211379,0.304753,0.319750,-0.193851,-0.900298,0.399590,-0.172603,-0.042757,-0.190285,-0.185719,-35.288910,39.180161,-12.061455,,,,,,,
1530640460.276672,-1.376249,-0.407887,-1.203931,0.396509,-0.041556,0.008346,-0.900644,0.396670,-0.177462,0.050394,-0.181109,-0.061277,-35.255096,39.041878,-12.070885,,,,,,,
1530640460.296641,-1.379373,-0.412441,-1.197837,0.116857,-0.526125,0.493248,-0.899411,0.400847,-0.174303,0.213620,-0.111632,-0.012038,-35.192577,39.451553,-12.009644,,,,,,,
1530640460.316610,-1.387695,-0.424708,-1.193886,0.063235,-0.451824,0.765966,-0.895928,0.412055,-0.165904,0.209114,-0.057990,0.009059,-34.513779,39.832932,-11.497124,,,,,,,
1530640460.336580,-1.395406,-0.447428,-1.189823,-0.043060,-0.502933,1.457105,-0.887731,0.432649,-0.157316,0.390035,-0.271760,0.038541,-33.484028,40.790024,-11.173553,,,,,,,
1530640460.356549,-1.398855,-0.488146,-1.185688,-0.249015,-0.071123,2.398623,-0.870181,0.468989,-0.151112,0.379626,-0.382640,0.143727,-31.659899,42.087959,-10.606010,,,,,,,
1530640460.376518,-1.402443,-0.545311,-1.188504,-0.813064,-0.291898,2.902932,-0.842878,0.518684,-0.143258,0.101652,-0.142280,0.028450,-29.743101,43.921265,-9.533104,,,,,,,
1530640460.396488,-1.435763,-0.599803,-1.208901,-1.574095,-0.766127,2.234683,-0.817932,0.564480,-0.111125,-0.169296,0.611042,1.076152,-28.127686,45.179668,-7.872131,,,,,,,
1530640460.416457,-1.426813,-0.630657,-1.262408,-2.717017,2.582956,0.721816,-0.799283,0.589676,-0.115885,0.092832,0.721695,0.326212,-26.949677,45.909458,-6.612419,,,,,,,
1530640460.436426,-1.426280,-0.657606,-1.328173,-2.608440,1.570902,1.320826,-0.783207,0.611224,-0.113981,-0.123592,-0.097308,-0.146319,-25.471672,46.912060,-5.442520,,,,,,,
1530640460.456396,-1.414760,-0.703629,-1.371351,-1.655717,2.191271,2.397574,-0.753236,0.646989,-0.118496,-0.280608,-0.164033,-0.053059,-23.222916,48.193329,-4.615021,,,,,,,
1530640460.476365,-1.385817,-0.763185,-1.396493,-1.336710,2.563399,3.005330,-0.710310,0.691227,-0.132912,-0.051928,-0.165256,0.185585,-20.180912,49.233555,-4.425148,,,,,,,
1530640460.496334,-1.333267,-0.830110,-1.419079,-1.587881,3.859248,3.039057,-0.655848,0.738006,-0.158781,0.246210,-0.326644,0.281767,-17.218845,50.348312,-3.982674,,,,,,,
1530640460.516304,-1.278213,-0.890055,-1.452141,-1.931198,3.940536,2.315114,-0.602622,0.777106,-0.181527,0.442817,-0.433005,0.094506,-14.598049,50.935013,-3.213036,,,,,,,
1530640460.536273,-1.246516,-0.933882,-1.503154,-2.263389,3.400115,1.141538,-0.563721,0.803935,-0.189493,0.334717,-0.318766,0.037195,-13.365038,51.096184,-1.813873,,,,,,,
1530640460.556242,-1.239585,-0.956567,-1.579923,-2.598970,3.589300,-0.019850,-0.545005,0.817218,-0.187415,0.197379,-0.331516,0.172019,-12.997139,50.838223,-0.196999,,,,,,,
1530640460.576212,-1.236055,-0.974833,-1.673214,-2.921982,4.168367,0.225815,-0.530151,0.827608,-0.184403,0.231949,-0.427248,0.270112,-12.520746,50.480057,1.680923,,,,,,,
1530640460.596181,-1.236394,-1.016038,-1.770802,-3.381993,3.869750,1.605475,-0.497560,0.850028,-0.172878,0.406572,-0.508261,0.271786,-11.077074,50.480030,3.836800,,,,,,,
1530640460.616150,-1.275031,-1.078296,-1.891572,-4.127892,2.877789,2.052997,-0.452300,0.881153,-0.137817,0.387206,-0.452809,0.255889,-9.304304,50.412872,7.233727,,,,,,,
1530640460.636120,-1.396002,-1.135949,-2.072631,-4.845034,1.450998,1.684910,-0.414852,0.906934,-0.073261,0.256008,-0.396299,0.196339,-7.806095,49.603306,11.477341,,,,,,,
1530640460.656089,-1.628195,-1.173702,-2.331676,-5.340479,-0.923502,1.545007,-0.386103,0.922189,0.022186,0.228235,-0.266824,-0.108124,-6.161566,48.165680,16.260910,,,,,,,
1530640460.676058,-1.933099,-1.182723,-2.594923,-4.318087,-4.618650,1.385785,-0.353841,0.925640,0.134118,0.214330,0.517384,-0.227166,1.626934,43.410194,21.284088,,,,,,,
1530640460.696028,-2.227464,-1.177271,-2.766636,-2.110545,-7.657104,1.190123,-0.303702,0.923563,0.234087,-0.108026,1.390539,0.104078,5.739607,41.716911,23.865524,,,,,,,
1530640460.715997,-2.371122,-1.167822,-2.802405,-0.247537,-3.155460,-0.794673,-0.273126,0.919899,0.281405,-0.858114,2.138817,1.201033,6.159090,41.910069,24.223015,,,,,,,
1530640460.735966,-2.261862,-1.134959,-2.713021,0.359814,3.749030,-3.303459,-0.325310,0.906517,0.269073,-0.708610,1.519936,0.789383,2.270170,42.125992,23.662094,,,,,,,
1530640460.755935,-2.055297,-1.092064,-2.594870,1.325838,5.440130,-2.855860,-0.407636,0.887580,0.214558,-0.036013,0.518884,0.082058,-1.993137,42.237000,22.526131,,,,,,,
1530640460.775905,-1.867667,-1.072562,-2.506650,1.507948,5.637090,-1.015818,-0.456971,0.878428,0.139793,0.241487,-0.108546,0.011636,-4.849115,42.378586,20.446747,,,,,,,
1530640460.795874,-1.712068,-1.072518,-2.455384,1.076750,5.202650,0.049033,-0.473152,0.878407,0.067291,0.399498,-0.296498,-0.386948,-6.475206,42.853832,18.312325,,,,,,,
1530640460.815844,-1.600032,-1.078788,-2.411115,1.031936,2.321400,0.214647,-0.472195,0.881386,0.013809,0.468274,-0.157616,-0.843521,-7.118355,43.260960,16.845009,,,,,,,
1530640460.835813,-1.574946,-1.073785,-2.376565,0.727004,-1.432663,-0.620957,-0.476796,0.879012,0.001979,0.303350,-0.138930,-0.366389,-7.230673,43.261555,16.421539,,,,,,,
1530640460.855782,-1.595165,-1.046082,-2.341880,0.962464,-3.098290,-1.935438,-0.500817,0.865467,0.012207,0.123436,-0.253086,-0.170715,-7.954288,42.987938,16.196892,,,,,,,
1530640460.875751,-1.629698,-0.989147,-2.288329,1.465284,-4.544762,-3.506239,-0.548450,0.835558,0.032342,0.143924,0.023421,-0.131418,-9.761017,42.434929,16.428871,,,,,,,
1530640460.895721,-1.680450,-0.905610,-2.221040,1.710284,-5.695581,-4.716953,-0.613498,0.786802,0.067543,0.199543,0.187823,0.023537,-12.145389,41.581116,16.633385,,,,,,,
1530640460.915690,-1.737404,-0.821290,-2.138370,2.472290,-6.170056,-4.144965,-0.671844,0.732026,0.112982,0.335250,0.202347,0.081446,-14.135431,40.714127,16.739571,,,,,,,
1530640460.935659,-1.783460,-0.772554,-2.035688,3.396427,-5.594319,-2.519162,-0.699998,0.697966,0.151149,0.041611,0.426087,0.383808,-14.983681,40.576340,16.259674,,,,,,,
1530640460.955629,-1.791262,-0.751108,-1.927198,3.687488,-3.156548,-1.621811,-0.713241,0.682449,0.159844,-0.195359,0.409043,0.532692,-15.623290,40.744526,14.970818,,,,,,,
1530640460.975598,-1.755633,-0.742539,-1.827849,3.337015,-0.835611,-0.879952,-0.724205,0.676161,0.135405,-0.052117,0.179415,0.370821,-16.283894,41.043682,12.792015,,,,,,,
1530640460.995567,-1.701480,-0.742275,-1.749683,2.537042,0.469803,-0.288117,-0.730649,0.675966,0.096031,0.050840,-0.044939,0.217369,-16.541294,41.016113,10.404480,,,,,,,
1530640461.015537,-1.697677,-0.744291,-1.719528,-0.125405,-2.497534,0.158451,-0.729655,0.677451,0.093079,0.153819,-0.437964,-0.483536,-16.086018,40.655117,11.059494,,,,,,,
1530640461.035506,-1.780249,-0.743779,-1.753261,-1.575542,-2.553233,0.140216,-0.719832,0.677074,0.153015,-0.166124,-0.203105,0.025010,-15.610412,40.348366,13.258369,,,,,,,
1530640461.055475,-1.822182,-0.739766,-1.794427,-1.381703,0.382600,0.215936,-0.715410,0.674115,0.183731,-0.197783,-0.140470,-0.093796,-15.545893,40.231831,14.641884,,,,,,,
,,,,,,,,,,,,,,,,39.779285,-84.063494,291.333096,0.000000,-1.000000,1530640461.000139,
1530640461.075445,-1.809846,-0.740435,-1.822759,-0.794245,2.053307,0.278131,-0.717184,0.674609,0.174784,-0.217615,-0.074267,-0.235011,-15.494350,40.215214,14.569275,,,,,,,
1530640461.095414,-1.776852,-0.740978,-1.837036,-0.359440,2.003829,0.069409,-0.722201,0.675010,0.150956,-0.140241,-0.108344,-0.332978,-15.999280,40.308144,13.751625,,,,,,,
1530640461.115383,-1.752398,-0.740538,-1.841997,-0.097507,0.977616,-0.005199,-0.725968,0.674685,0.133306,-0.069015,-0.143023,-0.320775,-16.204729,40.400864,13.655533,,,,,,,
1530640461.135353,-1.744813,-0.740303,-1.842173,0.026477,0.092287,-0.012948,-0.727114,0.674512,0.127823,-0.037000,-0.115064,-0.193084,-16.324318,40.537315,13.469063,,,,,,,
1530640461.155322,-1.748479,-0.740097,-1.841438,0.008718,-0.351498,-0.010588,-0.726778,0.674359,0.130512,0.001543,-0.102872,-0.128345,-16.294804,40.532040,13.585289,,,,,,,
1530640461.175291,-1.759874,-0.740190,-1.843035,-0.047089,-0.656409,0.025210,-0.725181,0.674429,0.138774,0.019615,-0.101873,-0.146327,-16.164238,40.327103,13.942062,,,,,,,
1530640461.195261,-1.779138,-0.740997,-1.845417,-0.031521,-1.102612,0.056328,-0.721842,0.675024,0.152604,-0.001501,-0.095251,-0.180497,-16.099827,40.235050,14.433159,,,,,,,
1530640461.215230,-1.806319,-0.741729,-1.845175,0.100075,-1.520672,0.003292,-0.716947,0.675563,0.172050,-0.059192,-0.097042,-0.159385,-15.617588,40.258713,14.825897,,,,,,,
1530640461.235200,-1.833481,-0.741920,-1.841576,0.194919,-1.471730,-0.054642,-0.711885,0.675704,0.191425,-0.088378,-0.106643,-0.141711,-15.487567,40.046162,15.396950,,,,,,,
1530640461.255169,-1.855402,-0.741871,-1.836408,0.216871,-1.174792,-0.053444,-0.707550,0.675668,0.206992,-0.100830,-0.124918,-0.136145,-15.409483,40.121361,15.815910,,,,,,,
1530640461.275138,-1.871298,-0.742928,-1.832319,0.174135,-0.864091,0.035872,-0.703488,0.676447,0.218001,-0.128589,-0.114939,-0.175200,-15.005919,39.780338,16.117416,,,,,,,
1530640461.295108,-1.885589,-0.745607,-1.831079,0.075734,-0.777575,0.140873,-0.698575,0.678418,0.227470,-0.180179,-0.091290,-0.225837,-14.801333,40.036419,16.212311,,,,,,,
1530640461.315077,-1.904040,-0.749088,-1.834025,-0.070530,-0.939152,0.206366,-0.692023,0.680971,0.239546,-0.260034,-0.066820,-0.315626,-14.430122,39.872021,16.581169,,,,,,,
1530640461.335046,-1.936425,-0.752627,-1.840532,-0.148190,-1.964891,0.238917,-0.681649,0.683559,0.260964,-0.511665,-0.023296,-0.786965,-13.897260,39.625919,17.465492,,,,,,,
1530640461.355016,-1.990142,-0.753576,-1.841601,0.186607,-2.779141,-0.160078,-0.666060,0.684251,0.296922,-0.849153,0.132781,-0.613343,-13.344172,39.194393,18.424118,,,,,,,
1530640461.374985,-2.017081,-0.747766,-1.823378,0.727001,-1.334610,-0.752069,-0.661396,0.680003,0.316465,-0.885128,0.139608,-0.601209,-13.443106,38.456635,18.982254,,,,,,,
1530640461.394954,-1.985916,-0.743456,-1.784593,1.589091,1.098629,-0.822862,-0.673612,0.676836,0.296882,-0.686938,-0.006945,-1.156958,-14.046672,38.572899,17.832726,,,,,,,
1530640461.414924,-1.908302,-0.740156,-1.724866,2.232932,1.961372,-1.097359,-0.696706,0.674403,0.244497,-0.482890,-0.019694,-0.954366,-15.009349,38.413864,15.871742,,,,,,,
1530640461.434893,-1.824363,-0.732448,-1.654020,2.518258,1.790221,-1.104467,-0.719763,0.668691,0.186522,-0.274332,-0.068563,-0.262908,-16.286915,38.082260,13.295197,,,,,,,
1530640461.454862,-1.738786,-0.722069,-1.590527,2.055192,2.317620,-1.043057,-0.739874,0.660939,0.125474,-0.423837,0.088863,-0.023026,-17.206692,37.749569,10.723694,,,,,,,
1530640461.474832,-1.650236,-0.702732,-1.540761,1.666873,3.138505,-1.281935,-0.760671,0.646305,0.060555,-0.399226,0.210507,0.228584,-18.217625,37.562378,8.160217,,,,,,,
1530640461.494801,-1.549152,-0.680480,-1.499826,1.538564,3.952389,-0.999466,-0.777087,0.629166,-0.016822,-0.214383,0.342986,0.294029,-18.852999,36.839973,5.206688,,,,,,,
1530640461.514770,-1.450579,-0.665270,-1.459343,1.699903,3.362361,-0.450745,-0.781071,0.617271,-0.094353,-0.157802,0.510979,0.368065,-18.993744,36.566040,2.228561,,,,,,,
1530640461.534740,-1.372176,-0.654671,-1.418242,1.629141,2.154279,-0.230404,-0.777652,0.608899,-0.156521,-0.198315,0.676853,0.431454,-18.760895,36.125435,0.346146,,,,,,,
1530640461.554709,-1.352607,-0.642613,-1.399997,0.235743,-0.722974,-0.578865,-0.781552,0.599290,-0.173285,0.039853,0.718810,0.019797,-18.556208,34.585083,0.600029,,,,,,,
1530640461.574678,-1.363373,-0.633318,-1.405023,0.217717,1.244809,-0.345928,-0.788789,0.591823,-0.166001,0.223467,0.501866,-0.442764,-18.352562,34.477715,-0.127983,,,,,,,
1530640461.594648,-1.282916,-0.626741,-1.370439,2.105425,3.286850,0.232665,-0.776612,0.586509,-0.229959,0.168106,0.220620,-0.206427,-17.548807,34.119255,-2.848915,,,,,,,
1530640461.614617,-1.196733,-0.614568,-1.306380,2.800869,1.803961,0.247218,-0.760525,0.576606,-0.298541,0.094647,0.010995,0.340609,-16.881710,34.018127,-5.218796,,,,,,,
1530640461.634586,-1.142933,-0.596565,-1.251952,2.051974,0.986401,-0.100341,-0.752695,0.561804,-0.343258,0.136408,-0.186530,0.903225,-16.650196,33.850136,-6.931580,,,,,,,
1530640461.654556,-1.102935,-0.578994,-1.226643,0.925450,1.553418,-0.468471,-0.747064,0.547182,-0.377475,0.253152,-0.358507,0.973331,-16.387867,33.607536,-8.258179,,,,,,,
1530640461.674525,-1.063597,-0.565567,-1.223105,0.214690,2.015363,-0.508272,-0.737996,0.535894,-0.410096,0.411885,-0.441000,0.821076,-15.981794,33.421570,-9.120598,,,,,,,
1530640461.694494,-1.024749,-0.559895,-1.228279,-0.178576,2.043507,-0.249412,-0.724098,0.531097,-0.440020,0.557823,-0.347167,0.585101,-15.457704,33.276733,-9.321602,,,,,,,
1530640461.714464,-0.997655,-0.560778,-1.235378,-0.298331,1.161403,-0.073353,-0.711518,0.531845,-0.459220,0.622498,-0.223450,0.390861,-15.113995,33.365128,-9.624390,,,,,,,
1530640461.734433,-0.988173,-0.562701,-1.241512,-0.252116,0.395202,-0.063521,-0.706276,0.533472,-0.465383,0.622017,-0.177881,0.542912,-14.952205,33.714539,-9.253456,,,,,,,
1530640461.754402,-0.986071,-0.564644,-1.248226,-0.348494,0.270555,-0.072804,-0.704431,0.535115,-0.466293,0.593682,-0.264470,0.666229,-14.794486,33.760262,-9.028198,,,,,,,
1530640461.774372,-0.989445,-0.570150,-1.258828,-0.657363,-0.008060,0.003569,-0.703527,0.539758,-0.462289,0.471502,-0.426416,0.575295,-14.505948,33.551727,-8.256798,,,,,,,
1530640461.794341,-1.002614,-0.580346,-1.280319,-1.312686,-0.051041,-0.135252,-0.704878,0.548313,-0.449999,0.230879,-0.477574,0.475268,-14.627336,33.968178,-6.894623,,,,,,,
1530640461.814310,-1.024366,-0.593407,-1.320554,-1.981278,0.057339,-0.451156,-0.708320,0.559189,-0.430803,-0.049951,-0.311813,-0.099242,-14.698363,34.040756,-5.399597,,,,,,,
1530640461.834280,-1.053223,-0.603055,-1.369382,-1.871171,-0.244548,-0.700769,-0.715732,0.567162,-0.407498,-0.464718,0.047691,-1.543857,-15.100649,33.838722,-3.818268,,,,,,,
1530640461.854249,-1.065952,-0.601804,-1.396460,0.048474,0.903134,-0.415874,-0.721482,0.566131,-0.398697,-0.730804,0.846696,-2.510070,-15.452694,33.698822,-2.919807,,,,,,,
1530640461.874218,-1.044775,-0.591507,-1.378051,1.109406,-0.119239,0.033802,-0.717881,0.557613,-0.416791,-0.462844,1.280904,-0.987460,-15.307507,33.524277,-2.949326,,,,,,,
1530640461.894188,-1.042264,-0.579380,-1.358720,0.934862,-0.280317,-0.290825,-0.722619,0.547505,-0.421971,0.204202,0.691265,-0.440105,-15.374488,33.412659,-3.365921,,,,,,,
