timestamp(unix),attitude_roll(radians),attitude_pitch(radians),attitude_yaw(radians),rotation_rate_x(radians/s),rotation_rate_y(radians/s),rotation_rate_z(radians/s),gravity_x(G),gravity_y(G),gravity_z(G),user_acc_x(G),user_acc_y(G),user_acc_z(G),magnetic_field_x(microteslas),magnetic_field_y(microteslas),magnetic_field_z(microteslas),latitude(degree),longitude(degree),altitude(meter),speed(m/s),course(degree),timestamp(unix),User Mark
1530640636.456200,0.011848,0.536428,-2.148098,0.166662,0.071159,0.161310,0.010184,-0.511069,-0.859479,-0.039480,-0.009348,0.015485,-10.570093,-11.052223,-50.935448,,,,,,,
,,,,,,,,,,,,,,,,39.778935,-84.063506,291.008572,1.480000,-1.000000,1530640634.000116,
,,,,,,,,,,,,,,,,39.778935,-84.063506,291.008572,1.480000,-1.000000,1530640636.436475,
1530640636.476169,0.011528,0.536740,-2.143460,-0.112928,0.125910,0.238969,0.009907,-0.511337,-0.859323,-0.030140,-0.053620,0.058374,-10.496056,-10.951897,-50.797142,,,,,,,
1530640636.496138,0.010052,0.531899,-2.135925,-0.274333,0.125144,0.357173,0.008663,-0.507171,-0.861802,-0.014996,-0.036637,0.005188,-10.633186,-10.599640,-50.876472,,,,,,,
1530640636.516107,0.007964,0.528129,-2.127465,-0.110661,0.137305,0.346856,0.006879,-0.503918,-0.863723,-0.027662,0.005581,-0.022232,-10.616879,-10.474525,-51.063805,,,,,,,
1530640636.536076,0.008461,0.528110,-2.120351,0.041853,0.263511,0.287599,0.007309,-0.503901,-0.863730,-0.033569,0.018763,0.000311,-10.259024,-10.439064,-51.065727,,,,,,,
1530640636.556045,0.011457,0.529597,-2.113793,0.046060,0.352955,0.283669,0.009887,-0.505186,-0.862954,-0.020385,-0.010424,0.013771,-10.264095,-10.482262,-51.264259,,,,,,,
1530640636.576014,0.015212,0.529805,-2.106472,-0.040420,0.384587,0.342983,0.013126,-0.505365,-0.862806,0.011227,-0.033316,0.002271,-9.830593,-10.294945,-51.506859,,,,,,,
1530640636.595983,0.017101,0.528190,-2.096973,-0.106259,0.316557,0.445823,0.014769,-0.503970,-0.863594,0.012635,-0.039029,-0.008873,-9.525513,-10.062355,-51.298988,,,,,,,
1530640636.615952,0.017211,0.526123,-2.085818,-0.118983,0.262344,0.464027,0.014882,-0.502184,-0.864632,-0.050145,-0.066602,0.001488,-9.240597,-9.919258,-51.642952,,,,,,,
1530640636.635921,0.018840,0.522024,-2.077208,-0.258527,0.283092,0.343744,0.016330,-0.498635,-0.866658,-0.101413,-0.091239,0.014744,-8.990030,-9.610138,-51.756859,,,,,,,
1530640636.655890,0.022156,0.516667,-2.069421,-0.293086,0.411218,0.335025,0.019262,-0.493985,-0.869257,-0.037130,-0.039402,0.040994,-8.630285,-9.193405,-51.754509,,,,,,,
1530640636.675859,0.026307,0.510475,-2.060381,-0.357865,0.423803,0.433918,0.022950,-0.488592,-0.872210,0.041961,-0.017802,0.053607,-8.356695,-8.817574,-51.993141,,,,,,,
1530640636.695828,0.028884,0.502988,-2.047917,-0.427296,0.445935,0.588996,0.025303,-0.482045,-0.875780,0.056973,0.018209,0.063875,-7.893993,-8.258469,-52.199715,,,,,,,
1530640636.715797,0.029331,0.495228,-2.032512,-0.421711,0.397855,0.677145,0.025804,-0.475232,-0.879481,0.028624,0.032285,0.018962,-7.683594,-7.659081,-52.223534,,,,,,,
1530640636.735766,0.029526,0.488611,-2.016472,-0.340096,0.413132,0.698999,0.026067,-0.469400,-0.882601,0.003825,0.062829,0.019655,-7.277576,-7.551109,-52.395058,,,,,,,
1530640636.755735,0.029405,0.482394,-2.000143,-0.357165,0.323461,0.736491,0.026046,-0.463901,-0.885504,0.007874,0.089710,0.004888,-7.074839,-6.902184,-52.444878,,,,,,,
1530640636.775704,0.026265,0.476092,-1.982529,-0.309366,0.200515,0.793632,0.023341,-0.458309,-0.888486,0.011449,0.072933,-0.081225,-6.916777,-6.627899,-52.650261,,,,,,,
1530640636.795673,0.022454,0.473064,-1.965133,-0.075204,0.238241,0.754647,0.019987,-0.455616,-0.889952,-0.017591,0.044986,-0.089311,-6.845779,-6.207458,-52.646568,,,,,,,
1530640636.815642,0.021850,0.474246,-1.949589,0.090121,0.363535,0.667202,0.019437,-0.456668,-0.889424,-0.029157,0.018039,0.007115,-6.698069,-6.033211,-52.528809,,,,,,,
1530640636.835611,0.023053,0.476234,-1.934474,0.074076,0.428414,0.704358,0.020486,-0.458435,-0.888491,0.038092,-0.033035,0.046221,-6.062035,-6.118202,-52.820679,,,,,,,
1530640636.855580,0.023498,0.476600,-1.916987,-0.034891,0.418805,0.821956,0.020878,-0.458760,-0.888314,0.062481,-0.049952,0.038369,-5.838968,-6.141312,-52.916443,,,,,,,
1530640636.875549,0.022889,0.474495,-1.897276,-0.171958,0.419324,0.912939,0.020359,-0.456890,-0.889290,0.061596,-0.024678,-0.010933,-5.554361,-5.761009,-52.924942,,,,,,,
1530640636.895518,0.021008,0.469833,-1.875657,-0.281470,0.391375,0.968977,0.018731,-0.452738,-0.891447,0.019920,0.013727,-0.070605,-5.240240,-5.414124,-52.936081,,,,,,,
1530640636.915487,0.019283,0.465006,-1.854609,-0.243271,0.407200,0.913641,0.017234,-0.448428,-0.893652,-0.015022,0.027942,-0.042886,-4.801056,-5.292862,-53.071381,,,,,,,
1530640636.935456,0.019992,0.462067,-1.834463,-0.110981,0.521015,0.891206,0.017895,-0.445800,-0.894954,0.013950,0.024550,-0.025258,-4.415949,-4.947128,-53.096451,,,,,,,
1530640636.955425,0.021959,0.462403,-1.815449,0.045794,0.523616,0.826994,0.019651,-0.446100,-0.894767,-0.008375,0.055353,0.010353,-3.993660,-4.767090,-53.296768,,,,,,,
1530640636.975394,0.025743,0.463977,-1.798701,0.063467,0.614905,0.715081,0.023019,-0.447508,-0.893983,-0.004968,0.037413,0.064851,-3.454317,-4.963142,-53.341492,,,,,,,
1530640636.995363,0.034859,0.465655,-1.783035,0.074082,0.919745,0.691630,0.031141,-0.449008,-0.892985,0.014544,0.077747,0.052759,-2.735086,-5.127419,-53.499237,,,,,,,
1530640637.015332,0.047759,0.467553,-1.768438,0.053592,0.972058,0.630619,0.042617,-0.450704,-0.891656,0.036485,0.044850,0.014672,-1.698698,-4.817421,-53.182510,,,,,,,
1530640637.035301,0.060344,0.467235,-1.754002,-0.136407,0.945456,0.655172,0.053843,-0.450419,-0.891192,0.068410,-0.001272,0.042224,-0.732843,-4.910103,-53.346329,,,,,,,
1530640637.055270,0.069465,0.463869,-1.737343,-0.256995,0.759126,0.787134,0.062074,-0.447412,-0.892171,0.061827,-0.031012,0.026265,-0.130470,-4.683434,-53.433136,,,,,,,
1530640637.075239,0.073754,0.458750,-1.718139,-0.342581,0.567594,0.871252,0.066068,-0.442828,-0.894169,0.072329,-0.001218,-0.004268,0.602100,-4.323708,-53.297226,,,,,,,
1530640637.095208,0.074464,0.452916,-1.697539,-0.368050,0.464663,0.910936,0.066894,-0.437589,-0.896683,0.030396,0.033079,-0.033615,1.063488,-3.997246,-53.550201,,,,,,,
1530640637.115177,0.074574,0.447097,-1.677004,-0.348027,0.459221,0.898829,0.067182,-0.432350,-0.899200,0.024173,0.043678,-0.038132,1.500523,-3.607300,-53.426941,,,,,,,
1530640637.135146,0.075319,0.442380,-1.656297,-0.275996,0.490939,0.938120,0.068004,-0.428092,-0.901173,0.044621,0.027411,-0.051906,1.788914,-3.091438,-53.284348,,,,,,,
1530640637.155115,0.076045,0.439690,-1.635179,-0.154388,0.465474,0.943171,0.068746,-0.425659,-0.902269,0.038737,0.025863,-0.057296,2.301174,-2.924187,-53.434265,,,,,,,
1530640637.175084,0.075422,0.440017,-1.613582,-0.019432,0.424306,0.983594,0.068173,-0.425954,-0.902172,0.006656,0.017355,-0.029300,2.589310,-2.764435,-53.385361,,,,,,,
1530640637.195053,0.074531,0.441552,-1.592217,0.010057,0.424402,0.968182,0.067321,-0.427343,-0.901580,0.024751,0.007360,-0.002595,2.978634,-3.051788,-53.389374,,,,,,,
1530640637.215022,0.073266,0.443161,-1.570832,-0.004722,0.387889,0.981106,0.066129,-0.428797,-0.900977,-0.002256,0.003199,-0.019830,3.432877,-3.117882,-53.123856,,,,,,,
1530640637.234991,0.071313,0.443820,-1.548613,-0.047985,0.384364,1.013904,0.064350,-0.429393,-0.900822,-0.015018,0.005855,-0.018245,3.802864,-3.187492,-53.220413,,,,,,,
1530640637.254960,0.068591,0.444967,-1.525678,0.016773,0.348793,1.046476,0.061863,-0.430428,-0.900502,-0.016773,0.010567,-0.043834,4.123310,-3.316849,-53.233292,,,,,,,
1530640637.274929,0.066749,0.448716,-1.502692,0.186622,0.445868,1.048370,0.060096,-0.433809,-0.898998,-0.019661,0.023699,-0.031513,4.426254,-3.309708,-53.250015,,,,,,,
1530640637.294898,0.067185,0.456549,-1.480569,0.411604,0.541230,0.976327,0.060258,-0.440853,-0.895554,-0.015077,0.055233,-0.048141,4.718697,-3.862411,-53.138107,,,,,,,
1530640637.314867,0.071466,0.467533,-1.466815,0.557438,0.480763,0.454633,0.063742,-0.450685,-0.890404,0.029077,0.086672,-0.060737,5.313633,-4.516159,-53.113907,,,,,,,
1530640637.334836,0.077167,0.478855,-1.457386,0.450420,0.574813,0.587811,0.068420,-0.460764,-0.884882,0.052796,-0.082922,-0.000800,5.899055,-5.124504,-53.169891,,,,,,,
1530640637.354805,0.082523,0.484713,-1.438440,0.111698,0.743391,0.969711,0.072934,-0.465954,-0.881798,0.048740,-0.071460,0.031456,6.591301,-5.543373,-52.991058,,,,,,,
1530640637.374774,0.087211,0.487829,-1.416954,0.090943,0.747998,0.942995,0.076940,-0.468709,-0.879995,0.073404,-0.024379,0.033270,7.037170,-5.796547,-52.801720,,,,,,,
1530640637.394743,0.093172,0.493004,-1.395751,0.216408,0.842594,0.986329,0.081958,-0.473275,-0.877094,0.087201,-0.057579,0.032963,7.778885,-5.895355,-52.733665,,,,,,,
1530640637.414712,0.099575,0.499814,-1.372939,0.241043,0.848756,1.051890,0.087250,-0.479263,-0.873324,0.120102,-0.057816,0.017443,8.491211,-6.451973,-52.543678,,,,,,,
1530640637.434681,0.103550,0.505422,-1.349536,0.113145,0.709715,1.050424,0.090441,-0.484176,-0.870283,0.102598,-0.038361,0.005461,9.210953,-6.793137,-52.267799,,,,,,,
1530640637.454650,0.106110,0.507306,-1.325286,-0.076967,0.734914,1.087085,0.092572,-0.485824,-0.869140,0.067447,0.014984,0.008148,9.814560,-6.976799,-52.293770,,,,,,,
1530640637.474619,0.109622,0.507154,-1.300945,-0.124842,0.787128,1.041475,0.095632,-0.485691,-0.868883,0.098658,0.041767,0.032808,10.508469,-7.051689,-52.180550,,,,,,,
1530640637.494588,0.112567,0.508509,-1.277681,0.008501,0.627129,1.025258,0.098117,-0.486876,-0.867943,0.147260,-0.061251,-0.108528,10.957481,-7.237473,-51.692551,,,,,,,
1530640637.514557,0.109918,0.510912,-1.253636,-0.049605,0.390503,1.084058,0.095688,-0.488973,-0.867034,0.064056,0.009985,-0.041214,11.333450,-7.454178,-51.840256,,,,,,,
1530640637.534526,0.106408,0.509147,-1.228863,-0.277902,0.472547,1.043746,0.092736,-0.487433,-0.868222,0.011009,0.067282,0.027340,11.566681,-7.479652,-51.642914,,,,,,,
1530640637.554495,0.104368,0.506170,-1.205794,-0.207099,0.431029,0.978078,0.091115,-0.484831,-0.869849,0.044383,-0.012682,-0.049585,12.056454,-7.499908,-51.714279,,,,,,,
1530640637.574464,0.100993,0.505826,-1.182564,-0.087021,0.395219,1.042413,0.088196,-0.484530,-0.870317,0.051010,-0.010007,-0.012633,12.157299,-7.567635,-51.654251,,,,,,,
1530640637.594433,0.097170,0.506131,-1.158273,-0.105048,0.380702,1.067342,0.084854,-0.484797,-0.870501,0.053330,0.003474,-0.000028,12.316860,-7.656258,-51.571274,,,,,,,
1530640637.614402,0.091332,0.505566,-1.134221,-0.144604,0.251781,1.034790,0.079796,-0.484303,-0.871254,0.038353,0.011616,-0.006142,12.573750,-7.810318,-51.459351,,,,,,,
,,,,,,,,,,,,,,,,39.778898,-84.063501,291.465054,-1.000000,-1.000000,1530640637.066102,
1530640637.635611,0.084337,0.503355,-1.109748,-0.223891,0.227867,0.984828,0.073789,-0.482367,-0.872855,0.014330,0.016257,0.004829,12.433449,-7.762314,-51.383987,,,,,,,
1530640637.655580,0.077266,0.499247,-1.087748,-0.310531,0.144322,0.937893,0.067767,-0.478764,-0.875324,-0.010898,0.023030,0.011967,12.573788,-7.871384,-51.422928,,,,,,,
1530640637.675549,0.070261,0.494316,-1.066797,-0.299584,0.172312,0.880750,0.061799,-0.474430,-0.878121,-0.024934,0.020588,0.010537,12.496937,-7.980171,-51.370743,,,,,,,
1530640637.695518,0.065298,0.490584,-1.047660,-0.206707,0.225781,0.806681,0.057556,-0.471141,-0.880178,-0.023620,0.011683,0.000372,12.707134,-7.804573,-51.467712,,,,,,,
1530640637.715487,0.062120,0.488349,-1.030218,-0.143320,0.268116,0.747966,0.054823,-0.469168,-0.881405,-0.015562,0.007147,-0.002399,12.689682,-7.807144,-51.478256,,,,,,,
1530640637.735456,0.060191,0.486633,-1.013538,-0.124320,0.310170,0.731788,0.053171,-0.467653,-0.882311,0.007528,0.004472,-0.015867,12.967247,-7.836868,-51.423721,,,,,,,
1530640637.755425,0.058732,0.485348,-0.997132,-0.091738,0.308014,0.722803,0.051919,-0.466516,-0.882988,0.024207,0.006112,-0.031319,13.073582,-7.864662,-51.204941,,,,,,,
1530640637.775394,0.056551,0.484799,-0.980986,-0.058093,0.246248,0.713518,0.050008,-0.466031,-0.883354,0.024562,0.012601,-0.029778,13.108517,-8.110107,-51.301392,,,,,,,
1530640637.795363,0.053347,0.484291,-0.965326,-0.069396,0.189035,0.686399,0.047190,-0.465581,-0.883746,0.001898,0.019231,-0.023511,13.297104,-8.187157,-51.430771,,,,,,,
1530640637.815332,0.049377,0.483432,-0.950603,-0.079472,0.120933,0.637643,0.043701,-0.464821,-0.884325,-0.008819,0.024742,-0.023984,13.225456,-8.210999,-51.057632,,,,,,,
1530640637.835301,0.045195,0.482353,-0.936989,-0.080167,0.111297,0.594462,0.040025,-0.463865,-0.885001,-0.006227,0.019788,-0.007882,13.338989,-8.250168,-51.095123,,,,,,,
1530640637.855270,0.041800,0.481339,-0.923687,-0.068764,0.152033,0.609636,0.037039,-0.462967,-0.885601,0.015329,0.004409,-0.015125,13.370003,-8.203712,-51.054138,,,,,,,
1530640637.875239,0.038018,0.480593,-0.909597,-0.052259,0.128609,0.643860,0.033703,-0.462305,-0.886080,0.022357,0.008570,-0.018812,13.356125,-8.481865,-51.145081,,,,,,,
1530640637.895208,0.033818,0.480112,-0.895594,-0.034100,0.110114,0.603674,0.029989,-0.461878,-0.886436,-0.000219,0.026744,-0.001686,13.327663,-8.560867,-51.148117,,,,,,,
1530640637.915177,0.029901,0.479808,-0.883242,-0.031378,0.078622,0.528000,0.026521,-0.461608,-0.886687,-0.005708,0.022888,0.003966,13.308170,-8.680214,-51.081192,,,,,,,
1530640637.935146,0.026677,0.479210,-0.872231,-0.048855,0.106530,0.484096,0.023669,-0.461078,-0.887044,-0.010730,0.012454,0.011357,13.343182,-8.820229,-51.136032,,,,,,,
1530640637.955115,0.024498,0.478250,-0.861799,-0.060363,0.135264,0.480045,0.021747,-0.460226,-0.887535,0.020749,-0.001154,0.001366,13.277752,-8.799118,-51.332428,,,,,,,
1530640637.975084,0.021795,0.477255,-0.850990,-0.056228,0.092152,0.488420,0.019358,-0.459343,-0.888048,0.019567,-0.005303,-0.009932,13.302193,-8.861671,-51.062500,,,,,,,
1530640637.995053,0.018085,0.476168,-0.840560,-0.058013,0.036108,0.451500,0.016073,-0.458377,-0.888612,0.005595,0.011936,-0.005339,13.177197,-8.849792,-51.112305,,,,,,,
1530640638.015022,0.013807,0.475229,-0.831750,-0.049987,-0.032872,0.369114,0.012276,-0.457542,-0.889103,-0.011101,0.008735,0.009526,13.050560,-8.987633,-51.307236,,,,,,,
1530640638.034991,0.009801,0.474393,-0.824330,-0.044465,-0.017180,0.334619,0.008718,-0.456799,-0.889527,-0.020086,-0.014530,0.027299,12.958351,-9.020729,-51.490784,,,,,,,
1530640638.054960,0.006853,0.473822,-0.816876,-0.021547,0.040096,0.351907,0.006098,-0.456290,-0.889810,-0.018778,-0.033334,0.027185,12.920551,-9.164551,-51.505569,,,,,,,
,,,,,,,,,,,,,,,,39.778886,-84.063503,290.873135,-1.000000,-1.000000,1530640638.000098,
1530640638.074929,0.004436,0.473859,-0.808766,0.014878,0.075180,0.385121,0.003947,-0.456323,-0.889805,-0.008937,-0.036154,0.024357,12.944180,-8.811066,-51.449005,,,,,,,
1530640638.094898,0.002031,0.474328,-0.800084,0.024192,0.082800,0.400159,0.001807,-0.456741,-0.889598,-0.010458,-0.031342,0.011088,12.916622,-9.231483,-51.554413,,,,,,,
1530640638.114867,-0.001038,0.474801,-0.791416,0.012784,0.023291,0.385971,-0.000923,-0.457162,-0.889383,-0.010613,-0.016700,-0.001578,12.938587,-9.192421,-51.599091,,,,,,,
1530640638.134836,-0.004877,0.474955,-0.783389,-0.010016,-0.014011,0.353680,-0.004337,-0.457298,-0.889303,-0.005948,-0.015267,-0.001459,12.875935,-9.296577,-51.189301,,,,,,,
1530640638.154805,-0.008711,0.474621,-0.775937,-0.032992,-0.012820,0.342066,-0.007748,-0.457001,-0.889432,0.000760,-0.023376,0.005170,12.725063,-9.344193,-51.514847,,,,,,,
1530640638.174774,-0.012016,0.473879,-0.768252,-0.048936,0.034480,0.367271,-0.010692,-0.456341,-0.889741,0.014110,-0.025028,0.001908,12.492043,-9.308769,-51.276489,,,,,,,
1530640638.194743,-0.014649,0.472947,-0.759787,-0.042903,0.077321,0.397608,-0.013041,-0.455512,-0.890134,0.009485,-0.017358,-0.014315,12.565563,-9.399605,-51.328842,,,,,,,
1530640638.214712,-0.016851,0.472161,-0.751406,-0.035388,0.092922,0.376034,-0.015006,-0.454812,-0.890461,0.004920,0.000970,-0.024578,12.490078,-9.198578,-51.345047,,,,,,,
1530640638.234681,-0.018658,0.471796,-0.743640,0.002610,0.076556,0.346433,-0.016619,-0.454487,-0.890599,0.022005,0.005802,-0.062923,12.497410,-9.253807,-51.405441,,,,,,,
1530640638.254650,-0.021077,0.472404,-0.736712,0.043841,0.021620,0.306903,-0.018767,-0.455028,-0.890279,0.014983,0.007595,-0.049235,12.433910,-9.564323,-51.224319,,,,,,,
1530640638.274619,-0.023547,0.473351,-0.730486,0.057669,0.017365,0.283007,-0.020956,-0.455872,-0.889799,0.001593,-0.001266,-0.037936,12.503895,-9.826981,-51.304596,,,,,,,
1530640638.294588,-0.026331,0.474717,-0.724745,0.086223,-0.029915,0.254428,-0.023417,-0.457087,-0.889114,-0.011755,-0.005117,-0.034989,12.447361,-9.882851,-51.299988,,,,,,,
1530640638.314557,-0.029632,0.476095,-0.719846,0.071891,-0.048387,0.212436,-0.026333,-0.458312,-0.888401,-0.024647,0.000625,0.003925,12.191788,-9.869888,-51.443039,,,,,,,
1530640638.334526,-0.032154,0.477044,-0.715818,0.054309,-0.019465,0.181482,-0.028560,-0.459155,-0.887897,-0.026998,-0.005918,0.008823,12.178825,-10.017258,-51.387543,,,,,,,
1530640638.354495,-0.033750,0.478097,-0.712274,0.068125,0.022643,0.157810,-0.029960,-0.460091,-0.887366,-0.026284,-0.006401,0.008323,12.137703,-10.253395,-51.378738,,,,,,,
1530640638.374464,-0.034633,0.479425,-0.709255,0.074608,0.029429,0.134042,-0.030722,-0.461269,-0.886728,-0.021997,-0.003697,-0.006582,12.043587,-10.076950,-51.488510,,,,,,,
1530640638.394433,-0.035615,0.480693,-0.706766,0.069565,0.011932,0.110290,-0.031573,-0.462393,-0.886113,-0.019575,0.004279,-0.014095,12.079979,-10.002640,-51.354233,,,,,,,
1530640638.414402,-0.036572,0.482277,-0.704922,0.095017,0.007749,0.075485,-0.032393,-0.463798,-0.885349,-0.021623,0.007529,-0.016904,11.985638,-10.388222,-51.276505,,,,,,,
1530640638.434371,-0.037192,0.484694,-0.703731,0.139273,0.009021,0.049131,-0.032901,-0.465937,-0.884206,-0.022123,0.004710,-0.013896,11.970497,-10.379623,-51.236603,,,,,,,
1530640638.454340,-0.037530,0.487766,-0.702738,0.166529,0.025564,0.050002,-0.033146,-0.468654,-0.882760,-0.012844,0.007365,-0.009483,11.988327,-10.661674,-51.073898,,,,,,,
1530640638.474309,-0.037597,0.491234,-0.701431,0.189465,0.040901,0.066007,-0.033143,-0.471714,-0.881128,-0.008681,0.008335,-0.007940,11.975479,-10.673874,-51.069412,,,,,,,
1530640638.494278,-0.037841,0.494807,-0.700038,0.183211,0.026582,0.061691,-0.033295,-0.474862,-0.879430,-0.009110,0.012750,0.006307,11.978439,-10.929184,-51.241776,,,,,,,
1530640638.514247,-0.038660,0.497869,-0.698623,0.148543,-0.015416,0.070487,-0.033958,-0.477554,-0.877946,-0.001091,0.018554,0.003754,12.009998,-11.156502,-51.222107,,,,,,,
1530640638.534216,-0.040562,0.500009,-0.697218,0.089852,-0.068366,0.067623,-0.035586,-0.479433,-0.876856,0.002490,0.022021,0.025919,11.806084,-11.006149,-51.046890,,,,,,,
1530640638.554185,-0.042686,0.500816,-0.695786,0.031031,-0.054075,0.079104,-0.037433,-0.480142,-0.876392,-0.003018,0.024621,0.029544,11.779865,-11.137459,-51.217651,,,,,,,
1530640638.574154,-0.044502,0.501192,-0.694156,0.033115,-0.035317,0.080251,-0.039016,-0.480471,-0.876142,-0.002350,0.030398,0.029035,11.802578,-11.453407,-51.292023,,,,,,,
1530640638.594123,-0.045523,0.502072,-0.692875,0.062690,-0.000917,0.053136,-0.039891,-0.481242,-0.875679,0.001210,0.047267,0.044442,11.756702,-11.284943,-51.300369,,,,,,,
1530640638.614092,-0.045641,0.503485,-0.692340,0.075544,0.021388,0.019676,-0.039963,-0.482481,-0.874994,0.002244,0.052565,0.074075,11.743980,-11.541977,-51.005035,,,,,,,
1530640638.634061,-0.045188,0.504490,-0.692320,0.030522,0.038025,0.010528,-0.039545,-0.483361,-0.874527,0.004129,0.049401,0.107697,11.710724,-11.377525,-51.177811,,,,,,,
1530640638.654030,-0.044686,0.503779,-0.692140,-0.075565,0.025767,0.032094,-0.039122,-0.482739,-0.874890,0.003141,0.061337,0.131177,11.536324,-11.208626,-51.170578,,,,,,,
1530640638.673999,-0.045141,0.500908,-0.692159,-0.182232,-0.045712,-0.002707,-0.039581,-0.480223,-0.876253,-0.005249,0.097746,0.168444,11.653801,-11.235214,-51.147980,,,,,,,
1530640638.693968,-0.045836,0.495904,-0.694409,-0.298765,-0.100100,-0.113893,-0.040300,-0.475827,-0.878615,0.032121,0.132016,0.245543,11.602184,-10.901955,-51.135361,,,,,,,
1530640638.713937,-0.046221,0.488448,-0.698720,-0.431364,-0.108398,-0.184776,-0.040801,-0.469256,-0.882119,0.092315,0.191423,0.342019,11.506989,-10.609917,-51.241882,,,,,,,
1530640638.733906,-0.043703,0.478684,-0.705195,-0.532116,0.066906,-0.307967,-0.038779,-0.460611,-0.886754,0.134253,0.270731,0.472814,11.412971,-10.136078,-51.471344,,,,,,,
1530640638.753875,-0.034263,0.468232,-0.716182,-0.538509,0.346839,-0.560004,-0.030570,-0.451309,-0.891844,0.188727,0.335114,0.568876,11.877071,-9.276833,-51.298080,,,,,,,
1530640638.773844,-0.013341,0.457450,-0.734231,-0.579617,0.874899,-0.933425,-0.011969,-0.441662,-0.897102,0.266668,0.371105,0.674781,12.623379,-8.523087,-51.157364,,,,,,,
1530640638.793813,0.020796,0.445431,-0.760059,-0.600038,1.328733,-1.269673,0.018765,-0.430847,-0.902230,0.307483,0.403564,0.535241,13.975586,-7.642517,-50.736649,,,,,,,
1530640638.813783,0.062216,0.434519,-0.788793,-0.399493,1.535346,-1.305325,0.056398,-0.420974,-0.905318,0.340544,0.421188,0.312071,15.515240,-6.883728,-50.599457,,,,,,,
1530640638.833751,0.103788,0.430186,-0.815464,0.056677,1.618223,-1.179292,0.094162,-0.417040,-0.903997,0.242248,0.501894,0.265478,17.152443,-6.530083,-50.221603,,,,,,,
1530640638.853721,0.148392,0.432066,-0.847292,0.340526,1.286644,-1.772789,0.134261,-0.418748,-0.898123,0.219590,0.791886,0.134466,18.742332,-6.363861,-49.493195,,,,,,,
1530640638.873690,0.210721,0.421978,-0.911375,-0.183476,2.567070,-3.646283,0.190818,-0.409566,-0.892101,0.058053,0.983739,0.672466,20.973034,-4.998123,-48.736710,,,,,,,
1530640638.893659,0.316447,0.389937,-0.992281,-0.872726,4.248187,-3.911245,0.287832,-0.380130,-0.879007,-0.052739,0.685032,0.638102,24.554890,-2.639748,-46.847191,,,,,,,
1530640638.913628,0.438945,0.343525,-1.060310,-0.927317,5.214244,-3.927571,0.400154,-0.336808,-0.852313,0.004585,0.735718,0.387454,28.924854,0.035492,-44.193733,,,,,,,
1530640638.933597,0.573202,0.289981,-1.132247,-0.586424,5.876912,-4.468352,0.519683,-0.285934,-0.805091,0.038835,0.978302,0.294242,33.374031,3.035370,-40.478363,,,,,,,
1530640638.953566,0.721940,0.223462,-1.205447,-0.477603,6.889173,-5.107430,0.644411,-0.221607,-0.731864,-0.041902,0.979694,0.307472,37.554001,6.922752,-35.480530,,,,,,,
1530640638.973535,0.882390,0.134747,-1.280394,-0.435355,7.570040,-6.190670,0.765259,-0.134340,-0.629549,-0.008911,0.958574,0.217577,41.062782,11.615829,-29.679520,,,,,,,
1530640638.993504,1.037469,0.016562,-1.348615,-0.714976,7.311691,-7.130482,0.861002,-0.016561,-0.508332,0.321051,0.972952,-0.061065,42.897659,17.243973,-23.220856,,,,,,,
1530640639.013473,1.169493,-0.119005,-1.399624,-0.728965,6.302241,-7.061862,0.914042,0.118724,-0.387855,0.984396,0.762852,-0.649544,42.259834,23.568474,-17.246658,,,,,,,
1530640639.033442,1.273332,-0.241497,-1.439798,0.155179,5.151079,-6.018811,0.928338,0.239156,-0.284592,1.262686,0.301005,-0.990417,40.335503,29.018791,-12.313896,,,,,,,
,,,,,,,,,,,,,,,,39.778873,-84.063504,290.866604,-1.000000,-1.000000,1530640639.000111,
1530640639.053411,1.348941,-0.342313,-1.488269,1.384056,4.035580,-5.200366,0.918894,0.335667,-0.207273,1.338934,-0.066471,-1.066378,37.896744,32.779915,-9.715462,,,,,,,
1530640639.073380,1.386577,-0.429004,-1.546380,1.834775,2.268652,-4.487844,0.893993,0.415965,-0.166580,1.635609,-0.395671,-0.865952,35.084808,35.852234,-8.596687,,,,,,,
1530640639.093349,1.387858,-0.497151,-1.595015,1.230293,0.533632,-3.231128,0.864278,0.476923,-0.159898,1.818705,-0.772654,-0.449691,32.511330,37.935226,-9.122292,,,,,,,
1530640639.113318,1.372451,-0.538934,-1.622432,0.527968,-0.342201,-1.699599,0.841429,0.513222,-0.169117,1.667147,-0.998772,-0.101696,30.906498,39.325153,-9.411903,,,,,,,
1530640639.133287,1.360325,-0.552981,-1.635806,0.405261,-0.092500,-0.288533,0.832184,0.525226,-0.177784,1.381500,-1.040027,0.105534,30.399319,39.760494,-10.083870,,,,,,,
1530640639.153256,1.364516,-0.544188,-1.648046,0.719864,0.952280,0.585673,0.837410,0.517723,-0.175233,0.932335,-0.953362,0.253420,30.807091,39.427734,-10.379478,,,,,,,
1530640639.173225,1.380821,-0.528512,-1.648195,-0.695241,0.325434,0.786484,0.848022,0.504249,-0.163070,0.649140,-0.811256,1.038924,31.593212,39.000088,-9.817505,,,,,,,
1530640639.193194,1.399213,-0.526433,-1.600495,-2.322055,-0.278020,0.328531,0.851908,0.502452,-0.147624,0.432760,-0.568477,0.549144,31.764412,39.204098,-8.360794,,,,,,,
1530640639.213163,1.423693,-0.521923,-1.556393,-1.558802,0.258824,0.722028,0.857499,0.498548,-0.127058,0.342330,-0.531186,0.354872,32.476227,39.087521,-6.021576,,,,,,,
1530640639.233132,1.447937,-0.507994,-1.523202,-1.279832,0.499876,0.970436,0.867135,0.486426,-0.107075,0.253684,-0.539175,0.368428,33.491577,38.395878,-4.895699,,,,,,,
1530640639.253101,1.470050,-0.485731,-1.496326,-0.876710,0.370687,1.434668,0.879849,0.466855,-0.088943,0.318897,-0.392682,0.031753,34.413757,37.697983,-4.135178,,,,,,,
1530640639.273070,1.484861,-0.454101,-1.475575,-0.847394,0.286262,1.828690,0.895339,0.438654,-0.077132,0.274217,-0.308161,0.148253,35.886169,36.252724,-3.209152,,,,,,,
1530640639.293039,1.505463,-0.412800,-1.472803,0.545332,1.259255,2.177674,0.914046,0.401176,-0.059803,0.232285,-0.086219,-0.275829,37.404198,34.767784,-2.909851,,,,,,,
1530640639.313008,1.524230,-0.365940,-1.489732,0.949596,1.108733,2.374329,0.932775,0.357827,-0.043468,0.019205,0.054999,-0.198842,39.024231,32.705193,-2.679710,,,,,,,
1530640639.332977,1.532608,-0.316710,-1.503711,0.733569,0.499551,2.518214,0.949572,0.311442,-0.036280,0.089795,-0.102625,-0.208028,40.667961,30.517166,-2.603600,,,,,,,
1530640639.352946,1.539629,-0.264194,-1.521676,1.078145,0.741974,2.565319,0.964835,0.261131,-0.030081,-0.062735,0.007530,-0.151712,42.258446,28.362724,-2.857651,,,,,,,
1530640639.372915,1.553640,-0.220593,-1.549730,1.560650,1.153569,1.768367,0.975624,0.218808,-0.016740,-0.270363,0.314242,-0.197906,43.198952,26.900101,-2.699944,,,,,,,
1530640639.392884,1.569162,-0.202014,-1.582752,1.568595,1.091213,0.409044,0.979663,0.200642,-0.001602,-0.311435,0.398616,-0.200379,43.405228,26.261536,-2.450180,,,,,,,
1530640639.412853,1.580698,-0.207441,-1.607621,0.946324,0.664275,-0.559210,0.978513,0.205957,0.009689,-0.308316,0.238669,-0.028702,43.005348,26.860222,-2.515717,,,,,,,
1530640639.432822,1.587425,-0.222953,-1.618799,0.314680,0.389726,-0.895692,0.975113,0.221111,0.016216,-0.463455,0.042271,0.040684,42.516060,27.324814,-2.326759,,,,,,,
1530640639.452791,1.591057,-0.249901,-1.617701,-0.253361,-0.048318,-1.697397,0.968737,0.247308,0.019630,-0.615268,0.261329,0.019005,41.368614,28.957352,-2.031319,,,,,,,
1530640639.472760,1.590278,-0.295251,-1.602221,-0.941543,-0.472682,-2.556006,0.956547,0.290980,0.018637,-0.299961,0.324239,-0.177145,39.524605,31.116280,-1.972992,,,,,,,
1530640639.492729,1.576614,-0.362527,-1.578152,-1.149413,-1.408137,-3.919394,0.934987,0.354638,0.005439,-0.428380,0.063910,-0.311714,36.559685,34.123329,-2.398506,,,,,,,
1530640639.512698,1.554220,-0.460992,-1.555562,-1.036279,-1.443079,-5.576299,0.895488,0.444837,-0.014845,-0.599025,0.112399,-0.043260,32.205482,37.787148,-2.506706,,,,,,,
1530640639.532667,1.547370,-0.595536,-1.537287,-0.895982,-0.480217,-7.374286,0.827620,0.560952,-0.019391,-0.471419,0.095771,0.028272,25.934132,42.291847,-1.848663,,,,,,,
1530640639.552636,1.555636,-0.756188,-1.521966,-0.658527,0.221910,-8.348414,0.727373,0.686153,-0.011028,-0.058535,0.034947,0.032009,18.150402,46.295074,-1.352661,,,,,,,
1530640639.572605,1.581558,-0.930604,-1.515333,0.027375,1.486201,-8.903994,0.597314,0.801981,0.006428,0.184302,-0.038416,0.057125,9.253986,48.981403,-1.378258,,,,,,,
1530640639.592574,1.608279,-1.109832,-1.527710,0.866697,1.980899,-8.964486,0.444498,0.895624,0.016669,0.227805,-0.208185,0.033944,-0.069050,50.094097,-2.233727,,,,,,,
1530640639.612543,1.576714,-1.288783,-1.600157,1.844419,1.686310,-8.873874,0.278282,0.960497,0.001647,0.151436,-0.330492,-0.012832,-9.892822,49.267529,-4.930992,,,,,,,
1530640639.632512,1.257834,-1.454763,-1.957100,2.338352,1.703578,-8.361368,0.110144,0.993276,-0.035642,0.511927,0.033671,0.106885,-18.534538,47.691517,-7.756126,,,,,,,
1530640639.652481,-0.502493,-1.474861,2.509324,2.432028,3.360180,-7.672753,-0.046129,0.995402,-0.083940,0.506059,1.122961,0.322923,-24.876743,44.882629,-11.212936,,,,,,,
1530640639.672450,-0.832934,-1.372080,2.058460,1.303395,7.460336,-4.137904,-0.146063,0.980321,-0.132797,0.733191,1.101268,0.410828,-26.776413,42.633305,-15.518570,,,,,,,
1530640639.692418,-0.704204,-1.355787,1.993880,-0.668109,10.384828,0.553207,-0.138131,0.976974,-0.162602,0.638467,0.733887,0.059865,-23.321280,42.725327,-18.842773,,,,,,,
1530640639.712387,-0.444671,-1.398063,2.063574,-1.780540,8.489753,1.991447,-0.073933,0.985119,-0.155158,0.147587,0.278065,-0.366937,-18.816328,43.620728,-19.820045,,,,,,,
1530640639.732356,-0.247903,-1.432459,2.219212,-0.819124,-1.342982,1.488346,-0.033835,0.990447,-0.133678,-0.409494,-0.198332,-0.573505,-17.518841,44.345287,-19.152328,,,,,,,
1530640639.752325,-0.135963,-1.446448,2.407950,-0.313665,-4.522292,1.309077,-0.016811,0.992279,-0.122879,-0.181843,-0.259933,-0.143585,-17.682947,44.637794,-17.960587,,,,,,,
1530640639.772294,-0.016966,-1.451120,2.624546,-0.022367,-4.821794,1.344428,-0.002025,0.992847,-0.119367,-0.169316,-0.195301,-0.031344,-18.098873,45.043419,-16.622002,,,,,,,
1530640639.792263,0.100922,-1.447704,2.835359,0.189514,-4.375977,1.198722,0.012370,0.992434,-0.122152,-0.255061,0.001112,0.040426,-18.451458,45.182636,-15.586960,,,,,,,
1530640639.812233,0.164173,-1.440115,2.976844,0.312540,-3.478741,0.749839,0.021297,0.991473,-0.128554,-0.327144,0.149594,0.150786,-18.864086,45.202324,-14.332726,,,,,,,
1530640639.832202,0.146264,-1.428202,3.005265,0.692860,-1.409136,-0.031561,0.020711,0.989851,-0.140592,-0.362234,0.167208,0.433484,-19.193380,45.219120,-14.945328,,,,,,,
1530640639.852171,0.091831,-1.415744,2.951275,0.590746,0.590562,-0.418803,0.014162,0.988004,-0.153780,-0.092943,0.023746,0.376115,-19.258957,44.647385,-15.792023,,,,,,,
1530640639.872140,0.057844,-1.407695,2.893628,0.373425,1.357777,-0.407393,0.009387,0.986728,-0.162107,0.057568,-0.013462,0.182310,-19.268639,44.275047,-16.483025,,,,,,,
1530640639.892109,0.042038,-1.399069,2.848904,0.555155,1.343843,-0.316648,0.007181,0.985291,-0.170733,0.168188,0.033019,0.127261,-19.065699,44.082157,-17.336990,,,,,,,
1530640639.912078,0.029180,-1.382849,2.816036,0.961386,0.649779,-0.219709,0.005451,0.982390,-0.186762,0.277202,0.118898,0.133997,-19.079081,43.476280,-18.195137,,,,,,,
1530640639.932047,0.017789,-1.364456,2.804669,0.790749,-0.463531,0.029118,0.003644,0.978787,-0.204845,0.409258,0.171802,0.272319,-19.356800,43.199883,-19.011681,,,,,,,
1530640639.952016,0.022560,-1.358746,2.833840,-0.063413,-1.621284,0.511506,0.004748,0.977601,-0.210410,0.515623,0.227065,0.435248,-19.567272,43.201977,-18.673744,,,,,,,
1530640639.971985,0.057325,-1.366976,2.911680,-0.571964,-2.265232,0.907487,0.011597,0.979300,-0.202079,0.441574,0.223336,0.437262,-19.526081,43.491837,-17.665817,,,,,,,
1530640639.991954,0.107513,-1.377219,3.006841,-0.603955,-1.953422,0.835989,0.020642,0.981322,-0.191259,0.300082,0.242524,0.571859,-19.508747,43.535828,-16.649986,,,,,,,
1530640640.011923,0.161370,-1.391128,3.081514,-0.928279,-0.291418,0.444094,0.028712,0.983903,-0.176378,0.228948,0.314971,0.780763,-19.396687,44.020599,-15.640640,,,,,,,
1530640640.031892,0.231586,-1.412710,3.137038,-1.268278,1.262648,0.176959,0.036133,0.987530,-0.153223,0.338898,0.354190,0.623484,-18.955757,44.219398,-14.765198,,,,,,,
,,,,,,,,,,,,,,,,39.778859,-84.063500,291.003445,-1.000000,-1.000000,1530640640.000109,
1530640640.051861,0.345378,-1.441409,-3.065102,-1.751682,1.802740,0.159912,0.043681,0.991641,-0.121405,0.340687,0.288297,0.534644,-18.279099,44.529949,-13.525810,,,,,,,
1530640640.071830,0.613275,-1.479049,-2.832498,-2.584800,1.796194,0.347799,0.052729,0.995794,-0.074920,0.195821,0.099619,0.468567,-17.465313,45.201168,-11.626907,,,,,,,
1530640640.091799,1.369900,-1.506112,-2.106707,-3.234133,1.535873,0.508774,0.063333,0.997909,-0.012897,0.074347,0.056535,0.202930,-16.589832,45.631813,-9.075356,,,,,,,
1530640640.111768,2.252267,-1.476967,-1.251520,-3.643920,1.444571,0.481424,0.072761,0.995601,0.059017,-0.029014,0.108159,-0.081462,-15.966475,46.014053,-5.529907,,,,,,,
1530640640.131737,2.601396,-1.414776,-0.924970,-3.568512,1.040360,0.503482,0.079915,0.987854,0.133259,-0.031346,0.132157,-0.462497,-15.407001,46.103714,-2.381119,,,,,,,
1530640640.151706,2.715198,-1.351046,-0.817277,-3.100643,-0.052503,0.638821,0.090155,0.975952,0.198464,-0.083640,0.236572,-0.617608,-14.931921,45.991543,0.682793,,,,,,,
1530640640.171675,2.730979,-1.298152,-0.782761,-2.224097,-1.359064,0.687887,0.107487,0.963062,0.246892,-0.121648,0.358059,-0.632482,-14.550838,45.853775,3.158463,,,,,,,
1530640640.191644,2.702569,-1.261413,-0.777660,-1.540551,-1.639884,0.716988,0.129417,0.952522,0.275596,0.025002,0.306115,0.063546,-13.746531,45.251595,5.032158,,,,,,,
1530640640.211613,2.679235,-1.224840,-0.780169,-1.717497,-0.647674,0.915636,0.151256,0.940752,0.303491,0.113423,0.236006,0.313498,-12.980177,44.763153,6.997520,,,,,,,
1530640640.231582,2.673771,-1.182828,-0.783447,-1.894706,0.146463,1.022737,0.170595,0.925679,0.337659,0.030028,0.238322,-0.055188,-12.291708,44.440346,8.494164,,,,,,,
1530640640.251551,2.677595,-1.141465,-0.787693,-1.743586,0.465595,1.001094,0.186288,0.909244,0.372251,-0.006708,0.164105,-0.359494,-11.233833,44.034744,10.351349,,,,,,,
1530640640.271520,2.679857,-1.103664,-0.796811,-1.530157,0.556746,1.059651,0.200622,0.892863,0.403169,0.039368,0.004155,-0.391832,-10.720974,43.697170,11.510513,,,,,,,
1530640640.291490,2.677353,-1.067689,-0.813792,-1.384679,0.691367,1.220535,0.215879,0.876089,0.431120,0.058459,-0.164754,-0.380400,-9.749176,43.330982,12.818855,,,,,,,
1530640640.311459,2.678996,-1.034172,-0.833858,-1.190180,1.147719,1.148402,0.228152,0.859439,0.457505,-0.057467,-0.258777,-0.428635,-8.965622,42.835899,14.040085,,,,,,,
1530640640.331428,2.692029,-1.008150,-0.850615,-0.827072,1.470908,0.849491,0.231812,0.845847,0.480423,-0.110016,-0.330130,-0.497970,-8.549044,42.599586,14.921303,,,,,,,
1530640640.351397,2.711393,-0.992819,-0.863252,-0.371441,1.497263,0.528752,0.227848,0.837570,0.496550,-0.179981,-0.376129,-0.519118,-8.405827,42.101757,15.318970,,,,,,,
1530640640.371366,2.730277,-0.988323,-0.874653,0.102300,1.381639,0.305279,0.219935,0.835105,0.504211,-0.273234,-0.365470,-0.532378,-8.448368,41.917866,15.276848,,,,,,,
1530640640.391335,2.745937,-0.994001,-0.885478,0.536263,1.150153,0.076283,0.210181,0.838215,0.503210,-0.354362,-0.377597,-0.542074,-8.626076,41.854984,14.766716,,,,,,,
1530640640.411304,2.758223,-1.008543,-0.892565,0.863669,0.757850,-0.198731,0.199403,0.846056,0.494396,-0.407532,-0.424761,-0.541546,-8.994354,41.876389,13.959846,,,,,,,
1530640640.431273,2.762813,-1.029913,-0.895259,1.108551,0.066848,-0.377241,0.190401,0.857254,0.478396,-0.400896,-0.506012,-0.472460,-9.360571,41.848206,13.014793,,,,,,,
1530640640.451242,2.748825,-1.054595,-0.900478,1.232706,-0.787206,-0.278066,0.188916,0.869701,0.455995,-0.328640,-0.535258,-0.195619,-9.513666,41.926792,11.401436,,,,,,,
1530640640.471211,2.713892,-1.079291,-0.911691,1.228499,-1.492742,-0.258771,0.195756,0.881624,0.429441,-0.177980,-0.357087,0.306796,-9.409716,41.827862,10.259819,,,,,,,
1530640640.491180,2.674165,-1.100591,-0.918034,0.830709,-1.776875,-0.337867,0.204149,0.891475,0.404468,0.152678,-0.025036,1.003246,-9.426226,41.496227,9.722572,,,,,,,
1530640640.511149,2.634936,-1.106854,-0.919262,-0.072673,-2.030292,0.113816,0.217141,0.894296,0.391261,0.619407,0.414664,1.333257,-9.030922,41.120384,9.273560,,,,,,,
1530640640.531118,2.578829,-1.092265,-0.934579,-0.569497,-2.011862,0.984174,0.245675,0.887672,0.389462,0.665015,1.017677,0.842837,-7.891066,40.811367,9.386360,,,,,,,
1530640640.551087,2.532345,-1.069089,-0.962887,-0.601238,-0.386421,1.236102,0.275208,0.876763,0.394394,0.445861,1.016868,0.670196,-6.805733,40.602299,10.076973,,,,,,,
1530640640.571056,2.520856,-1.049320,-0.990820,-0.145315,1.168480,0.970186,0.289747,0.867085,0.405229,0.103197,0.161632,0.355651,-6.357800,40.636383,9.823219,,,,,,,
1530640640.591025,2.517266,-1.054028,-1.021552,1.082090,0.821611,0.148685,0.288811,0.869420,0.400869,-0.394097,-0.170217,-0.280233,-6.300423,40.705807,8.695908,,,,,,,
1530640640.610994,2.494621,-1.083810,-1.042081,1.641356,-0.824021,-0.880100,0.282077,0.883747,0.373396,-0.600085,0.092236,-0.584791,-6.960503,40.842068,6.917580,,,,,,,
1530640640.630963,2.486071,-1.124033,-1.030418,1.078194,-0.748963,-1.650270,0.263366,0.901850,0.342498,-0.398268,0.224249,-0.037307,-8.105024,40.654518,6.046074,,,,,,,
1530640640.650932,2.509145,-1.133526,-0.983138,-0.720323,-1.574790,-0.593228,0.250321,0.905911,0.341562,0.559173,0.555652,0.189154,-8.480528,40.614059,6.144775,,,,,,,
1530640640.670901,2.479395,-1.128311,-0.971316,-0.012530,-1.895081,0.193634,0.263271,0.903690,0.337686,0.249424,0.140759,-0.619897,-8.189972,40.677357,5.751900,,,,,,,
1530640640.690871,2.436822,-1.132831,-0.996334,0.764001,-0.415176,0.221609,0.274755,0.905617,0.323060,-0.097524,-0.237678,-0.511445,-8.084349,40.903294,5.166557,,,,,,,
1530640640.710840,2.418180,-1.149458,-1.024315,1.136433,0.633982,-0.338130,0.270725,0.912542,0.306553,-0.380054,-0.383917,-0.476200,-8.455000,41.032440,4.031944,,,,,,,
1530640640.730810,2.418668,-1.177800,-1.037804,1.267370,0.538895,-0.961213,0.253357,0.923766,0.287170,-0.404175,-0.282088,-0.514953,-9.224174,41.083355,2.731712,,,,,,,
1530640640.750779,2.431147,-1.212415,-1.028302,1.116106,-0.063866,-1.429507,0.228754,0.936466,0.265899,-0.361048,-0.105930,-0.476745,-10.593699,40.933315,1.425659,,,,,,,
1530640640.770748,2.453183,-1.245659,-0.993952,0.768597,-0.796329,-1.490812,0.202942,0.947607,0.246689,-0.200257,0.226099,-0.421127,-11.741781,40.866379,0.690781,,,,,,,
1530640640.790717,2.447201,-1.274389,-0.968128,1.059621,-2.071452,-1.011496,0.186911,0.956392,0.224451,-0.015738,0.419447,-0.427515,-12.468859,40.585453,-0.211769,,,,,,,
1530640640.810686,2.361921,-1.306560,-0.997756,1.618256,-3.150174,-0.690471,0.183616,0.965292,0.185731,0.047494,0.192987,-0.166520,-13.113232,40.453606,-0.874176,,,,,,,
1530640640.830655,2.248116,-1.334788,-1.054498,1.284382,-2.691987,-0.524000,0.182208,0.972279,0.146539,0.047604,-0.018681,0.123267,-13.716085,40.510155,-2.156967,,,,,,,
1530640640.850624,2.159795,-1.353810,-1.106817,0.956726,-1.375975,-0.369633,0.179011,0.976551,0.119598,0.106679,-0.118198,0.028244,-14.151608,40.376469,-2.929596,,,,,,,
1530640640.870593,2.076709,-1.370484,-1.180046,1.192924,-0.200857,-0.300697,0.174051,0.980004,0.096425,0.143912,-0.118280,-0.120381,-14.353149,40.097984,-4.189049,,,,,,,
1530640640.890562,1.961333,-1.387923,-1.303024,1.575298,0.413676,-0.268377,0.168164,0.983325,0.069230,0.174594,-0.182300,-0.099870,-14.634937,39.942097,-5.495766,,,,,,,
1530640640.910531,1.793763,-1.402922,-1.485040,1.791940,0.599834,-0.220178,0.162950,0.985942,0.036947,0.204100,-0.216502,-0.015920,-14.665579,39.597137,-7.254051,,,,,,,
1530640640.930500,1.590717,-1.411920,-1.702754,1.782828,0.484182,-0.257308,0.158177,0.987406,0.003151,0.179469,-0.208994,0.042884,-14.745279,39.172642,-9.014992,,,,,,,
1530640640.950469,1.386010,-1.414668,-1.915899,1.541650,0.119918,-0.250023,0.152848,0.987837,-0.028570,0.161117,-0.184751,0.119848,-15.141296,38.666264,-10.505814,,,,,,,
1530640640.970438,1.215200,-1.411757,-2.088063,1.234082,-0.193812,-0.204033,0.148463,0.987380,-0.055136,0.126043,-0.133437,0.152091,-15.330505,38.300419,-11.654930,,,,,,,
1530640640.990407,1.071161,-1.405523,-2.227366,1.119447,-0.438060,-0.157615,0.144410,0.986373,-0.078823,0.112792,-0.132782,0.170162,-15.556280,38.063313,-12.677002,,,,,,,
1530640641.010376,0.943049,-1.394017,-2.347832,1.238616,-0.558556,0.020647,0.142334,0.984415,-0.103287,0.088608,-0.159815,0.158997,-15.739361,37.619389,-13.654770,,,,,,,
1530640641.030345,0.828474,-1.373285,-2.453015,1.475741,-0.576867,0.262857,0.144602,0.980558,-0.132652,0.045401,-0.066862,0.227760,-15.745249,37.265316,-14.663376,,,,,,,
,,,,,,,,,,,,,,,,39.778840,-84.063491,291.002529,2.120000,157.148438,1530640641.000106,
1530640641.050314,0.742082,-1.351069,-2.534035,1.248441,-0.286407,0.095196,0.147306,0.975957,-0.160654,-0.019666,0.103892,0.358285,-15.711765,36.961357,-15.890137,,,,,,,
1530640641.070283,0.667332,-1.339242,-2.605990,0.815440,-0.344452,-0.430022,0.142030,0.973311,-0.180260,-0.054063,0.211092,0.468529,-16.122366,36.185028,-16.515472,,,,,,,
1530640641.090252,0.581931,-1.337128,-2.680428,0.405453,-0.896765,-0.678530,0.127268,0.972824,-0.193436,0.155752,0.278702,0.540314,-16.992310,35.811569,-16.967812,,,,,,,
1530640641.110221,0.519743,-1.343648,-2.725996,-0.248963,-0.844485,-0.545116,0.111847,0.974313,-0.195461,0.338120,0.206748,0.441524,-17.773045,35.983055,-16.825577,,,,,,,
1530640641.130190,0.492322,-1.355722,-2.743768,-0.466323,-0.407219,-0.391850,0.100878,0.976960,-0.188074,0.432462,0.107283,0.216181,-18.224892,35.818253,-16.260170,,,,,,,
1530640641.150159,0.479308,-1.363064,-2.749690,-0.163462,-0.494286,-0.107534,0.095111,0.978501,-0.183000,0.531598,0.130477,0.157366,-18.692429,35.637840,-16.108589,,,,,,,
1530640641.170129,0.479529,-1.364777,-2.734528,-0.336104,-0.897360,0.240721,0.094378,0.978853,-0.181492,0.547239,0.327467,0.667942,-18.927425,35.564781,-15.769287,,,,,,,
1530640641.190098,0.572057,-1.383781,-2.623596,-2.068558,-0.771444,0.631898,0.100653,0.982564,-0.156325,0.692804,0.449092,1.158370,-19.103003,36.156250,-14.346634,,,,,,,
1530640641.210067,0.853920,-1.413818,-2.327062,-3.029980,-0.407956,1.113063,0.117855,0.987704,-0.102717,0.738255,0.398511,0.647242,-18.424639,36.989098,-11.919945,,,,,,,
1530640641.230036,1.311009,-1.421563,-1.868873,-3.400407,0.660052,1.374537,0.143691,0.988885,-0.038192,0.515764,0.208060,0.550857,-17.499668,37.954006,-9.283760,,,,,,,
1530640641.250005,1.798896,-1.391698,-1.417981,-3.697840,3.057032,1.653504,0.173528,0.984005,0.040283,0.205561,0.243611,0.287705,-16.159231,38.948597,-6.687943,,,,,,,
1530640641.269974,2.111056,-1.331214,-1.180232,-3.199383,4.182886,1.969625,0.203501,0.971437,0.122056,0.224478,0.269072,-0.487321,-14.204199,39.447594,-4.748795,,,,,,,
1530640641.289943,2.277349,-1.266314,-1.086064,-2.796112,3.318520,1.790753,0.228029,0.954002,0.194635,0.107924,0.484017,-0.679681,-12.533701,40.051567,-2.510506,,,,,,,
1530640641.309912,2.363869,-1.208747,-1.036178,-2.397050,1.033834,1.391527,0.248521,0.935173,0.252366,-0.023820,0.722298,-0.821930,-11.313477,40.462009,-0.629860,,,,,,,
1530640641.329881,2.378443,-1.164462,-1.004882,-1.748993,-1.741866,0.947369,0.273194,0.918576,0.285629,-0.185410,0.801364,-0.816894,-10.465944,40.249199,1.087456,,,,,,,
1530640641.349850,2.337615,-1.134127,-0.987214,-1.170748,-3.159574,0.800627,0.304556,0.906165,0.293444,-0.179556,0.543954,-0.006930,-9.690987,40.366734,2.513466,,,,,,,
1530640641.369819,2.311948,-1.098198,-0.964151,-1.962002,-1.641216,1.089250,0.335798,0.890389,0.307324,-0.073286,0.210747,0.638386,-8.622746,40.120354,4.232750,,,,,,,
1530640641.389788,2.332400,-1.051039,-0.926773,-2.271526,-0.057973,1.071071,0.359455,0.867940,0.342743,-0.201649,0.091045,-0.144989,-7.717327,40.209644,6.199570,,,,,,,
1530640641.409757,2.373136,-1.013795,-0.899741,-1.442320,1.449084,0.682301,0.367421,0.848844,0.380086,-0.307912,-0.051847,-0.611867,-7.277472,39.890335,7.662971,,,,,,,
1530640641.429726,2.425072,-0.996584,-0.894681,-0.300438,2.885733,0.403109,0.356738,0.839620,0.409605,-0.238985,-0.225378,-0.734190,-6.956938,39.653843,8.129288,,,,,,,
1530640641.449695,2.477983,-0.993630,-0.910607,0.339396,3.451167,0.499316,0.336102,0.838012,0.429850,-0.081951,-0.395538,-0.632319,-7.378860,40.013161,8.076210,,,,,,,
1530640641.469664,2.519794,-0.989091,-0.937810,0.109849,2.945193,0.884356,0.320053,0.835527,0.446610,0.035309,-0.476488,-0.494798,-7.435198,39.931812,7.895508,,,,,,,
1530640641.489633,2.540528,-0.973155,-0.962877,-0.432188,1.578801,1.032388,0.318215,0.826665,0.464073,-0.130944,-0.465749,-0.582267,-6.759554,39.663563,8.192802,,,,,,,
1530640641.509602,2.551873,-0.956765,-0.976909,-0.393954,1.009943,0.601060,0.320423,0.817332,0.478850,-0.372547,-0.433879,-0.725234,-6.441006,39.673092,8.768669,,,,,,,
1530640641.529571,2.569522,-0.953111,-0.981402,0.153362,1.144425,-0.035062,0.313537,0.815221,0.486939,-0.503173,-0.438970,-0.823120,-6.615355,39.501926,8.950310,,,,,,,
1530640641.549540,2.594134,-0.969047,-0.978857,0.941659,1.021180,-0.767753,0.294658,0.824346,0.483352,-0.612316,-0.447958,-0.887847,-7.414646,39.715897,8.531990,,,,,,,
1530640641.569509,2.612972,-1.006261,-0.967969,1.746532,0.102802,-1.455922,0.269835,0.844838,0.461994,-0.623458,-0.484425,-0.904988,-8.780914,39.826191,7.162300,,,,,,,
1530640641.589478,2.622481,-1.060282,-0.948420,2.212271,-0.465606,-1.972688,0.242412,0.872493,0.424255,-0.670558,-0.533672,-0.488189,-10.384491,40.056873,5.702156,,,,,,,
1530640641.609448,2.660216,-1.113740,-0.914872,1.506689,1.299558,-1.779777,0.204326,0.897356,0.391157,-0.610377,-0.489229,1.811663,-12.283131,40.071598,4.184776,,,,,,,
1530640641.629417,2.721682,-1.114642,-0.875430,-1.036893,0.036059,-0.133411,0.179582,0.897753,0.402230,0.963042,0.708890,2.282035,-13.312746,39.769672,4.615662,,,,,,,
1530640641.649386,2.642868,-1.099699,-0.903233,0.036785,-3.749151,1.394269,0.217086,0.891071,0.398580,0.789216,1.641400,0.147303,-12.309093,39.478176,4.830940,,,,,,,
1530640641.669355,2.510073,-1.078241,-0.969434,-0.328181,-3.359344,2.032058,0.279174,0.881127,0.381675,0.597031,1.146811,0.643792,-10.097534,39.499142,5.240448,,,,,,,
1530640641.689324,2.423441,-1.047183,-1.020038,-0.274207,-1.240378,1.790404,0.329005,0.866018,0.376521,0.092824,-0.056463,0.412648,-8.096155,39.296703,5.409744,,,,,,,
1530640641.709293,2.376832,-1.033375,-1.070435,0.728249,0.136093,1.120905,0.354437,0.859032,0.369377,-0.290243,-0.585976,-0.343269,-6.623768,39.216583,4.863228,,,,,,,
1530640641.729262,2.335758,-1.045979,-1.112308,1.384705,-0.422949,-0.280087,0.361465,0.865416,0.346985,-0.448410,-0.189650,-0.937241,-6.416773,39.348186,3.824371,,,,,,,
1530640641.749231,2.331837,-1.083163,-1.120363,1.325690,0.670847,-1.687049,0.339276,0.883444,0.323137,-0.155193,0.527093,-0.720797,-8.202667,39.486839,2.373779,,,,,,,
1530640641.769200,2.397800,-1.108600,-1.066912,-0.964954,0.321499,-1.504683,0.301921,0.895075,0.328151,0.551335,1.286199,0.557179,-9.432535,39.261715,2.934036,,,,,,,
1530640641.789169,2.405253,-1.098324,-1.013242,-0.968723,-2.599457,-0.069197,0.305628,0.890446,0.337189,0.024160,0.438045,0.020050,-9.114056,39.144493,3.607063,,,,,,,
1530640641.809138,2.378797,-1.090419,-1.007671,-0.019932,-0.951120,0.177773,0.319295,0.886821,0.334065,-0.407414,-0.163935,-0.605137,-8.820560,39.249588,3.341431,,,,,,,
1530640641.829107,2.355367,-1.099081,-1.020478,0.800792,-0.556191,-0.300390,0.321586,0.890790,0.321054,-0.521369,-0.286328,-0.739007,-9.116650,39.340412,2.477394,,,,,,,
1530640641.849076,2.327954,-1.124143,-1.034601,1.217833,-0.897739,-0.895358,0.313937,0.901898,0.296688,-0.515033,-0.317532,-0.659908,-10.109491,39.265736,1.610657,,,,,,,
1530640641.869045,2.298799,-1.156843,-1.040800,1.136558,-1.315052,-1.206037,0.300267,0.915538,0.267636,-0.398763,-0.171275,-0.530209,-11.083757,39.349396,0.706383,,,,,,,
1530640641.889014,2.278765,-1.186718,-1.034322,0.705171,-1.211454,-1.161030,0.284656,0.927144,0.243666,-0.221103,0.149638,-0.385542,-11.964411,39.202461,0.086334,,,,,,,
1530640641.908983,2.282985,-1.205384,-1.014247,0.110547,-0.345026,-0.792442,0.270476,0.933977,0.233514,-0.054305,0.354857,-0.261834,-12.391506,39.035423,-0.193680,,,,,,,
1530640641.928952,2.304078,-1.214416,-0.995718,0.343093,0.169621,-0.516337,0.259213,0.937166,0.233510,0.015949,0.292006,-0.446981,-12.838932,38.958199,-0.908318,,,,,,,
1530640641.948921,2.223941,-1.254262,-1.055817,2.978230,-1.850746,-1.091286,0.247205,0.950320,0.189156,0.104281,0.112851,-0.508660,-13.732145,38.721222,-3.085167,,,,,,,
1530640641.968890,2.028877,-1.307290,-1.224633,3.454072,-1.209198,-0.819325,0.233612,0.965483,0.115185,0.223465,-0.040815,0.028232,-14.431475,38.363342,-6.003738,,,,,,,
1530640641.988859,1.818422,-1.337430,-1.438816,2.575346,0.420545,-0.351271,0.224198,0.972893,0.056681,0.200820,-0.363259,0.478506,-14.487659,37.514637,-7.945213,,,,,,,
1530640642.008828,1.682280,-1.348906,-1.585009,1.285936,0.020769,-0.267189,0.218705,0.975483,0.024484,0.191635,-0.505299,0.545951,-14.700993,37.200218,-9.130005,,,,,,,
1530640642.028797,1.589799,-1.356622,-1.673582,0.903811,-0.390397,-0.335202,0.212499,0.977152,0.004038,0.153148,-0.164088,0.118245,-15.174923,37.221054,-10.052940,,,,,,,
1530640642.048767,1.489000,-1.362254,-1.767952,1.059812,-0.435926,-0.303653,0.206338,0.978334,-0.016915,0.115790,-0.093873,-0.056739,-15.459496,36.996628,-10.808266,,,,,,,
,,,,,,,,,,,,,,,,39.778822,-84.063479,291.009609,-1.000000,-1.000000,1530640642.000100,
1530640642.068736,1.362370,-1.365627,-1.889387,1.297500,-0.361445,-0.389950,0.199320,0.979027,-0.042156,0.101079,-0.138756,0.009716,-16.021265,36.424034,-11.889313,,,,,,,
1530640642.088705,1.201485,-1.366890,-2.044310,1.615795,-0.539057,-0.581864,0.188840,0.979283,-0.073095,0.069781,-0.173237,0.091787,-16.524649,35.693268,-13.151024,,,,,,,
1530640642.108674,1.012982,-1.362779,-2.226647,1.804289,-0.398233,-0.681339,0.175213,0.978442,-0.109317,0.047077,-0.113040,0.302035,-17.068497,35.097755,-14.456429,,,,,,,
1530640642.128643,0.850973,-1.355077,-2.390583,1.393639,0.100213,-0.745736,0.160947,0.976823,-0.141111,0.148807,-0.018617,0.540357,-17.577389,34.625969,-15.328369,,,,,,,
1530640642.148612,0.746251,-1.352753,-2.496681,0.644177,-0.300939,-0.648007,0.146856,0.976323,-0.158828,0.347850,0.068493,0.470245,-18.262234,34.260132,-16.212013,,,,,,,
1530640642.168581,0.673812,-1.353143,-2.554518,0.261665,-1.012322,-0.403613,0.134737,0.976407,-0.168743,0.383238,0.246127,0.407924,-19.018236,33.946404,-16.433365,,,,,,,
1530640642.188550,0.626841,-1.357392,-2.582642,-0.139234,-0.855671,-0.369463,0.124231,0.977316,-0.171522,0.393744,0.257578,0.398084,-19.506794,33.499687,-16.469330,,,,,,,
1530640642.208519,0.604662,-1.366159,-2.596505,-0.289484,-0.174636,-0.350554,0.115521,0.979135,-0.167178,0.449436,0.098166,0.266834,-19.764990,33.255836,-16.274712,,,,,,,
1530640642.228488,0.594002,-1.371515,-2.605738,-0.104686,-0.113342,-0.123586,0.110795,0.980209,-0.164051,0.547943,0.167450,0.333561,-19.835415,33.368217,-16.174896,,,,,,,
1530640642.248457,0.623042,-1.375897,-2.573541,-0.668260,-0.075355,0.316178,0.113004,0.981067,-0.157275,0.695773,0.306851,0.753817,-20.080585,33.690453,-15.899757,,,,,,,
1530640642.268426,0.788917,-1.388464,-2.408093,-1.966522,0.326026,1.080451,0.128662,0.983423,-0.127760,0.917206,0.407263,0.801191,-19.415804,34.289429,-14.816101,,,,,,,
1530640642.288395,1.107839,-1.393684,-2.092324,-2.622594,0.408029,1.545134,0.157637,0.984357,-0.078682,0.768801,0.374774,0.502205,-18.281210,35.032265,-13.039078,,,,,,,
1530640642.308364,1.482146,-1.380096,-1.730557,-3.261960,1.531598,1.606984,0.188797,0.981872,-0.016781,0.263794,0.164430,0.740353,-16.797546,35.949821,-10.970436,,,,,,,
1530640642.328333,1.851288,-1.337853,-1.413603,-3.498320,3.688073,1.861495,0.221816,0.972991,0.063902,0.083802,0.258164,0.098375,-14.779747,37.250954,-8.946999,,,,,,,
1530640642.348302,2.090767,-1.276826,-1.247330,-2.999143,3.862583,1.984281,0.251455,0.957101,0.143964,0.175333,0.301734,-0.556180,-12.466768,38.027588,-7.130898,,,,,,,
1530640642.368271,2.228232,-1.215444,-1.166773,-2.654666,2.371937,1.700552,0.275399,0.937524,0.212609,0.067421,0.564536,-0.762658,-10.626682,38.824528,-5.374046,,,,,,,
1530640642.388240,2.293725,-1.163506,-1.116491,-2.190799,0.050404,1.199069,0.297040,0.918197,0.262067,-0.083234,0.758835,-0.850644,-9.595264,39.364014,-3.344307,,,,,,,
1530640642.408210,2.300595,-1.126496,-1.079565,-1.557158,-2.069229,0.706466,0.320352,0.902912,0.286573,-0.220804,0.726971,-0.710630,-9.069658,39.661919,-1.935860,,,,,,,
1530640642.428179,2.265786,-1.102359,-1.061821,-0.862698,-2.472247,0.686332,0.346773,0.892275,0.289125,-0.251146,0.468306,0.065077,-8.522518,39.684921,-1.054787,,,,,,,
1530640642.448148,2.249533,-1.075584,-1.048155,-1.382132,-0.692123,0.942044,0.369893,0.879868,0.298346,-0.149724,0.197006,0.578363,-7.590509,39.758331,0.108429,,,,,,,
1530640642.468117,2.279528,-1.037813,-1.018442,-1.889027,0.601723,0.958003,0.385747,0.861295,0.330711,-0.207890,0.082644,-0.147483,-6.637421,39.803444,1.722534,,,,,,,
1530640642.488086,2.304321,-0.993495,-0.976016,-2.043212,-0.031119,0.848740,0.405405,0.837939,0.365385,-0.278436,-0.052050,-0.364744,-5.946747,39.876911,3.805016,,,,,,,
1530640642.508055,2.345408,-0.966994,-0.960335,-0.713835,2.216804,0.575776,0.405786,0.823183,0.397125,-0.315729,-0.215791,-0.604248,-5.412300,39.956436,4.749794,,,,,,,
1530640642.528024,2.399468,-0.960923,-0.974251,0.474733,3.796759,0.483361,0.387106,0.819720,0.422147,-0.247137,-0.339694,-0.663815,-5.117481,39.776684,4.832825,,,,,,,
1530640642.547993,2.453508,-0.966110,-1.007684,0.902402,4.068287,0.627864,0.361034,0.822680,0.439149,-0.124446,-0.465564,-0.565049,-4.858042,39.891857,4.323311,,,,,,,
1530640642.567962,2.491402,-0.966761,-1.044659,0.453725,2.865515,0.896479,0.343813,0.823051,0.452084,-0.082094,-0.545508,-0.516599,-4.372475,39.993881,4.004601,,,,,,,
1530640642.587931,2.506955,-0.957966,-1.069997,-0.074141,1.287160,0.726250,0.341019,0.818023,0.463189,-0.344147,-0.455444,-0.630974,-3.676989,39.816921,3.992386,,,,,,,
1530640642.607900,2.518209,-0.953145,-1.077714,0.019668,0.774160,0.036835,0.338083,0.815241,0.470193,-0.567255,-0.347086,-0.734506,-3.867622,40.046623,4.384834,,,,,,,
1530640642.627869,2.540544,-0.964424,-1.069190,0.528420,0.759375,-0.882173,0.322277,0.821721,0.470013,-0.703106,-0.299794,-0.787151,-4.784861,39.995453,4.345703,,,,,,,
1530640642.647838,2.574385,-0.995255,-1.042916,1.092709,0.471821,-1.789063,0.292435,0.838898,0.459056,-0.743546,-0.321350,-0.752375,-6.306456,40.076599,3.525017,,,,,,,
1530640642.667807,2.623517,-1.039786,-0.994187,1.248290,0.422443,-2.477983,0.250776,0.862296,0.439951,-0.792616,-0.395606,-0.246393,-8.553696,40.434750,2.597351,,,,,,,
1530640642.687777,2.668391,-1.087985,-0.944193,1.602859,-0.287548,-1.831598,0.211586,0.885693,0.413254,-0.473228,-0.288449,1.054169,-10.327934,40.719784,1.192818,,,,,,,
1530640642.707747,2.674062,-1.101752,-0.912257,-0.601444,-1.840170,-0.375754,0.203724,0.892001,0.403523,0.679150,0.625623,2.181377,-11.254255,40.725498,1.326141,,,,,,,
1530640642.727716,2.596242,-1.087842,-0.929855,0.056898,-3.592427,1.238423,0.240892,0.885627,0.397035,0.864226,1.331262,0.331908,-10.354326,40.804443,1.460518,,,,,,,
1530640642.747685,2.468487,-1.069552,-1.000950,0.026803,-2.855102,2.210814,0.299562,0.876985,0.375711,0.795729,0.915770,0.520499,-8.493715,40.808098,1.371147,,,,,,,
1530640642.767654,2.367192,-1.031426,-1.064306,-0.437083,-2.012411,2.493771,0.359151,0.858032,0.367138,0.597697,0.108505,0.393817,-6.059423,40.672459,1.440712,,,,,,,
1530640642.787623,2.296210,-1.001049,-1.119620,0.314399,-0.669485,1.738343,0.403607,0.842037,0.357875,-0.028470,-0.327846,-0.280788,-3.851784,40.453949,1.439316,,,,,,,
1530640642.807592,2.259205,-1.001311,-1.158991,1.085067,-0.029124,-0.066839,0.416400,0.842178,0.342557,-0.348086,-0.181702,-0.615384,-3.217737,40.656120,0.931557,,,,,,,
1530640642.827561,2.264894,-1.034275,-1.164628,1.041505,0.921575,-1.693594,0.392884,0.859492,0.326977,-0.088822,0.150792,-0.411755,-4.305801,40.817554,-0.158127,,,,,,,
1530640642.847530,2.316757,-1.065532,-1.125590,-0.074294,0.460407,-1.679608,0.355495,0.875046,0.328506,0.349247,0.792754,0.018738,-6.133570,41.078358,-0.027206,,,,,,,
1530640642.867499,2.332540,-1.078172,-1.093782,-0.053518,-0.917084,-0.591773,0.342235,0.881095,0.326415,-0.100124,0.494561,0.040055,-6.850851,41.232861,0.499573,,,,,,,
1530640642.887468,2.326002,-1.086154,-1.088584,0.351418,-0.353568,-0.366879,0.339230,0.884842,0.319339,-0.484051,-0.030944,-0.539524,-7.297718,41.414200,0.162231,,,,,,,
1530640642.907437,2.312073,-1.103084,-1.092502,0.804017,-0.731217,-0.691691,0.332546,0.892602,0.304424,-0.511791,-0.153024,-0.733775,-7.544256,41.431622,-0.104263,,,,,,,
1530640642.927406,2.283932,-1.129271,-1.098999,1.044545,-1.349697,-0.980891,0.323186,0.904101,0.279555,-0.490026,-0.179980,-0.645781,-8.174795,41.778275,-0.965096,,,,,,,
1530640642.947375,2.246218,-1.158501,-1.105792,0.994819,-1.719036,-1.046857,0.312733,0.916203,0.250535,-0.416187,-0.134572,-0.530198,-9.211466,41.860802,-2.062241,,,,,,,
1530640642.967344,2.207788,-1.184336,-1.111752,0.777541,-1.616246,-0.895203,0.302994,0.926249,0.224179,-0.306123,0.025609,-0.410458,-9.910276,41.738712,-2.507851,,,,,,,
1530640642.987313,2.180775,-1.202761,-1.115392,0.435350,-0.947998,-0.614389,0.294899,0.933036,0.206101,-0.152138,0.194436,-0.250398,-10.924755,42.034863,-3.277954,,,,,,,
1530640643.007283,2.165090,-1.216253,-1.120659,0.833493,-0.779497,-0.575758,0.287639,0.937805,0.194384,-0.008815,0.275513,-0.298357,-11.694426,41.906326,-4.373123,,,,,,,
1530640643.027252,2.057380,-1.253329,-1.198022,2.518934,-2.053735,-1.088446,0.275931,0.950029,0.145969,0.132394,0.110838,0.001415,-12.462902,41.590313,-6.583199,,,,,,,
1530640643.047221,1.924043,-1.289648,-1.317017,2.033782,-0.166797,-0.795919,0.260326,0.960738,0.095985,0.252110,-0.068526,0.350426,-13.000097,41.195545,-8.297089,,,,,,,
,,,,,,,,,,,,,,,,39.778806,-84.063469,290.878872,2.150000,153.281250,1530640643.000095,
1530640643.067190,1.847476,-1.310016,-1.417118,1.434291,1.292856,-0.488047,0.248025,0.966189,0.070430,0.238120,-0.220599,0.124150,-13.339838,40.997944,-9.716743,,,,,,,
1530640643.087159,1.754023,-1.328162,-1.534069,1.745788,0.627905,-0.605664,0.236236,0.970708,0.043776,0.235627,-0.285345,-0.057615,-13.725523,40.822063,-11.310760,,,,,,,
1530640643.107128,1.621167,-1.345602,-1.679583,1.710956,0.329405,-0.699489,0.223008,0.974751,0.011242,0.206069,-0.239674,0.032123,-14.197639,40.446106,-12.736931,,,,,,,
1530640643.127097,1.491262,-1.357167,-1.820040,1.385235,0.276188,-0.491350,0.211333,0.977268,-0.016844,0.176057,-0.239246,0.072386,-14.376976,39.862968,-13.800484,,,,,,,
1530640643.147066,1.372391,-1.360671,-1.943436,1.204473,-0.155578,-0.303842,0.204485,0.978005,-0.041112,0.100934,-0.217644,0.022069,-14.666157,39.660416,-14.987503,,,,,,,
1530640643.167035,1.244521,-1.360526,-2.063421,1.217399,-0.832111,-0.328811,0.197707,0.977975,-0.066898,0.088503,-0.202019,0.021839,-15.181446,39.302940,-15.904694,,,,,,,
1530640643.187004,1.098564,-1.355985,-2.190684,1.393185,-1.271932,-0.270253,0.189828,0.977017,-0.096960,0.108481,-0.175533,0.092733,-15.798716,38.839287,-16.655014,,,,,,,
1530640643.206973,0.951878,-1.344232,-2.315778,1.463713,-1.216308,-0.175828,0.182960,0.974444,-0.130318,0.099968,-0.037661,0.231667,-16.166712,38.428387,-17.528236,,,,,,,
1530640643.226942,0.836364,-1.331419,-2.416178,1.139394,-0.752932,-0.281220,0.175974,0.971486,-0.158892,0.024710,0.102916,0.477145,-16.843390,38.342461,-18.035568,,,,,,,
1530640643.246911,0.750598,-1.326523,-2.492703,0.633026,-0.645981,-0.557877,0.164958,0.970313,-0.176858,0.061406,0.280007,0.634637,-17.350208,37.770000,-18.767342,,,,,,,
1530640643.266880,0.680256,-1.330334,-2.551179,0.100236,-0.745448,-0.675628,0.149792,0.971228,-0.185138,0.302158,0.346902,0.527530,-18.067425,37.602081,-18.659554,,,,,,,
1530640643.286849,0.636313,-1.341648,-2.583555,-0.390319,-0.615707,-0.577020,0.134975,0.973860,-0.182688,0.520771,0.170549,0.310008,-18.710953,37.749989,-18.353302,,,,,,,
1530640643.306819,0.619971,-1.354065,-2.587966,-0.469363,-0.765748,-0.267361,0.124936,0.976606,-0.175014,0.643390,0.029300,0.190486,-19.215031,38.026581,-17.629578,,,,,,,
1530640643.326788,0.621364,-1.361818,-2.565179,-0.543827,-1.234334,0.131303,0.120769,0.978243,-0.168678,0.709645,0.111829,0.521431,-19.483143,38.060223,-16.577591,,,,,,,
