timestamp(unix),attitude_roll(radians),attitude_pitch(radians),attitude_yaw(radians),rotation_rate_x(radians/s),rotation_rate_y(radians/s),rotation_rate_z(radians/s),gravity_x(G),gravity_y(G),gravity_z(G),user_acc_x(G),user_acc_y(G),user_acc_z(G),magnetic_field_x(microteslas),magnetic_field_y(microteslas),magnetic_field_z(microteslas),latitude(degree),longitude(degree),altitude(meter),speed(m/s),course(degree),timestamp(unix),User Mark
,,,,,,,,,,,,,,,,39.779189,-84.063511,291.537930,1.370000,208.828125,1530639306.999973,
1530639310.850708,0.095017,0.463253,1.319408,0.433774,-0.228783,-0.696105,0.084875,-0.446861,-0.890568,-0.073187,0.046974,-0.043957,7.763412,-42.453102,-34.658081,,,,,,,
,,,,,,,,,,,,,,,,39.779189,-84.063511,291.537930,1.370000,208.828125,1530639310.840605,
1530639310.870678,0.097874,0.469722,1.303250,0.305809,-0.218831,-0.692530,0.087134,-0.452638,-0.887426,-0.037116,0.017885,0.008032,8.179939,-42.508400,-34.487434,,,,,,,
1530639310.890647,0.099527,0.470120,1.287870,-0.025656,-0.307124,-0.679717,0.088584,-0.452994,-0.887102,-0.028174,0.004645,0.055025,8.570557,-42.296059,-34.233261,,,,,,,
1530639310.910616,0.099028,0.466133,1.273666,-0.168597,-0.354831,-0.638513,0.088319,-0.449435,-0.888936,-0.029527,-0.017240,0.040822,9.107899,-42.179878,-34.317505,,,,,,,
1530639310.930585,0.096850,0.462258,1.260610,-0.068442,-0.443629,-0.573142,0.086550,-0.445970,-0.890853,-0.009645,0.030687,-0.009324,9.342258,-41.921257,-34.286133,,,,,,,
1530639310.950554,0.093813,0.462313,1.247153,0.147052,-0.449882,-0.636952,0.083841,-0.446019,-0.891088,-0.043360,0.022863,-0.087565,9.739288,-41.824745,-34.242485,,,,,,,
1530639310.970523,0.093483,0.465562,1.230748,0.244409,-0.336550,-0.747449,0.083412,-0.448925,-0.889667,-0.092766,0.026089,-0.074047,9.960838,-41.450096,-34.358398,,,,,,,
1530639310.990492,0.093153,0.468840,1.214954,0.237391,-0.427700,-0.656139,0.082981,-0.451852,-0.888225,0.004147,0.024880,-0.010868,10.234661,-41.470146,-34.079506,,,,,,,
1530639311.010461,0.091625,0.474186,1.198617,0.389353,-0.397129,-0.774093,0.081401,-0.456615,-0.885933,-0.035854,0.054607,-0.026955,10.510284,-41.326546,-34.028313,,,,,,,
1530639311.030430,0.098302,0.480765,1.179190,0.415861,0.043649,-0.820785,0.087019,-0.462458,-0.882361,-0.061140,0.039499,0.045279,11.108471,-41.309624,-33.747047,,,,,,,
1530639311.050399,0.108514,0.487729,1.160723,0.469033,0.076490,-0.783441,0.095673,-0.468621,-0.878203,-0.044449,0.028176,0.028685,11.870876,-41.483711,-33.382668,,,,,,,
1530639311.070368,0.117319,0.497216,1.140848,0.638347,-0.140667,-0.836986,0.102877,-0.476980,-0.872872,-0.019625,0.048117,-0.064063,12.855392,-41.867882,-32.878105,,,,,,,
1530639311.090337,0.116752,0.509329,1.120417,0.724339,-0.704890,-0.823371,0.101701,-0.487591,-0.867128,0.026457,0.099301,-0.082716,13.327347,-42.022682,-32.358101,,,,,,,
1530639311.110306,0.113434,0.519602,1.098919,0.532015,-0.611549,-0.902835,0.098251,-0.496535,-0.862438,-0.024368,0.096541,0.064541,13.841946,-42.513680,-31.944145,,,,,,,
1530639311.130275,0.115106,0.524794,1.075828,0.289831,-0.468102,-1.041925,0.099396,-0.501035,-0.859700,-0.061752,0.108869,0.070180,14.396927,-42.503548,-31.838394,,,,,,,
1530639311.150244,0.118502,0.525376,1.048458,0.115128,-0.587143,-1.219670,0.102281,-0.501538,-0.859068,-0.011994,0.156506,0.022948,15.396111,-42.309090,-31.673302,,,,,,,
1530639311.170213,0.116639,0.523557,1.019935,0.017851,-0.962295,-1.240936,0.100785,-0.499964,-0.860161,0.017470,0.084803,-0.037437,15.730034,-41.623238,-32.026688,,,,,,,
1530639311.190182,0.109237,0.518273,0.991457,-0.233598,-1.094511,-1.265855,0.094703,-0.495380,-0.863498,0.047494,0.063267,-0.035763,16.061108,-41.195686,-32.638565,,,,,,,
1530639311.210151,0.100976,0.507669,0.965054,-0.549052,-0.972579,-1.163755,0.088091,-0.486141,-0.869429,0.051985,0.072460,0.026915,16.433773,-40.402901,-33.284416,,,,,,,
1530639311.230120,0.091364,0.494653,0.942728,-0.435688,-1.104589,-0.916462,0.080301,-0.474726,-0.876462,0.129431,-0.010595,-0.113436,16.442039,-39.771461,-34.238457,,,,,,,
1530639311.250089,0.077962,0.487765,0.924717,-0.193259,-1.137416,-0.810278,0.068801,-0.468652,-0.880699,0.197053,-0.051566,-0.127449,16.175983,-39.166298,-34.598892,,,,,,,
1530639311.270058,0.061317,0.480835,0.904107,-0.388640,-1.427336,-1.019905,0.054330,-0.462519,-0.884943,0.024619,0.118296,-0.039084,15.902767,-38.492912,-35.313347,,,,,,,
1530639311.290027,0.041848,0.468543,0.879222,-0.654450,-1.589300,-1.211983,0.037327,-0.451587,-0.891446,-0.043751,0.189411,0.008542,15.623940,-37.902245,-36.547310,,,,,,,
1530639311.309996,0.024009,0.453815,0.851018,-0.674729,-1.445172,-1.300587,0.021577,-0.438398,-0.898522,0.025527,0.112592,-0.096839,15.473545,-37.112602,-37.595680,,,,,,,
1530639311.329965,0.010662,0.443674,0.824521,-0.343973,-1.077924,-1.104977,0.009629,-0.429261,-0.903129,0.098067,0.016739,-0.238167,15.383301,-36.727684,-38.360519,,,,,,,
1530639311.349934,0.001604,0.439087,0.804207,-0.241580,-0.841571,-0.807255,0.001451,-0.425114,-0.905139,0.065641,-0.044506,-0.115949,15.142006,-36.228416,-39.324432,,,,,,,
1530639311.369903,-0.012274,0.429259,0.790170,-0.690411,-1.113713,-0.542780,-0.011160,-0.416197,-0.909206,0.055502,-0.032259,0.088527,14.768112,-35.843315,-40.356850,,,,,,,
1530639311.389872,-0.033844,0.407505,0.782968,-1.367706,-1.343275,-0.039463,-0.031067,-0.396320,-0.917587,0.176865,0.021426,0.217681,13.567383,-35.301750,-42.010536,,,,,,,
1530639311.409841,-0.073357,0.372248,0.793840,-1.835706,-1.881783,0.910950,-0.068272,-0.363710,-0.929007,0.425739,0.078935,0.104269,11.353397,-34.310310,-44.333611,,,,,,,
1530639311.429811,-0.108666,0.340884,0.813804,-1.110197,-1.006389,1.037933,-0.102212,-0.334320,-0.936900,0.275552,0.056366,-0.090977,9.320171,-34.102882,-46.820381,,,,,,,
1530639311.449780,-0.115389,0.334100,0.818494,0.050010,-0.071197,-0.319156,-0.108767,-0.327919,-0.938424,0.100832,0.174599,-0.131034,8.883507,-33.829262,-47.617729,,,,,,,
1530639311.469749,-0.126179,0.340066,0.801544,0.201363,-1.368242,-0.973063,-0.118638,-0.333550,-0.935238,0.096803,-0.112282,-0.183277,8.303967,-34.029274,-48.615349,,,,,,,
1530639311.489718,-0.156205,0.344698,0.778971,-0.013993,-2.004887,-1.167970,-0.146419,-0.337912,-0.929719,0.006618,-0.075265,0.024277,7.194794,-34.174339,-49.151527,,,,,,,
1530639311.509687,-0.168722,0.347653,0.750455,-0.079041,-0.549001,-1.457934,-0.157877,-0.340692,-0.926825,-0.025915,-0.012412,0.008673,6.851303,-33.634163,-49.469597,,,,,,,
1530639311.529656,-0.155565,0.351019,0.718416,-0.087206,0.384160,-1.508347,-0.145491,-0.343854,-0.927683,0.021330,0.045850,-0.058141,7.602547,-33.120125,-49.398232,,,,,,,
1530639311.549625,-0.132628,0.354030,0.689052,-0.004047,0.770161,-1.299217,-0.124039,-0.346681,-0.929746,0.077118,0.030473,-0.089358,8.525154,-32.115639,-49.066826,,,,,,,
1530639311.569594,-0.109736,0.359322,0.662808,0.197085,0.529217,-1.266928,-0.102522,-0.351640,-0.930504,0.091139,0.043702,-0.106315,9.326084,-31.165306,-48.312325,,,,,,,
1530639311.589563,-0.098868,0.369437,0.634449,0.475556,-0.282116,-1.446376,-0.092047,-0.361090,-0.927977,0.061285,0.015616,-0.105913,9.758671,-30.487450,-47.158333,,,,,,,
1530639311.609532,-0.100628,0.384349,0.600650,0.607424,-0.891386,-1.785064,-0.093129,-0.374956,-0.922353,-0.000407,0.033464,-0.080424,9.839371,-29.749947,-45.670631,,,,,,,
1530639311.629501,-0.100656,0.398121,0.559473,0.391384,-0.595857,-2.047728,-0.092627,-0.387687,-0.917125,0.040915,0.035835,0.018764,10.371861,-28.724892,-44.481575,,,,,,,
1530639311.649470,-0.087128,0.405502,0.516198,0.048675,0.049441,-1.960074,-0.079961,-0.394480,-0.915419,0.086492,0.037943,0.033720,11.619869,-27.770592,-43.581932,,,,,,,
1530639311.669439,-0.068090,0.405847,0.477314,-0.193888,0.188792,-1.666693,-0.062511,-0.394797,-0.916640,0.102794,0.106329,0.004866,13.104084,-26.400337,-42.717735,,,,,,,
1530639311.689408,-0.055142,0.404237,0.445032,-0.110173,-0.109068,-1.379976,-0.050672,-0.393317,-0.918005,0.119108,0.101493,-0.074884,14.088398,-25.292488,-41.850349,,,,,,,
1530639311.709377,-0.049926,0.406932,0.415984,0.165373,-0.427354,-1.341312,-0.045830,-0.395794,-0.917195,0.089394,0.119137,-0.077678,14.810692,-24.608238,-41.482750,,,,,,,
1530639311.729347,-0.048357,0.413295,0.385534,0.276452,-0.544706,-1.457385,-0.044268,-0.401629,-0.914732,0.046404,0.132311,-0.001665,15.148773,-23.683182,-40.937508,,,,,,,
1530639311.749316,-0.044765,0.420787,0.353289,0.318647,-0.429682,-1.490715,-0.040846,-0.408479,-0.911853,0.044661,0.129549,0.065616,15.781971,-23.452904,-40.778954,,,,,,,
1530639311.769284,-0.040827,0.427418,0.321148,0.233427,-0.510490,-1.454605,-0.037144,-0.414523,-0.909281,0.078831,0.111819,0.065561,16.185844,-22.984848,-40.589058,,,,,,,
1530639311.789253,-0.042953,0.433241,0.291212,0.259551,-0.902322,-1.304700,-0.038972,-0.419815,-0.906773,0.134355,0.076950,0.026478,16.126637,-22.582901,-40.506615,,,,,,,
1530639311.809222,-0.053556,0.440940,0.264554,0.365586,-1.140526,-1.185109,-0.048410,-0.426789,-0.903054,0.160821,0.046418,0.007287,15.864086,-22.113602,-40.788033,,,,,,,
1530639311.829191,-0.063019,0.449359,0.239003,0.333900,-0.938657,-1.162226,-0.056726,-0.434388,-0.898938,0.120400,0.053117,0.031811,15.644211,-21.967133,-41.020363,,,,,,,
1530639311.849160,-0.069185,0.456588,0.214091,0.256950,-0.813101,-1.116581,-0.062048,-0.440888,-0.895415,0.105078,0.081086,0.034575,15.622387,-21.931252,-41.086891,,,,,,,
1530639311.869129,-0.073888,0.462131,0.190452,0.172422,-0.723076,-1.040826,-0.066078,-0.445856,-0.892662,0.124244,0.074641,0.029686,15.347992,-21.521164,-41.188011,,,,,,,
1530639311.889098,-0.077547,0.466650,0.169027,0.151454,-0.626795,-0.915028,-0.069187,-0.449897,-0.890397,0.141223,0.056006,-0.001678,15.340740,-21.458267,-41.404701,,,,,,,
1530639311.909067,-0.081814,0.470941,0.150524,0.147246,-0.645358,-0.784575,-0.072826,-0.453725,-0.888161,0.131191,0.055836,-0.010948,15.037693,-21.365715,-41.411430,,,,,,,
1530639311.929036,-0.088755,0.475317,0.135108,0.173348,-0.725851,-0.639639,-0.078813,-0.457620,-0.885648,0.110032,0.037424,-0.026965,14.720074,-21.217796,-41.431114,,,,,,,
1530639311.949005,-0.096643,0.479241,0.123279,0.090161,-0.555870,-0.472915,-0.085622,-0.461105,-0.883205,0.065832,0.008576,-0.046513,14.543495,-21.252327,-41.743553,,,,,,,
1530639311.968974,-0.099870,0.478865,0.114111,-0.150986,-0.249698,-0.357784,-0.088489,-0.460772,-0.883096,0.008091,0.020388,-0.031653,14.427029,-21.364929,-42.071312,,,,,,,
1530639311.988944,-0.097542,0.473621,0.106485,-0.359388,0.021327,-0.270126,-0.086667,-0.456112,-0.885692,-0.001132,0.018642,0.004833,14.406113,-20.840820,-41.880898,,,,,,,
1530639312.008914,-0.093438,0.465878,0.100541,-0.425035,0.091478,-0.194672,-0.083358,-0.449207,-0.889530,-0.004944,-0.004894,-0.031399,14.411129,-20.619881,-42.125343,,,,,,,
1530639312.028883,-0.089960,0.458224,0.095533,-0.375845,0.035071,-0.181449,-0.080571,-0.442356,-0.893213,-0.018001,-0.016705,-0.053046,14.486221,-20.221825,-42.229942,,,,,,,
1530639312.048851,-0.088975,0.452325,0.090469,-0.267651,-0.126012,-0.199555,-0.079921,-0.437058,-0.895876,-0.005543,-0.036102,-0.069075,14.524483,-19.986450,-42.333229,,,,,,,
,,,,,,,,,,,,,,,,39.779139,-84.063529,292.669643,-1.000000,-1.000000,1530639311.471968,
,,,,,,,,,,,,,,,,39.779133,-84.063519,292.877407,-1.000000,-1.000000,1530639311.999968,
1530639312.068820,-0.090850,0.449489,0.085200,-0.100646,-0.237352,-0.229917,-0.081713,-0.434505,-0.896955,-0.013837,-0.041660,-0.085910,14.308369,-19.617485,-42.355431,,,,,,,
1530639312.088789,-0.093214,0.449666,0.079693,0.031615,-0.216307,-0.246325,-0.083826,-0.434665,-0.896682,-0.026006,-0.038876,-0.074860,14.055828,-19.378891,-42.645866,,,,,,,
1530639312.108758,-0.094322,0.451466,0.074284,0.079780,-0.149035,-0.238966,-0.084746,-0.436285,-0.895809,-0.031282,-0.042703,-0.055363,14.065750,-19.309052,-42.932899,,,,,,,
1530639312.128727,-0.094856,0.453363,0.068946,0.065157,-0.132421,-0.246276,-0.085146,-0.437991,-0.894938,-0.027204,-0.046826,-0.036977,14.087704,-19.523857,-42.932014,,,,,,,
1530639312.148696,-0.095182,0.454844,0.063040,0.039210,-0.163100,-0.278501,-0.085375,-0.439322,-0.894263,-0.036359,-0.039743,-0.014031,14.205650,-19.632607,-42.920876,,,,,,,
1530639312.168665,-0.096599,0.456369,0.056384,0.064616,-0.236879,-0.306093,-0.086578,-0.440692,-0.893474,-0.032090,-0.032178,-0.015782,14.073696,-19.604790,-43.186104,,,,,,,
1530639312.188634,-0.098996,0.458777,0.049358,0.105733,-0.297431,-0.331633,-0.088614,-0.442852,-0.892205,-0.038324,-0.027668,-0.015358,13.907967,-19.503868,-43.220573,,,,,,,
1530639312.208603,-0.101996,0.462303,0.041462,0.164894,-0.326893,-0.384171,-0.091131,-0.446010,-0.890376,-0.054422,-0.024250,-0.025029,13.832428,-19.530159,-43.228401,,,,,,,
1530639312.228572,-0.104859,0.467260,0.032863,0.223810,-0.332271,-0.407474,-0.093447,-0.450442,-0.887902,-0.042509,-0.011106,-0.004356,13.675068,-19.728180,-43.221611,,,,,,,
1530639312.248541,-0.107726,0.472483,0.024204,0.207020,-0.337793,-0.406248,-0.095738,-0.455099,-0.885279,-0.037609,-0.011957,0.031596,13.658985,-19.828751,-43.184212,,,,,,,
1530639312.268510,-0.110448,0.476727,0.015104,0.135904,-0.345339,-0.429246,-0.097934,-0.458873,-0.883088,-0.051694,-0.009114,0.065842,13.651169,-19.696449,-43.216209,,,,,,,
1530639312.288479,-0.113679,0.479646,0.003920,0.074998,-0.449386,-0.545586,-0.100634,-0.461465,-0.881432,-0.120557,0.014062,0.076409,13.409145,-19.764046,-43.211525,,,,,,,
1530639312.308448,-0.117392,0.482116,-0.007891,0.049512,-0.447440,-0.506476,-0.103772,-0.463655,-0.879918,-0.103854,0.037767,0.089985,13.388279,-19.621956,-43.270027,,,,,,,
1530639312.328417,-0.122121,0.483711,-0.019220,0.017029,-0.531319,-0.507615,-0.107842,-0.465067,-0.878682,-0.138648,0.071040,0.077382,13.246307,-19.621880,-43.388634,,,,,,,
1530639312.348387,-0.128293,0.486047,-0.031460,0.065912,-0.626848,-0.584089,-0.113124,-0.467134,-0.876920,-0.161168,0.088976,0.095212,13.099781,-19.496460,-43.376167,,,,,,,
1530639312.368356,-0.136659,0.489488,-0.045790,0.092996,-0.828171,-0.685654,-0.120236,-0.470174,-0.874345,-0.172061,0.117696,0.132554,12.666862,-19.490547,-43.569954,,,,,,,
1530639312.388324,-0.147080,0.491965,-0.061233,-0.060465,-0.901294,-0.640149,-0.129170,-0.472358,-0.871890,-0.110637,0.138038,0.287860,12.517620,-19.306297,-43.600533,,,,,,,
1530639312.408293,-0.162922,0.487361,-0.070486,-0.412396,-1.071105,-0.172369,-0.143317,-0.468295,-0.871871,0.060203,0.143817,0.393096,11.840366,-19.079132,-43.916191,,,,,,,
1530639312.428262,-0.187392,0.477728,-0.072558,-0.485536,-1.421531,0.060758,-0.165440,-0.459762,-0.872495,-0.126949,0.265365,0.378522,11.010822,-18.558731,-44.110771,,,,,,,
1530639312.448232,-0.223352,0.469446,-0.072721,-0.366059,-2.071949,0.085466,-0.197537,-0.452393,-0.869666,-0.147663,0.291855,0.376441,9.786446,-18.166092,-44.404823,,,,,,,
1530639312.468201,-0.276211,0.461125,-0.071444,-0.434242,-2.950598,0.238342,-0.244228,-0.444956,-0.861607,-0.082310,0.336588,0.469380,7.659184,-17.961548,-45.462364,,,,,,,
1530639312.488170,-0.349331,0.447597,-0.066472,-0.649473,-3.920824,0.550884,-0.308552,-0.432800,-0.847041,0.027684,0.420426,0.561854,4.436348,-17.935410,-46.549980,,,,,,,
1530639312.508139,-0.440777,0.428773,-0.053640,-0.608098,-4.469210,1.149619,-0.388021,-0.415755,-0.822549,0.129384,0.525374,0.535928,-0.327934,-17.445374,-47.313210,,,,,,,
1530639312.528108,-0.544047,0.404210,-0.029933,-0.510590,-4.843584,1.804675,-0.475891,-0.393292,-0.786669,0.146728,0.654431,0.513445,-5.975498,-16.522163,-46.925438,,,,,,,
1530639312.548077,-0.666397,0.375131,0.006641,0.005541,-5.903567,2.450876,-0.575171,-0.366394,-0.731391,0.175818,0.738388,0.305396,-11.797333,-15.343254,-45.581810,,,,,,,
1530639312.568046,-0.817508,0.342483,0.056017,0.481168,-7.040491,3.050765,-0.687080,-0.335827,-0.644314,0.197395,0.656338,0.165920,-18.125666,-14.631699,-43.066246,,,,,,,
1530639312.588015,-0.973978,0.291910,0.105746,0.152649,-6.890504,3.725832,-0.792137,-0.287782,-0.538238,0.183784,0.682755,0.319106,-24.516888,-13.767235,-39.629974,,,,,,,
1530639312.607984,-1.115322,0.220793,0.153742,0.409636,-6.258591,4.602978,-0.876251,-0.219003,-0.429209,0.223282,0.738778,0.084589,-33.446003,-10.973351,-33.414635,,,,,,,
1530639312.627953,-1.247289,0.132005,0.208718,1.109607,-6.128809,5.437387,-0.939877,-0.131622,-0.315128,0.210110,0.749664,-0.139187,-38.415096,-8.390022,-28.898193,,,,,,,
1530639312.647922,-1.380459,0.024931,0.267866,1.707319,-6.573802,6.223741,-0.981634,-0.024928,-0.189132,0.153372,0.640361,-0.239717,-42.961239,-4.723160,-23.035561,,,,,,,
1530639312.667891,-1.507389,-0.096290,0.323521,2.197050,-6.238094,6.343085,-0.993366,0.096141,-0.063071,-0.316524,0.578099,-0.363031,-46.327309,-0.497704,-16.954453,,,,,,,
1530639312.687860,-1.607610,-0.219954,0.374585,2.587574,-4.788388,6.126974,-0.975245,0.218185,0.035919,-0.681142,0.297410,-0.474303,-47.972168,3.777252,-11.905716,,,,,,,
1530639312.707829,-1.667137,-0.339927,0.423317,2.826017,-3.075196,5.649510,-0.938406,0.333418,0.090687,-0.942194,0.172029,-0.331746,-48.485485,8.097183,-8.268417,,,,,,,
1530639312.727798,-1.699191,-0.453332,0.474391,3.069871,-2.335688,5.175927,-0.891592,0.437963,0.115109,-1.062677,-0.050146,-0.314022,-48.374966,12.185158,-6.103188,,,,,,,
1530639312.747767,-1.716527,-0.552649,0.528603,2.921835,-2.159738,4.163463,-0.842114,0.524944,0.123598,-1.392521,-0.389476,-0.100694,-47.750572,15.697739,-4.208138,,,,,,,
1530639312.767736,-1.726475,-0.623106,0.580700,2.483159,-1.728747,2.521159,-0.802248,0.583560,0.125912,-1.744551,-0.664401,0.067204,-47.215710,17.688622,-3.021980,,,,,,,
1530639312.787705,-1.722059,-0.661104,0.628479,1.851880,-0.686396,1.077991,-0.780301,0.613988,0.118939,-1.693133,-0.779226,0.153232,-47.019012,18.736290,-2.579536,,,,,,,
1530639312.807674,-1.695609,-0.662567,0.612096,-2.036948,3.148069,-0.255493,-0.782281,0.615143,0.098149,-1.664298,-0.834030,2.304164,-47.024055,19.029968,-3.995949,,,,,,,
1530639312.827643,-1.664953,-0.654215,0.546223,-2.766603,3.621476,-0.036197,-0.790010,0.608537,0.074606,-0.846694,-0.718446,0.666788,-46.692768,19.201950,-6.242256,,,,,,,
1530639312.847612,-1.646606,-0.640980,0.480490,-2.597608,2.213643,-0.793287,-0.799207,0.597981,0.060704,-0.523715,-0.432072,0.525676,-46.416508,19.094131,-7.687576,,,,,,,
1530639312.867581,-1.668829,-0.615485,0.425560,-2.180867,-0.441048,-1.165367,-0.812572,0.577354,0.079914,-0.292256,-0.429268,0.218700,-46.555405,18.557747,-7.536194,,,,,,,
1530639312.887550,-1.723499,-0.582870,0.396795,-0.817392,-2.623885,-1.652037,-0.825170,0.550423,0.126994,-0.425990,-0.429909,-0.318217,-47.293358,17.450241,-5.185783,,,,,,,
1530639312.907520,-1.776722,-0.546562,0.408023,0.629534,-2.914469,-2.003213,-0.836266,0.519753,0.174685,-0.144753,-0.053154,-0.194597,-47.872879,16.019928,-2.787819,,,,,,,
1530639312.927489,-1.814075,-0.511289,0.443824,1.341872,-2.714609,-2.044354,-0.846433,0.489302,0.210080,0.079144,-0.080504,-0.171445,-48.326942,14.197205,-0.654716,,,,,,,
1530639312.947458,-1.843687,-0.485790,0.489547,1.663450,-2.483405,-1.491232,-0.851582,0.466907,0.238335,0.192555,0.084927,-0.372536,-48.676052,12.800003,0.938713,,,,,,,
1530639312.967427,-1.868644,-0.473582,0.538135,2.136798,-2.258229,-1.031430,-0.850755,0.456077,0.261165,0.153673,0.020745,-0.429362,-48.825687,11.916451,2.738747,,,,,,,
1530639312.987396,-1.885495,-0.474951,0.596243,2.643520,-2.167922,-0.545669,-0.845639,0.457295,0.275269,0.252759,0.255504,-0.486283,-48.934132,11.527130,4.324989,,,,,,,
1530639313.007365,-1.899443,-0.487955,0.660433,3.017603,-2.116858,-0.125556,-0.836018,0.468821,0.285094,0.385976,0.283331,-0.478087,-48.705589,11.461769,5.990295,,,,,,,
1530639313.027334,-1.904367,-0.507756,0.720740,2.537607,-1.274483,0.203947,-0.825669,0.486218,0.286111,0.469514,0.499408,0.056831,-48.451984,12.016212,6.851227,,,,,,,
1530639313.047303,-1.894894,-0.528505,0.756899,1.356214,0.153649,0.627875,-0.818602,0.504243,0.275004,0.578459,0.434768,0.393682,-48.279896,12.685341,6.412666,,,,,,,
1530639313.067272,-1.870092,-0.548668,0.764727,0.193989,1.531227,1.017929,-0.815288,0.521551,0.251569,0.492717,0.449335,0.336215,-48.041077,13.252678,5.454964,,,,,,,
,,,,,,,,,,,,,,,,39.779121,-84.063512,291.184963,1.280000,-1.000000,1530639312.999966,
1530639313.087241,-1.838822,-0.570733,0.746538,-0.800388,2.298237,1.415107,-0.811458,0.540249,0.222854,0.327571,0.432728,0.225007,-47.877480,14.658974,3.781395,,,,,,,
1530639313.107210,-1.810859,-0.593243,0.707247,-1.615155,2.495284,1.533679,-0.805354,0.559052,0.197137,0.083888,0.346847,0.139030,-47.660995,16.013542,2.048126,,,,,,,
1530639313.127179,-1.798510,-0.616890,0.650109,-2.239533,2.048394,1.854189,-0.794623,0.578501,0.184141,0.074683,0.006673,-0.072004,-47.065868,17.304695,0.848122,,,,,,,
1530639313.147148,-1.808637,-0.651362,0.579551,-2.419315,1.295243,2.701268,-0.772870,0.606270,0.187366,0.208585,-0.275154,-0.273777,-46.178139,19.327011,-0.018845,,,,,,,
1530639313.167117,-1.852045,-0.708368,0.496441,-2.366018,-0.052900,4.172854,-0.729585,0.650595,0.210782,0.569566,-0.437720,-0.264005,-44.962048,22.413033,0.498886,,,,,,,
1530639313.187086,-1.934773,-0.791762,0.400344,-1.799484,-1.293739,5.587715,-0.656563,0.711592,0.250118,0.393654,-0.451170,-0.380336,-42.811558,26.810181,2.270958,,,,,,,
1530639313.207055,-2.013006,-0.895580,0.305178,-0.033088,0.980275,5.990760,-0.564938,0.780572,0.267488,0.156292,-0.137384,0.242857,-39.750301,31.220673,2.898201,,,,,,,
1530639313.227024,-1.999675,-1.007054,0.259539,1.667266,2.987847,5.496975,-0.485956,0.845262,0.222210,0.085321,-0.226884,0.030017,-36.226406,35.198586,0.339241,,,,,,,
1530639313.246993,-1.961398,-1.124918,0.242919,2.070648,2.341728,5.684767,-0.398767,0.902232,0.164196,0.156427,-0.467204,-0.275997,-32.050327,38.471489,-2.616173,,,,,,,
1530639313.266962,-1.953516,-1.235552,0.226881,1.499413,0.327874,4.798917,-0.305194,0.944330,0.122862,-0.117643,-0.135065,-0.308195,-28.107729,41.330528,-4.491760,,,,,,,
1530639313.286932,-2.001573,-1.328636,0.177525,1.013147,-0.028757,4.512263,-0.217887,0.970822,0.100133,-0.216271,-0.256833,-0.010838,-24.406927,43.165962,-5.629608,,,,,,,
1530639313.306901,-2.154951,-1.415667,0.023620,0.657338,-0.218810,4.555042,-0.128879,0.987992,0.085205,-0.196606,0.028793,0.008270,-20.533649,44.721992,-5.959122,,,,,,,
1530639313.326870,-2.687565,-1.485384,-0.496847,0.368020,-1.108531,4.563548,-0.037409,0.996355,0.076653,-0.144415,0.543898,-0.196419,-16.627302,45.942947,-6.194748,,,,,,,
1530639313.346839,2.488712,-1.475807,-1.575362,-0.176962,-1.800138,4.669558,0.057609,0.995492,0.075329,0.024422,1.200950,-0.139416,-12.788933,46.921741,-5.876663,,,,,,,
1530639313.366808,2.070097,-1.409638,-1.952108,-0.272439,-2.504501,3.406389,0.140866,0.987042,0.076828,0.031436,1.535312,-0.017547,-9.369183,47.748913,-5.373093,,,,,,,
1530639313.386777,1.942450,-1.374163,-2.028054,-0.079772,-2.518810,0.997002,0.182027,0.980730,0.070948,-0.102392,0.840269,0.087072,-7.980316,47.973175,-4.807724,,,,,,,
1530639313.406746,1.915368,-1.375054,-2.019911,-0.037174,-1.104056,-0.533524,0.183059,0.980904,0.065698,-0.074691,0.026772,0.209357,-8.127804,47.937553,-4.527885,,,,,,,
1530639313.426714,1.935701,-1.390087,-2.001996,0.221262,0.907723,-0.769247,0.167892,0.983716,0.064137,-0.024978,-0.329832,0.167095,-8.764685,48.062031,-4.770760,,,,,,,
1530639313.446683,1.947093,-1.403920,-2.024878,0.548700,2.046807,-0.442607,0.154479,0.986108,0.061039,0.018983,-0.293604,-0.029956,-8.978533,47.720722,-5.301544,,,,,,,
1530639313.466652,1.923062,-1.414759,-2.088004,0.735216,1.706772,-0.287696,0.145861,0.987851,0.053618,-0.012637,-0.056683,-0.128325,-9.000635,47.685287,-6.164047,,,,,,,
1530639313.486621,1.852593,-1.424166,-2.177270,0.807992,0.373557,-0.177342,0.140342,0.989269,0.040629,-0.010276,0.075611,-0.092188,-9.033409,47.579342,-7.058975,,,,,,,
1530639313.506590,1.753540,-1.428053,-2.268155,0.553680,-0.802473,0.046186,0.139890,0.989829,0.025853,0.059710,0.006371,0.123256,-8.998333,47.351547,-7.641182,,,,,,,
1530639313.526559,1.702294,-1.426532,-2.302282,0.043314,-0.710170,0.131886,0.142523,0.989612,0.018850,0.041788,-0.011569,0.239512,-8.942297,47.076576,-7.753029,,,,,,,
1530639313.546528,1.720330,-1.423566,-2.278410,-0.271261,0.024184,0.110740,0.145062,0.989181,0.021855,-0.017666,-0.022140,0.049755,-9.190804,47.409050,-7.542572,,,,,,,
1530639313.566497,1.748693,-1.421874,-2.255806,-0.069219,0.440960,0.014607,0.146031,0.988931,0.026256,-0.082707,-0.044443,-0.050533,-8.877510,47.350327,-7.550667,,,,,,,
1530639313.586466,1.747606,-1.424479,-2.264861,0.158045,0.352979,-0.203941,0.143523,0.989315,0.025644,-0.132170,-0.004314,-0.118646,-8.820572,47.548016,-7.548737,,,,,,,
1530639313.606435,1.731205,-1.430539,-2.284307,0.199646,0.065393,-0.283430,0.138005,0.990180,0.022329,-0.105580,-0.010276,-0.159460,-8.880514,47.246471,-7.825401,,,,,,,
1530639313.626404,1.705861,-1.435717,-2.308838,0.215742,-0.074312,-0.195831,0.133443,0.990891,0.018134,-0.094076,-0.001404,-0.117697,-9.122265,47.259377,-7.892166,,,,,,,
1530639313.646373,1.669524,-1.439470,-2.342714,0.280387,-0.129850,-0.149340,0.130312,0.991389,0.012907,-0.101382,0.056050,-0.074095,-9.283287,47.197086,-8.249237,,,,,,,
1530639313.666342,1.618647,-1.443926,-2.391066,0.352407,-0.092836,-0.237287,0.126387,0.991963,0.006052,-0.056806,0.018718,-0.026728,-9.379578,46.978481,-8.583954,,,,,,,
1530639313.686311,1.560427,-1.448832,-2.450423,0.370985,0.168577,-0.207102,0.121655,0.992572,-0.001261,0.024585,-0.055880,-0.000249,-9.546423,46.784019,-8.830475,,,,,,,
1530639313.706281,1.504138,-1.451392,-2.513321,0.352133,0.400680,-0.087147,0.118855,0.992880,-0.007934,0.034191,-0.083624,-0.007126,-9.520372,46.671474,-9.265686,,,,,,,
1530639313.726250,1.457499,-1.452254,-2.568771,0.294252,0.461252,-0.063589,0.117505,0.992982,-0.013370,-0.064587,-0.039705,-0.024365,-9.453737,46.680874,-9.231339,,,,,,,
1530639313.746219,1.415687,-1.453696,-2.619216,0.299964,0.417483,-0.119942,0.115429,0.993152,-0.018049,-0.125149,-0.021212,-0.031496,-9.469229,46.582420,-9.842262,,,,,,,
1530639313.766188,1.358624,-1.454428,-2.683553,0.419261,0.335527,-0.087096,0.113502,0.993237,-0.024450,-0.136878,0.014515,-0.021021,-9.403820,46.525032,-10.108963,,,,,,,
1530639313.786157,1.279165,-1.452279,-2.769049,0.568517,0.270845,0.000515,0.113248,0.992985,-0.033996,-0.147214,0.076885,0.020004,-9.166319,46.257187,-10.639290,,,,,,,
1530639313.806126,1.195215,-1.448277,-2.857622,0.531776,0.186915,0.006970,0.113692,0.992504,-0.044829,-0.156966,0.107578,0.054762,-9.084133,45.911396,-11.203278,,,,,,,
1530639313.826095,1.138378,-1.446971,-2.916254,0.259109,0.038825,-0.115942,0.112140,0.992343,-0.051758,-0.121661,0.072491,0.052765,-9.103062,45.807949,-11.813431,,,,,,,
1530639313.846064,1.097779,-1.448770,-2.956363,0.181055,-0.044558,-0.186691,0.108357,0.992564,-0.055454,-0.075520,0.012181,0.030521,-9.163305,45.710125,-11.837257,,,,,,,
1530639313.866033,1.042571,-1.450375,-3.010169,0.315476,-0.067624,-0.209807,0.103757,0.992758,-0.060546,-0.041638,-0.036063,0.013259,-9.228191,45.839367,-12.128685,,,,,,,
1530639313.886002,0.963138,-1.449998,-3.088955,0.489635,-0.010200,-0.221092,0.098933,0.992713,-0.068802,-0.008219,-0.044364,0.018249,-9.354534,45.714115,-12.611191,,,,,,,
1530639313.905971,0.865828,-1.446552,3.095486,0.660356,0.123162,-0.198542,0.094385,0.992292,-0.080304,0.025610,-0.054639,0.038083,-9.441414,45.180744,-12.985054,,,,,,,
1530639313.925940,0.772515,-1.439360,2.996191,0.743667,0.376586,-0.133500,0.091470,0.991375,-0.093857,0.047965,-0.076076,0.101762,-9.318285,44.894463,-13.642685,,,,,,,
1530639313.945909,0.703264,-1.430425,2.916411,0.671801,0.574878,-0.070304,0.090481,0.990164,-0.106714,0.026585,-0.094107,0.142633,-9.327642,44.564903,-14.496681,,,,,,,
1530639313.965878,0.662426,-1.421425,2.862754,0.565183,0.654914,0.014269,0.091527,0.988865,-0.117342,-0.007588,-0.070774,0.161791,-9.037626,44.534077,-15.035713,,,,,,,
1530639313.985847,0.641691,-1.412815,2.829644,0.468232,0.578360,0.074252,0.094167,0.987547,-0.126031,-0.050558,-0.024519,0.157830,-8.708923,44.108070,-15.615204,,,,,,,
1530639314.005816,0.629341,-1.404557,2.808021,0.446965,0.399254,0.114596,0.097401,0.986214,-0.133773,-0.068302,-0.011589,0.130996,-8.314589,43.675629,-16.030746,,,,,,,
1530639314.025785,0.617169,-1.395194,2.789968,0.512657,0.258694,0.163909,0.101104,0.984622,-0.142472,-0.066650,-0.016940,0.093964,-7.890812,43.664135,-16.592384,,,,,,,
1530639314.045754,0.605339,-1.383743,2.773204,0.609636,0.267030,0.230862,0.105821,0.982556,-0.152920,-0.072099,-0.014905,0.086574,-7.494711,43.336571,-17.093361,,,,,,,
1530639314.065723,0.591110,-1.369262,2.752831,0.813945,0.320912,0.251592,0.111553,0.979761,-0.166208,-0.089656,-0.005411,0.110666,-7.257399,43.029823,-17.790894,,,,,,,
,,,,,,,,,,,,,,,,39.779108,-84.063507,291.150356,1.280000,-1.000000,1530639313.999988,
1530639314.085693,0.568327,-1.350990,2.723196,1.012165,0.335220,0.248469,0.117354,0.975940,-0.183765,-0.107421,0.085309,0.159443,-6.810547,42.647179,-18.851898,,,,,,,
1530639314.105662,0.549448,-1.332411,2.696604,0.900094,0.389472,0.230515,0.123312,0.971720,-0.201377,-0.177466,0.213887,0.213187,-6.269365,42.255314,-19.410583,,,,,,,
1530639314.125631,0.540140,-1.318665,2.678536,0.604121,0.468639,0.130512,0.128290,0.968383,-0.213952,-0.257593,0.248841,0.267068,-5.627708,41.768616,-20.435135,,,,,,,
1530639314.145600,0.538359,-1.310504,2.665593,0.353230,0.608508,0.030324,0.131956,0.966315,-0.220958,-0.312163,0.256143,0.303401,-5.262918,41.436600,-20.742409,,,,,,,
1530639314.165569,0.540556,-1.305565,2.653411,0.290793,0.775657,-0.032913,0.134896,0.965032,-0.224758,-0.353845,0.320857,0.322872,-4.611761,41.117496,-21.019814,,,,,,,
1530639314.185538,0.540083,-1.301709,2.636462,0.259234,0.797452,-0.150032,0.136702,0.964014,-0.228011,-0.363387,0.411764,0.348586,-4.338175,40.913277,-21.288452,,,,,,,
1530639314.205507,0.532570,-1.301357,2.614196,0.104208,0.653905,-0.296830,0.135158,0.963920,-0.229324,-0.346416,0.551644,0.381622,-4.056286,40.841354,-21.411285,,,,,,,
1530639314.225476,0.528586,-1.305864,2.597972,-0.240813,0.578929,-0.293512,0.132051,0.965110,-0.226106,-0.325349,0.466408,0.527940,-3.836256,41.004162,-21.086349,,,,,,,
1530639314.245445,0.543844,-1.322415,2.604799,-1.131159,0.351531,-0.412376,0.127201,0.969312,-0.210366,-0.289539,0.320880,0.698357,-3.793692,40.991802,-20.435257,,,,,,,
1530639314.265414,0.597478,-1.359390,2.655831,-2.312775,0.142117,-0.563644,0.118044,0.977737,-0.173481,-0.246523,0.235551,0.675816,-3.980761,41.771549,-18.908508,,,,,,,
1530639314.285383,0.739443,-1.412820,2.798190,-3.178160,0.125420,-0.662344,0.106013,0.987548,-0.116233,-0.220240,0.196641,0.459098,-4.162764,42.548615,-16.395981,,,,,,,
1530639314.305352,1.080627,-1.465853,3.140299,-3.426263,0.058520,-0.713954,0.092414,0.994499,-0.049313,-0.129661,0.146508,0.103619,-4.638685,43.384869,-13.348206,,,,,,,
1530639314.325321,1.802713,-1.490482,-2.414889,-3.385289,-0.275974,-0.714926,0.078080,0.996777,0.018440,-0.070909,0.147480,-0.250023,-5.265070,43.943748,-10.584015,,,,,,,
1530639314.345290,2.472486,-1.466034,-1.734532,-3.100478,-0.379110,-0.660221,0.064864,0.994517,0.082022,-0.039717,0.119878,-0.452430,-5.771637,44.269997,-7.860771,,,,,,,
1530639314.365259,2.771370,-1.422522,-1.429550,-2.639077,-0.006973,-0.539313,0.053453,0.989028,0.137723,0.062804,0.185304,-0.518857,-6.033945,44.258595,-5.465233,,,,,,,
1530639314.385228,2.904813,-1.380254,-1.303523,-2.128551,0.760497,-0.280055,0.044426,0.981902,0.184107,0.225105,0.340486,-0.478525,-6.018143,44.160641,-3.716675,,,,,,,
1530639314.405197,2.970251,-1.353874,-1.248838,-0.934584,0.277007,-0.340416,0.036697,0.976565,0.212073,0.310227,0.615583,-0.184074,-6.121058,44.151756,-2.949181,,,,,,,
1530639314.425167,3.028336,-1.342633,-1.184929,-0.668675,-0.313912,-0.785059,0.025563,0.974083,0.224739,0.141628,0.490516,0.100013,-6.468277,43.631580,-2.393333,,,,,,,
1530639314.445136,3.113035,-1.325372,-1.100962,-1.086858,0.567284,-0.964012,0.006938,0.970034,0.242869,0.082692,0.187986,-0.004938,-7.057808,43.734955,-1.563278,,,,,,,
1530639314.465106,-3.075882,-1.299876,-1.026749,-1.348099,1.270582,-0.966467,-0.017573,0.963525,0.267041,0.098155,-0.068460,-0.315228,-7.514511,43.437084,-0.948792,,,,,,,
1530639314.485075,-3.001355,-1.268787,-0.967199,-1.521580,0.517042,-1.021098,-0.041576,0.954741,0.294520,0.031871,-0.208189,-0.524973,-8.156372,43.210552,-0.009857,,,,,,,
1530639314.505044,-2.961015,-1.233769,-0.919764,-1.643165,-0.684136,-0.998631,-0.059390,0.943742,0.325306,0.008502,-0.287339,-0.536534,-8.737701,43.082520,1.109604,,,,,,,
1530639314.525013,-2.955228,-1.198819,-0.885991,-1.572997,-1.604850,-0.835566,-0.067344,0.931611,0.357164,0.073005,-0.357361,-0.542528,-9.188925,42.713791,2.361748,,,,,,,
1530639314.544982,-2.969952,-1.167854,-0.860899,-1.344452,-2.019907,-0.689015,-0.066975,0.919911,0.386364,0.063786,-0.361684,-0.520016,-9.557108,42.374550,3.550049,,,,,,,
1530639314.564951,-2.994690,-1.143690,-0.843356,-1.000396,-2.038283,-0.442552,-0.060634,0.910168,0.409777,0.139278,-0.343976,-0.512499,-9.638802,42.248131,4.676949,,,,,,,
1530639314.584920,-3.030198,-1.129074,-0.839082,-0.522608,-1.925518,-0.010305,-0.047523,0.904017,0.424848,0.258323,-0.400583,-0.555830,-9.431215,41.971390,5.076797,,,,,,,
1530639314.604889,-3.079569,-1.126472,-0.855597,0.065243,-1.566399,0.550300,-0.026644,0.902901,0.429022,0.349733,-0.502297,-0.581274,-9.007908,41.893257,5.389694,,,,,,,
1530639314.624858,-3.138304,-1.135073,-0.895621,0.583528,-0.846734,1.017408,-0.001388,0.906565,0.422064,0.362701,-0.607279,-0.535696,-8.220709,41.933235,5.160042,,,,,,,
1530639314.644827,3.086609,-1.149999,-0.950892,0.858306,-0.201787,1.126518,0.022449,0.912763,0.407871,0.283078,-0.698408,-0.410664,-7.127417,41.989403,4.343269,,,,,,,
1530639314.664796,3.034988,-1.168215,-1.000601,1.114340,-0.595437,0.730383,0.041688,0.920053,0.389570,0.189681,-0.756189,-0.175200,-6.264481,41.788120,3.129013,,,,,,,
1530639314.684765,2.970547,-1.195831,-1.041063,1.573948,-1.511961,0.588405,0.062339,0.930520,0.360895,0.119424,-0.513254,0.524771,-5.758919,41.574810,2.017303,,,,,,,
1530639314.704734,2.942546,-1.207152,-1.072841,-0.045857,1.199043,0.217542,0.070331,0.934607,0.348658,-0.305896,0.612146,2.227559,-5.236547,41.303833,1.149635,,,,,,,
1530639314.724703,2.993549,-1.204988,-1.057698,0.146125,1.761071,-0.449403,0.052763,0.933835,0.353791,-0.344434,1.581241,0.952682,-5.204153,41.218231,0.597572,,,,,,,
1530639314.744672,3.040779,-1.219580,-1.025105,0.766805,0.265156,-0.782476,0.034625,0.938955,0.342293,-0.086063,1.206660,-0.109231,-5.636265,41.107273,-0.352249,,,,,,,
1530639314.764641,3.080806,-1.229641,-0.975076,0.214017,-0.698883,-0.869669,0.020325,0.942369,0.333958,-0.136399,0.341109,0.169353,-5.987597,40.806648,-0.946136,,,,,,,
1530639314.784610,3.105216,-1.235308,-0.937539,0.459140,-0.245863,-0.462415,0.011974,0.944250,0.329013,-0.017268,-0.477316,-0.095737,-6.373096,40.684910,-1.643349,,,,,,,
1530639314.804579,3.113244,-1.256395,-0.933750,1.375049,0.331614,0.114080,0.008766,0.950982,0.309123,0.049813,-0.659676,-0.787364,-6.280647,40.692059,-2.803238,,,,,,,
1530639314.824548,3.080002,-1.288901,-0.974241,1.710460,0.268399,0.778884,0.017122,0.960530,0.277650,0.190474,-0.394459,-0.946259,-5.720917,40.493656,-4.463280,,,,,,,
1530639314.844518,2.986954,-1.292217,-1.069291,-0.504557,-0.339478,1.467180,0.042355,0.961447,0.271707,0.605564,1.083978,1.629462,-4.615784,40.461258,-5.201790,,,,,,,
1530639314.864487,2.905978,-1.278695,-1.150341,-0.304442,0.033739,0.965333,0.067223,0.957641,0.280008,0.295326,0.790742,-0.531870,-3.504139,40.642380,-4.951691,,,,,,,
1530639314.884456,2.891640,-1.276267,-1.179217,0.176850,1.043623,0.173432,0.071805,0.956939,0.281267,0.101870,0.038056,-0.694643,-2.906134,40.549103,-5.320702,,,,,,,
1530639314.904425,2.913338,-1.286547,-1.190111,0.749595,1.857097,0.002998,0.063456,0.959873,0.273161,0.143346,-0.390186,-0.635771,-2.611034,40.816296,-5.900650,,,,,,,
1530639314.924394,2.929057,-1.306597,-1.217791,1.227824,2.152196,0.248464,0.055083,0.965302,0.255258,0.196961,-0.503663,-0.562326,-2.310020,40.664726,-7.147354,,,,,,,
1530639314.944363,2.911968,-1.333742,-1.274202,1.631018,1.587623,0.457140,0.053452,0.972034,0.228674,0.163864,-0.404407,-0.495688,-1.396471,40.393360,-8.278519,,,,,,,
1530639314.964332,2.832645,-1.366356,-1.376385,1.978984,0.628308,0.761575,0.061729,0.979175,0.193406,0.207619,-0.037311,-0.383271,-0.546494,39.868809,-9.993118,,,,,,,
1530639314.984301,2.666883,-1.396790,-1.546047,1.980921,-0.332188,0.933802,0.079134,0.984899,0.153985,0.188841,0.353632,-0.260781,0.194981,39.481941,-11.786522,,,,,,,
1530639315.004270,2.441750,-1.418656,-1.756721,1.745153,-1.185860,0.675512,0.097616,0.988449,0.115931,0.029917,0.435242,-0.126963,0.768883,38.980354,-13.422501,,,,,,,
1530639315.024239,2.223091,-1.434473,-1.949942,1.446564,-1.426863,0.261226,0.108000,0.990722,0.082494,-0.078947,0.144593,0.048427,0.684093,38.650307,-14.774841,,,,,,,
1530639315.044208,2.015712,-1.443618,-2.136427,1.159001,-0.948884,0.277380,0.114488,0.991924,0.054588,-0.066941,-0.139217,0.097909,0.659103,38.188377,-15.982460,,,,,,,
1530639315.064177,1.836800,-1.444152,-2.304843,0.948328,-0.403081,0.379327,0.121863,0.991991,0.033203,-0.101782,-0.187960,-0.009826,0.501305,38.077774,-16.781464,,,,,,,
,,,,,,,,,,,,,,,,39.779095,-84.063503,291.013638,-1.000000,-1.000000,1530639314.999990,
1530639315.084146,1.686411,-1.439455,-2.455235,0.892300,0.080157,0.422157,0.130089,0.991387,0.015108,-0.139473,-0.280480,0.013869,0.999767,37.825035,-17.637810,,,,,,,
1530639315.104115,1.561001,-1.432630,-2.587151,0.829960,0.286031,0.346163,0.137721,0.990470,-0.001349,-0.162150,-0.337852,-0.015970,1.369419,37.323792,-18.406197,,,,,,,
1530639315.124084,1.463937,-1.426467,-2.690182,0.692541,0.158851,0.226222,0.143008,0.989603,-0.015340,-0.178957,-0.363733,-0.046565,1.726284,37.288292,-19.017097,,,,,,,
1530639315.144053,1.370045,-1.419513,-2.787373,0.873618,0.072382,0.270251,0.147679,0.988578,-0.030052,-0.175450,-0.359840,-0.035317,2.095890,36.840240,-19.649803,,,,,,,
1530639315.164022,1.222896,-1.404399,-2.939496,1.711943,0.160136,0.470969,0.155705,0.986188,-0.056467,-0.196645,-0.177747,-0.001639,2.513756,36.044228,-20.643700,,,,,,,
1530639315.183991,1.026587,-1.377664,3.141110,2.411478,0.070328,0.334727,0.164205,0.981408,-0.099371,-0.199728,0.099296,0.061072,3.008846,35.148491,-22.184822,,,,,,,
1530639315.203960,0.846694,-1.346617,2.957164,2.415236,-0.041097,0.005203,0.166527,0.974977,-0.147269,-0.185051,0.283904,0.185645,3.223049,34.153862,-23.976776,,,,,,,
1530639315.223929,0.713567,-1.314355,2.812291,2.314378,0.755728,-0.120380,0.166016,0.967299,-0.191760,-0.141495,0.370760,0.457202,3.471912,32.820526,-25.378181,,,,,,,
1530639315.243899,0.655472,-1.285005,2.714862,1.602435,2.370461,-0.043522,0.171838,0.959439,-0.223492,-0.094644,0.328189,0.833066,4.280033,32.036873,-26.975433,,,,,,,
1530639315.263868,0.686874,-1.274252,2.689022,0.037757,2.735482,0.084928,0.185302,0.956352,-0.225952,-0.087447,0.249718,0.756484,5.954117,31.418221,-27.262482,,,,,,,
1530639315.283837,0.764368,-1.283680,2.729517,-1.056302,1.303557,0.157635,0.195989,0.959065,-0.204410,-0.203694,0.276409,0.282154,7.279858,31.870094,-27.220467,,,,,,,
1530639315.303806,0.823541,-1.293841,2.787850,-0.752281,-0.600102,0.216400,0.200575,0.961892,-0.185830,-0.305312,0.324866,0.095589,7.788216,32.283127,-26.804810,,,,,,,
1530639315.323775,0.827301,-1.299275,2.822211,-0.479072,-1.846467,0.050008,0.197422,0.963364,-0.181534,-0.337452,0.407547,0.152099,7.233322,32.931816,-26.982330,,,,,,,
1530639315.343744,0.820957,-1.307584,2.847941,-0.634984,-1.157383,-0.136979,0.190402,0.965559,-0.177321,-0.393359,0.561662,0.446287,6.419445,33.584160,-26.999107,,,,,,,
1530639315.363713,0.879354,-1.328067,2.904505,-1.720644,0.986472,-0.411661,0.185151,0.970685,-0.153261,-0.504334,0.574557,0.840624,6.125854,34.494011,-26.522530,,,,,,,
1530639315.383682,1.089957,-1.370903,3.081393,-3.415698,2.135192,-0.903578,0.176049,0.980088,-0.091841,-0.504708,0.304809,0.734388,6.581345,36.209175,-24.829002,,,,,,,
1530639315.403651,1.525673,-1.417682,-2.793643,-4.279691,1.125338,-1.534480,0.152360,0.988301,-0.006880,-0.252732,0.323574,0.134992,6.507774,38.475464,-21.817764,,,,,,,
1530639315.423620,2.159261,-1.428514,-2.151122,-4.328359,-0.864147,-1.818579,0.117951,0.989895,0.078713,-0.051529,0.410526,-0.451622,5.308830,40.710812,-18.595184,,,,,,,
1530639315.443589,2.637053,-1.388316,-1.640188,-4.098485,-1.415660,-1.574556,0.087722,0.983397,0.158857,0.041489,0.394853,-0.598615,3.361809,42.619209,-15.334496,,,,,,,
1530639315.463558,2.857745,-1.328836,-1.399724,-3.406541,-0.230262,-0.938805,0.067102,0.970870,0.230018,0.236502,0.576920,-0.606209,1.260899,44.806149,-10.723015,,,,,,,
1530639315.483527,2.947231,-1.282303,-1.320800,-1.749596,0.977320,-0.204318,0.054950,0.958674,0.279151,0.526868,0.723867,-0.654670,1.231247,45.253414,-8.597084,,,,,,,
1530639315.503496,2.969573,-1.279264,-1.310837,0.625478,0.252124,-0.168430,0.049198,0.957805,0.283178,0.632000,0.688878,-0.714330,0.674965,45.464306,-8.579460,,,,,,,
1530639315.523465,2.984119,-1.301075,-1.289206,0.977152,-0.625192,-0.707044,0.041788,0.963845,0.263165,0.437842,0.387244,-0.227490,-0.137741,45.314228,-9.229202,,,,,,,
1530639315.543434,3.050616,-1.305252,-1.205488,-0.588461,-0.578237,-1.356652,0.023843,0.964950,0.261350,0.022361,0.084855,0.329470,-1.369850,45.352764,-8.551338,,,,,,,
1530639315.563403,-3.127176,-1.279041,-1.098874,-1.663589,0.471908,-1.351986,-0.004147,0.957740,0.287605,0.066479,-0.171852,0.000161,-2.610245,45.661732,-7.414024,,,,,,,
1530639315.583372,-3.061657,-1.244647,-1.036452,-1.596223,-0.061432,-0.854841,-0.025584,0.947283,0.319374,0.178920,-0.380908,-0.677162,-3.411806,45.782265,-5.760483,,,,,,,
1530639315.603342,-3.051800,-1.216488,-1.005233,-1.224889,-1.594637,-0.572837,-0.031111,0.937887,0.345544,0.062590,-0.477453,-0.867196,-4.503521,46.252766,-4.425255,,,,,,,
1530639315.623311,-3.072352,-1.192567,-0.976557,-1.155555,-2.741937,-0.688040,-0.025548,0.929320,0.368390,-0.122462,-0.475310,-0.637021,-5.383364,46.104717,-3.016273,,,,,,,
1530639315.643280,-3.093121,-1.167037,-0.937845,-1.265226,-2.784804,-0.869346,-0.019036,0.919591,0.392416,-0.188667,-0.414311,-0.418859,-6.569473,46.214188,-1.631233,,,,,,,
1530639315.663249,-3.116537,-1.143455,-0.907353,-1.037856,-2.507266,-0.467066,-0.010383,0.910071,0.414323,0.045585,-0.462195,-0.546387,-7.183689,46.088238,-0.508842,,,,,,,
1530639315.683218,3.118494,-1.128833,-0.906662,-0.515159,-2.420744,0.246073,0.009879,0.903914,0.427600,0.237802,-0.588637,-0.714114,-7.149799,45.874157,0.875572,,,,,,,
1530639315.703187,3.048229,-1.125877,-0.937685,0.133776,-1.867992,0.898639,0.040124,0.902645,0.428511,0.295050,-0.687634,-0.717756,-6.554298,45.945042,1.163162,,,,,,,
1530639315.723156,2.972930,-1.131992,-0.996554,0.643771,-0.630411,1.340285,0.071318,0.905260,0.418827,0.327089,-0.731585,-0.592625,-5.538090,45.879879,0.817322,,,,,,,
1530639315.743125,2.906169,-1.142560,-1.070771,0.916849,0.187115,1.396318,0.096863,0.909700,0.403811,0.339630,-0.743028,-0.371539,-4.476532,46.248959,0.545120,,,,,,,
1530639315.763094,2.825768,-1.158835,-1.141019,1.364393,-1.779397,0.959282,0.124367,0.916337,0.380603,0.486458,-0.682603,0.050199,-3.719147,45.923286,-0.702438,,,,,,,
1530639315.783063,2.748657,-1.172274,-1.197354,0.524167,-0.025334,0.688734,0.148587,0.921636,0.358482,0.367404,0.100566,1.858864,-3.166523,45.985916,-1.241684,,,,,,,
1530639315.803032,2.782868,-1.171274,-1.204447,0.093770,2.588554,-0.221593,0.136562,0.921247,0.364217,-0.201641,1.387316,1.941920,-2.997023,45.702763,-0.998154,,,,,,,
1530639315.823001,2.844314,-1.189229,-1.179519,0.995860,1.287649,-0.991379,0.109076,0.928082,0.356041,-0.134100,1.438175,-0.049462,-3.638954,45.654972,-1.763496,,,,,,,
1530639315.842970,2.903413,-1.214149,-1.129741,0.764416,0.403172,-1.264965,0.082372,0.937073,0.339276,-0.245626,0.709091,-0.030256,-4.764154,45.248062,-2.479797,,,,,,,
1530639315.862939,2.961805,-1.226843,-1.068236,0.340500,-0.235972,-1.088804,0.060300,0.941429,0.331775,-0.268308,-0.226265,0.167081,-5.768572,45.010208,-2.761108,,,,,,,
1530639315.882908,2.998015,-1.246682,-1.023538,1.256358,-0.377740,-0.745500,0.045568,0.947933,0.315191,-0.266866,-0.627575,-0.551321,-6.667931,44.465294,-3.762192,,,,,,,
1530639315.902877,2.981474,-1.280751,-1.020522,1.835261,-1.376928,0.045925,0.045597,0.958231,0.282335,-0.011662,-0.517420,-1.193285,-6.987751,44.052860,-5.073112,,,,,,,
1530639315.922846,2.880689,-1.304167,-1.103465,0.354916,-0.153745,1.386649,0.067966,0.964664,0.254564,0.375592,0.112514,-0.650209,-6.478632,43.868782,-5.591988,,,,,,,
1530639315.942815,2.813567,-1.261607,-1.196177,-1.639786,0.801588,1.895705,0.098033,0.952581,0.288061,0.879155,1.903559,1.545679,-4.921148,44.013153,-4.210007,,,,,,,
1530639315.962784,2.760942,-1.243555,-1.251986,0.025511,-0.047927,0.627074,0.119419,0.946933,0.298423,0.250439,0.436246,-0.815558,-4.185417,44.176666,-3.643646,,,,,,,
1530639315.982753,2.757554,-1.256954,-1.271426,1.115520,1.327634,-0.234264,0.115665,0.951154,0.286227,0.011013,-0.347883,-0.789644,-3.940233,43.832291,-4.713608,,,,,,,
1530639316.002723,2.785809,-1.289188,-1.285472,1.797416,2.388469,-0.421925,0.096799,0.960610,0.260496,0.057055,-0.641167,-0.663404,-3.874275,43.346043,-6.423080,,,,,,,
1530639316.022692,2.807881,-1.328687,-1.317214,2.066867,2.742075,-0.166403,0.078530,0.970835,0.226522,0.137107,-0.689859,-0.513585,-3.730173,42.974800,-7.872993,,,,,,,
1530639316.042661,2.800843,-1.365896,-1.383114,1.931482,2.802293,0.231147,0.067997,0.979081,0.191767,0.213680,-0.445222,-0.314845,-2.987368,42.310917,-9.572655,,,,,,,
1530639316.062630,2.703633,-1.397159,-1.518370,1.939723,0.852062,0.812689,0.073267,0.984963,0.156456,0.312018,0.163322,-0.271049,-2.089243,41.818668,-11.181076,,,,,,,
,,,,,,,,,,,,,,,,39.779088,-84.063496,290.968105,-1.000000,-1.000000,1530639315.999992,
1530639316.082599,2.477543,-1.416390,-1.734683,1.503313,-1.341580,1.015994,0.094782,0.988103,0.121109,0.231741,0.594767,-0.185318,-1.541283,41.426765,-12.182655,,,,,,,
1530639316.102568,2.277007,-1.420926,-1.899536,0.798115,-2.087900,0.580958,0.113595,0.988791,0.096892,-0.012170,0.379038,-0.042647,-1.420914,40.848824,-13.288208,,,,,,,
1530639316.122537,2.122750,-1.422015,-2.015206,0.748943,-1.872698,0.432603,0.126219,0.988953,0.077725,-0.086379,-0.040268,0.003222,-1.751064,40.608196,-13.973190,,,,,,,
1530639316.142506,1.961669,-1.422167,-2.148532,0.973116,-1.223763,0.446288,0.136914,0.988975,0.056419,-0.141598,-0.223075,-0.018028,-1.799383,40.249668,-14.546890,,,,,,,
1530639316.162475,1.792930,-1.420178,-2.304769,1.125034,-0.412412,0.443189,0.146363,0.988678,0.033058,-0.166993,-0.280198,-0.007392,-1.751923,39.830597,-15.279991,,,,,,,
1530639316.182444,1.640540,-1.415232,-2.458567,1.093013,0.122404,0.369526,0.154559,0.987924,0.010797,-0.161014,-0.354959,-0.030282,-1.426928,39.295067,-16.104424,,,,,,,
1530639316.202413,1.520197,-1.409577,-2.586239,0.941797,0.352817,0.261168,0.160317,0.987032,-0.008119,-0.174645,-0.379580,-0.044173,-1.156836,38.704231,-17.129684,,,,,,,
1530639316.222382,1.425868,-1.403206,-2.691070,0.898036,0.475628,0.223400,0.165059,0.985990,-0.024091,-0.181569,-0.354566,-0.021579,-0.779282,38.361801,-17.634430,,,,,,,
1530639316.242351,1.299810,-1.392630,-2.831154,1.643902,0.663523,0.314496,0.170758,0.984170,-0.047440,-0.214444,-0.207559,-0.002929,-0.495617,37.620300,-18.348000,,,,,,,
1530639316.262320,1.097227,-1.371207,-3.050242,2.594279,0.526334,0.153785,0.176448,0.980148,-0.090423,-0.196238,-0.012741,0.029983,0.051418,36.455391,-19.947449,,,,,,,
1530639316.282289,0.899985,-1.343245,3.025047,2.502021,0.147249,-0.097277,0.176711,0.974222,-0.140233,-0.143019,0.079154,0.152791,0.301689,35.123581,-21.650429,,,,,,,
1530639316.302258,0.757048,-1.313298,2.875603,2.311100,0.158299,-0.089798,0.174897,0.967030,-0.185105,-0.054550,0.177867,0.294129,0.291412,34.114517,-23.198944,,,,,,,
1530639316.322227,0.659481,-1.276296,2.759699,2.451204,1.123099,0.066517,0.177845,0.956947,-0.229396,-0.015232,0.422691,0.587184,0.654026,32.670380,-24.577713,,,,,,,
1530639316.342197,0.637433,-1.243807,2.693867,1.358959,2.512140,0.232615,0.191153,0.947014,-0.258119,-0.100440,0.592186,0.927171,1.813725,31.576439,-25.517395,,,,,,,
1530639316.362166,0.698670,-1.238735,2.702696,-0.591725,2.454115,0.255296,0.209678,0.945373,-0.249612,-0.278602,0.419862,0.735512,3.354061,31.131454,-25.582039,,,,,,,
1530639316.382135,0.778188,-1.251634,2.753794,-1.030495,0.852511,0.090474,0.220264,0.949499,-0.223463,-0.412632,0.303935,0.352980,4.461979,31.107292,-25.035660,,,,,,,
1530639316.402104,0.798173,-1.264602,2.782131,-0.696801,-0.956580,-0.277721,0.215851,0.953488,-0.210405,-0.408676,0.450840,0.184495,4.501671,31.297264,-24.678009,,,,,,,
1530639316.422073,0.799614,-1.282583,2.808017,-1.126670,-1.062577,-0.413856,0.203825,0.958753,-0.198111,-0.386961,0.619662,0.407721,3.838428,31.634125,-24.098099,,,,,,,
1530639316.442042,0.864624,-1.314296,2.879984,-2.252760,0.391833,-0.599753,0.193025,0.967284,-0.164630,-0.505373,0.636567,0.710651,3.435612,32.274712,-23.079742,,,,,,,
1530639316.462011,1.062308,-1.363013,3.055415,-3.497566,1.632574,-1.010822,0.180191,0.978491,-0.100434,-0.490311,0.442789,0.749360,3.539852,33.582512,-21.119286,,,,,,,
1530639316.481981,1.461628,-1.414753,-2.842300,-4.366166,0.378370,-1.585701,0.154485,0.987850,-0.016932,-0.196188,0.388630,-0.007512,3.415634,35.167198,-18.480240,,,,,,,
1530639316.501950,2.114843,-1.428406,-2.173290,-4.743602,-0.800836,-1.695215,0.121421,0.989880,0.073453,-0.055869,0.318119,-0.468579,2.466244,36.893822,-15.649582,,,,,,,
1530639316.521919,2.628890,-1.381134,-1.637205,-4.584211,-0.587373,-1.442433,0.092479,0.982068,0.164287,0.104146,0.527286,-0.558925,1.293571,38.180176,-12.515289,,,,,,,
1530639316.541888,2.861120,-1.315493,-1.402432,-3.448626,0.496140,-0.940253,0.069905,0.967587,0.242671,0.382899,0.828235,-0.601985,0.600845,39.221001,-9.263779,,,,,,,
1530639316.561857,2.944429,-1.285267,-1.324606,-0.604127,0.213861,-0.483377,0.055175,0.959513,0.276208,0.728928,0.977087,-0.797738,0.228291,39.823891,-7.626953,,,,,,,
1530639316.581825,2.955516,-1.298544,-1.314891,1.086184,0.001635,-0.204754,0.049748,0.963168,0.264261,0.785945,0.671873,-0.548974,0.255955,39.780876,-7.965607,,,,,,,
1530639316.601794,2.966780,-1.317259,-1.296686,0.395378,-0.492093,-0.610686,0.043625,0.968031,0.247007,0.491867,0.230333,0.122988,-0.016155,39.862690,-8.361732,,,,,,,
1530639316.621764,3.051738,-1.301343,-1.210359,-1.661958,0.518099,-1.167355,0.023888,0.963917,0.265130,0.049706,-0.015613,0.524818,-0.593575,40.141903,-8.178543,,,,,,,
1530639316.641733,-3.134230,-1.258072,-1.131348,-2.346929,1.179945,-0.902326,-0.002265,0.951499,0.307643,0.210349,-0.248313,-0.302486,-1.056843,40.408203,-6.684921,,,,,,,
1530639316.661702,-3.093187,-1.213663,-1.101488,-2.065718,0.067916,-0.381135,-0.016915,0.936903,0.349181,0.254785,-0.429563,-0.880812,-1.520668,40.889767,-4.914841,,,,,,,
1530639316.681671,-3.111094,-1.177771,-1.095639,-1.645877,-1.943155,-0.120290,-0.011679,0.923755,0.382807,0.093725,-0.537890,-1.012949,-1.723600,41.144062,-3.701591,,,,,,,
1530639316.701640,3.119319,-1.147363,-1.090276,-1.499365,-3.354719,-0.177195,0.009151,0.911684,0.410791,-0.081249,-0.573274,-0.744073,-1.986893,41.260231,-2.097099,,,,,,,
1530639316.721609,3.070933,-1.115230,-1.069579,-1.727553,-3.141628,-0.490812,0.031062,0.898012,0.438874,-0.255061,-0.504610,-0.360673,-2.561180,41.866112,-0.822006,,,,,,,
1530639316.741578,3.043375,-1.081895,-1.045500,-1.616269,-2.150744,-0.273675,0.046054,0.882849,0.467392,-0.030414,-0.543936,-0.459900,-2.857523,41.966228,0.655663,,,,,,,
1530639316.761548,3.009170,-1.057585,-1.043286,-0.914142,-1.669131,0.287382,0.064827,0.871172,0.486678,0.157997,-0.623736,-0.740951,-2.734957,41.875603,1.906532,,,,,,,
1530639316.781517,2.960922,-1.050252,-1.066810,0.130369,-1.279936,0.787185,0.089369,0.867548,0.489257,0.211809,-0.689906,-0.830764,-1.937536,42.044151,2.289177,,,,,,,
1530639316.801486,2.901800,-1.061583,-1.114042,1.173175,-0.677527,1.104681,0.115780,0.873128,0.473541,0.244831,-0.734472,-0.768967,-0.935818,41.912067,1.246407,,,,,,,
1530639316.821455,2.839554,-1.087470,-1.177786,1.880416,-0.224698,1.038924,0.138241,0.885454,0.443689,0.238941,-0.769075,-0.523507,0.178944,41.669350,0.116745,,,,,,,
1530639316.841424,2.767235,-1.121436,-1.240093,2.064748,-1.490015,0.584351,0.158845,0.900725,0.404304,0.336883,-0.730254,0.152443,0.854248,41.714954,-1.543854,,,,,,,
1530639316.861393,2.741652,-1.120178,-1.263732,-1.550867,1.028250,0.243547,0.169576,0.900178,0.401152,0.123149,0.661452,3.550585,1.101589,41.892517,-0.912651,,,,,,,
1530639316.881362,2.785677,-1.093777,-1.233272,-0.782547,0.471267,-0.343263,0.159984,0.888367,0.430358,-0.126781,1.964187,0.889375,1.036808,42.181343,-0.377075,,,,,,,
1530639316.901331,2.812628,-1.105796,-1.210044,0.867481,0.404034,-0.915545,0.144869,0.893821,0.424377,-0.082689,1.330117,-0.490783,0.573395,42.159904,-0.410416,,,,,,,
1530639316.921300,2.856045,-1.129359,-1.186546,0.963164,1.297869,-0.711649,0.120345,0.904139,0.409937,-0.003509,0.341864,0.192480,0.317379,42.258759,-1.086456,,,,,,,
1530639316.941269,2.877370,-1.152941,-1.176045,1.182713,-0.059505,-0.467084,0.105978,0.913961,0.391716,0.019083,-0.706503,0.110649,-0.140469,42.518822,-2.096375,,,,,,,
1530639316.961238,2.858312,-1.180828,-1.186162,1.504762,-0.537843,0.045944,0.106257,0.924921,0.365006,0.058325,-0.801584,-0.557190,0.166046,42.127659,-3.092384,,,,,,,
1530639316.981207,2.803208,-1.205850,-1.242810,1.421904,0.154840,0.931322,0.118477,0.934143,0.336659,0.257637,-0.358978,-1.018177,0.845516,42.166599,-4.145836,,,,,,,
1530639317.001176,2.731376,-1.208165,-1.327406,0.159093,0.295040,1.469625,0.141471,0.934966,0.325303,0.750299,0.943558,0.839751,2.055721,42.094414,-4.540787,,,,,,,
1530639317.021145,2.688793,-1.202960,-1.387552,0.252316,0.858935,0.696973,0.157317,0.933108,0.323357,0.140031,1.073301,-0.330651,2.846478,42.004181,-4.504265,,,,,,,
1530639317.041114,2.699756,-1.207598,-1.401827,0.405779,1.372417,-0.131569,0.151911,0.934765,0.321147,0.039373,0.040943,-0.627238,2.988655,42.013283,-4.536774,,,,,,,
1530639317.061084,2.729808,-1.222243,-1.404762,0.880858,1.735332,-0.274020,0.136698,0.939868,0.312987,0.097326,-0.405932,-0.671080,3.135765,41.838634,-5.074402,,,,,,,
,,,,,,,,,,,,,,,,39.779087,-84.063490,290.954922,-1.000000,-1.000000,1530639316.999994,
1530639317.081053,2.742076,-1.245164,-1.430406,1.405362,1.754718,0.090416,0.124435,0.947448,0.294715,0.152939,-0.502884,-0.659216,3.634800,41.547688,-6.050476,,,,,,,
1530639317.101022,2.712754,-1.272746,-1.491890,1.747971,1.198305,0.399010,0.122107,0.955911,0.267065,0.125086,-0.340265,-0.612616,3.974792,41.521095,-6.988182,,,,,,,
1530639317.120991,2.638567,-1.301659,-1.586029,1.965630,0.510196,0.601525,0.128185,0.964001,0.232962,0.097874,-0.061123,-0.420371,4.606373,41.191658,-8.267830,,,,,,,
1530639317.140960,2.503335,-1.329111,-1.725268,2.161321,-0.377701,0.802232,0.142598,0.970936,0.192222,0.092097,0.331646,-0.262748,5.172565,40.686756,-9.830124,,,,,,,
1530639317.160929,2.322194,-1.350010,-1.897270,1.997643,-0.816266,0.695089,0.160029,0.975725,0.149501,-0.026332,0.488065,-0.116893,5.705605,40.089149,-11.606407,,,,,,,
1530639317.180898,2.152103,-1.365640,-2.058371,1.713595,-0.511962,0.284353,0.170258,0.979029,0.111866,-0.175599,0.192373,0.039837,5.864082,39.537544,-13.240814,,,,,,,
1530639317.200867,2.003215,-1.378294,-2.203566,1.469803,-0.319520,0.084043,0.173706,0.981529,0.080174,-0.177872,-0.116859,0.060527,6.027737,39.257225,-14.469238,,,,,,,
1530639317.220836,1.868163,-1.385873,-2.334111,1.165533,-0.400152,0.105230,0.175801,0.982950,0.053875,-0.146382,-0.231867,-0.047252,6.022331,38.879547,-15.087471,,,,,,,
1530639317.240805,1.741315,-1.387905,-2.454746,1.090436,-0.456983,0.185570,0.179235,0.983322,0.030863,-0.160604,-0.376373,-0.079172,6.067871,38.630775,-15.963127,,,,,,,
1530639317.260774,1.609707,-1.385357,-2.581164,1.153554,-0.334066,0.286870,0.184238,0.982855,0.007172,-0.156055,-0.478796,-0.048737,6.296711,38.057991,-16.847427,,,,,,,
1530639317.280743,1.491829,-1.377043,-2.699046,1.070343,-0.031612,0.453154,0.191942,0.981289,-0.015189,-0.119493,-0.432766,0.000464,6.539719,37.488419,-17.552933,,,,,,,
1530639317.300712,1.391721,-1.365119,-2.801753,1.162678,0.000422,0.445851,0.200964,0.978923,-0.036377,-0.143316,-0.192454,0.021332,6.844368,37.270981,-18.257782,,,,,,,
1530639317.320681,1.260332,-1.348903,-2.937624,1.897756,0.070817,0.448056,0.209555,0.975482,-0.067234,-0.163764,-0.028095,0.064792,7.336395,36.480247,-19.496941,,,,,,,
1530639317.340651,1.097022,-1.322655,-3.107082,2.475555,0.002163,0.451268,0.218550,0.969371,-0.112056,-0.178893,0.073903,0.141948,7.886688,35.483192,-21.034981,,,,,,,
1530639317.360620,0.955122,-1.290950,3.030396,2.365509,-0.124934,0.318093,0.225492,0.961098,-0.159512,-0.157453,0.141884,0.280698,7.958679,34.529884,-22.719376,,,,,,,
1530639317.380589,0.856894,-1.260516,2.926309,1.950681,0.218955,0.255148,0.230769,0.952248,-0.199924,-0.128993,0.296501,0.474735,8.389351,33.433281,-24.026329,,,,,,,
1530639317.400558,0.807835,-1.235135,2.859084,1.427799,1.002276,0.186851,0.238083,0.944193,-0.227632,-0.133652,0.446738,0.707826,9.171150,32.693626,-24.911507,,,,,,,
1530639317.420527,0.809670,-1.223215,2.834204,0.167487,1.253476,0.158358,0.246633,0.940199,-0.234942,-0.132695,0.433336,0.703707,9.829155,32.585510,-25.104927,,,,,,,
1530639317.440495,0.866729,-1.227755,2.872785,-1.000172,0.802069,0.359532,0.256373,0.941736,-0.217729,-0.246531,0.333868,0.423463,10.574947,32.920456,-24.547058,,,,,,,
1530639317.460464,0.928112,-1.232230,2.931797,-0.724817,-0.136889,0.437273,0.265871,0.943232,-0.199064,-0.385103,0.376150,0.214948,10.972073,33.396530,-23.904060,,,,,,,
1530639317.480433,0.942200,-1.235044,2.962013,-0.445435,-1.016118,0.019135,0.266501,0.944163,-0.193737,-0.436575,0.500768,0.164044,10.754295,33.534576,-23.667633,,,,,,,
1530639317.500402,0.943486,-1.245752,2.982247,-0.742174,-0.707486,-0.378501,0.258549,0.947637,-0.187449,-0.479176,0.644633,0.326731,10.243256,34.091736,-23.393959,,,,,,,
1530639317.520371,0.986049,-1.270119,3.025753,-1.621328,0.569293,-0.750159,0.246960,0.955136,-0.163481,-0.558514,0.593738,0.553206,9.790661,35.104149,-22.705223,,,,,,,
1530639317.540340,1.122350,-1.310576,3.135888,-2.772762,1.860827,-1.167369,0.231853,0.966333,-0.111554,-0.472805,0.414282,0.751950,9.603252,36.210625,-20.814049,,,,,,,
1530639317.560310,1.384630,-1.360857,-2.907634,-3.787461,0.893452,-1.708026,0.204800,0.978044,-0.038574,-0.149304,0.373260,0.217452,9.348110,37.792023,-18.275787,,,,,,,
1530639317.580280,1.823878,-1.394530,-2.459882,-4.419006,-0.492421,-1.771609,0.169769,0.984505,0.043907,0.034195,0.376106,-0.321250,7.903126,39.727776,-14.822876,,,,,,,
1530639317.600249,2.329432,-1.377692,-1.934712,-4.603837,-0.451307,-1.482552,0.139281,0.981413,0.132019,0.142534,0.447725,-0.440597,6.366589,41.459240,-11.249153,,,,,,,
1530639317.620218,2.653116,-1.324991,-1.606265,-3.806778,0.399298,-1.126720,0.114193,0.969942,0.214879,0.365985,0.683943,-0.529347,5.246780,42.603199,-8.006485,,,,,,,
1530639317.640187,2.790875,-1.288259,-1.468649,-1.491137,-0.029043,-0.754431,0.095785,0.960351,0.261822,0.691202,0.837821,-0.756802,4.492229,43.042652,-5.667885,,,,,,,
1530639317.660156,2.826090,-1.284665,-1.429173,0.133967,-0.078892,-0.327650,0.087578,0.959343,0.268311,0.836982,0.666954,-0.597504,3.858883,43.297684,-5.040062,,,,,,,
1530639317.680125,2.837100,-1.294131,-1.418382,0.401538,-0.071114,-0.347721,0.081892,0.961972,0.260583,0.680849,0.239750,-0.298654,3.605232,42.873444,-5.401283,,,,,,,
1530639317.700094,2.875576,-1.292874,-1.372013,-0.752654,-0.396763,-0.772705,0.072126,0.961628,0.264706,0.221545,-0.054248,0.156345,3.243042,42.793480,-5.240593,,,,,,,
1530639317.720062,2.954967,-1.266494,-1.286103,-1.926090,0.039545,-0.914475,0.055594,0.954056,0.294423,0.076379,-0.243607,-0.047857,2.409077,42.921570,-4.132767,,,,,,,
