timestamp(unix),attitude_roll(radians),attitude_pitch(radians),attitude_yaw(radians),rotation_rate_x(radians/s),rotation_rate_y(radians/s),rotation_rate_z(radians/s),gravity_x(G),gravity_y(G),gravity_z(G),user_acc_x(G),user_acc_y(G),user_acc_z(G),magnetic_field_x(microteslas),magnetic_field_y(microteslas),magnetic_field_z(microteslas),latitude(degree),longitude(degree),altitude(meter),speed(m/s),course(degree),timestamp(unix),User Mark
,,,,,,,,,,,,,,,,39.779227,-84.064312,291.856110,-1.000000,-1.000000,1530639947.445984,
1530639964.869039,0.007062,0.514922,-1.547285,0.064694,-0.065504,-0.185453,0.006146,-0.492467,-0.870308,-0.014493,0.017019,-0.028144,3.361034,-7.192200,-16.733253,,,,,,,
,,,,,,,,,,,,,,,,39.779227,-84.064307,291.868500,0.182208,-1.000000,1530639962.999996,
1530639964.889008,0.006610,0.514830,-1.551389,-0.063391,-0.155020,-0.165105,0.005753,-0.492387,-0.870357,-0.017349,-0.004165,0.000682,3.398808,-7.157715,-16.439659,,,,,,,
1530639964.908976,0.004126,0.512049,-1.554817,-0.171533,-0.241214,-0.147113,0.003597,-0.489964,-0.871734,-0.017849,-0.020625,0.012253,3.355190,-7.159195,-16.703209,,,,,,,
1530639964.928945,0.000189,0.508195,-1.558189,-0.199805,-0.277605,-0.151299,0.000165,-0.486601,-0.873623,-0.017957,-0.015504,0.030728,3.206345,-7.007774,-16.815590,,,,,,,
1530639964.948913,-0.003007,0.503925,-1.561593,-0.205083,-0.240094,-0.147826,-0.002633,-0.482866,-0.875689,-0.009192,0.004702,0.073870,3.086201,-6.783363,-16.683762,,,,,,,
,,,,,,,,,,,,,,,,39.779221,-84.064325,291.868500,-1.000000,-1.000000,1530639964.934212,
,,,,,,,,,,,,,,,,39.779221,-84.064325,291.868500,-1.000000,-1.000000,1530639964.939865,
1530639964.968882,-0.006386,0.499347,-1.564474,-0.271489,-0.235945,-0.106111,-0.005606,-0.478852,-0.877877,-0.000924,0.028184,0.082390,3.111706,-6.727173,-16.482849,,,,,,,
,,,,,,,,,,,,,,,,39.779221,-84.064325,291.868500,-1.000000,-1.000000,1530639964.956810,
,,,,,,,,,,,,,,,,39.779221,-84.064325,291.868500,-1.000000,-1.000000,1530639964.960994,
1530639964.988850,-0.014571,0.491223,-1.564813,-0.510645,-0.490754,0.036497,-0.012847,-0.471705,-0.881662,0.054397,0.039439,0.057001,2.875282,-6.568413,-16.627953,,,,,,,
1530639965.008819,-0.017912,0.480547,-1.566117,-0.504065,-0.022584,-0.139274,-0.015882,-0.462264,-0.886599,-0.059786,-0.078278,0.053424,2.852268,-6.272621,-17.171028,,,,,,,
1530639965.028787,-0.016113,0.473168,-1.572658,-0.326081,-0.100602,-0.359410,-0.014342,-0.455708,-0.890013,-0.128786,0.003499,-0.146425,2.858990,-6.297119,-17.184250,,,,,,,
1530639965.048756,-0.013645,0.469120,-1.581852,-0.144252,-0.021922,-0.411660,-0.012171,-0.452101,-0.891883,-0.113195,-0.004289,-0.117761,2.911438,-6.098801,-17.335930,,,,,,,
1530639965.068725,-0.009164,0.469328,-1.590490,0.086107,-0.028917,-0.368849,-0.008173,-0.452287,-0.891835,-0.058691,-0.031509,-0.097210,2.898041,-6.096733,-17.163223,,,,,,,
1530639965.088693,-0.010173,0.473155,-1.598675,0.220398,-0.314871,-0.369506,-0.009055,-0.455697,-0.890088,-0.030923,-0.017097,-0.117175,2.905876,-6.213905,-17.145432,,,,,,,
1530639965.108662,-0.011079,0.478624,-1.606550,0.296770,-0.118519,-0.352113,-0.009834,-0.460558,-0.887574,-0.040322,-0.014768,-0.053191,2.880707,-6.148911,-17.166763,,,,,,,
1530639965.128630,-0.007429,0.484814,-1.614560,0.299094,0.042871,-0.383713,-0.006573,-0.466044,-0.884736,-0.058079,0.000804,-0.032271,2.976048,-6.070625,-16.989365,,,,,,,
1530639965.148599,-0.002938,0.489329,-1.624326,0.177013,-0.037167,-0.457222,-0.002593,-0.470034,-0.882644,-0.039002,-0.003584,-0.003297,2.920391,-6.190376,-17.089760,,,,,,,
1530639965.168567,-0.000340,0.491938,-1.634468,0.117051,-0.152134,-0.431252,-0.000300,-0.472335,-0.881418,-0.004629,-0.003327,0.006128,3.040363,-6.330322,-17.250107,,,,,,,
1530639965.188536,-0.000809,0.494898,-1.643545,0.180679,-0.288248,-0.386211,-0.000712,-0.474942,-0.880016,0.001124,0.016537,-0.011600,3.123283,-6.320877,-16.755058,,,,,,,
1530639965.208504,-0.003241,0.499730,-1.652197,0.277148,-0.325827,-0.384183,-0.002844,-0.479188,-0.877707,0.001822,0.023286,-0.006754,2.962025,-6.388863,-16.711357,,,,,,,
1530639965.228473,-0.005337,0.505253,-1.660677,0.265468,-0.276261,-0.367642,-0.004670,-0.484029,-0.875039,0.012620,0.025045,0.012093,2.859737,-6.206947,-16.826866,,,,,,,
1530639965.248441,-0.005865,0.509361,-1.668653,0.162486,-0.198016,-0.343519,-0.005121,-0.487619,-0.873041,0.020380,0.028803,0.047632,2.931461,-6.492401,-16.909103,,,,,,,
1530639965.268409,-0.005911,0.511183,-1.676313,0.062731,-0.192576,-0.327329,-0.005155,-0.489210,-0.872150,0.024320,0.023847,0.056263,2.828747,-6.363777,-16.907661,,,,,,,
1530639965.288378,-0.007525,0.511169,-1.683341,-0.037162,-0.315327,-0.291265,-0.006563,-0.489197,-0.872148,0.043123,0.020584,0.053193,2.714737,-6.246574,-16.962975,,,,,,,
1530639965.308346,-0.014496,0.509254,-1.688996,-0.120507,-0.598377,-0.222714,-0.012656,-0.487526,-0.873016,0.051673,0.021385,0.018646,2.471256,-6.117775,-16.921898,,,,,,,
,,,,,,,,,,,,,,,,39.779219,-84.064396,292.076630,-1.000000,-1.000000,1530639965.273324,
1530639965.328315,-0.021323,0.507212,-1.694698,-0.078410,-0.370817,-0.246872,-0.018637,-0.485742,-0.873903,0.044943,0.004297,0.020372,2.472042,-6.228989,-16.703201,,,,,,,
1530639965.348283,-0.022404,0.505968,-1.700807,-0.078198,-0.153129,-0.278180,-0.019596,-0.484655,-0.874485,0.015537,0.018850,0.031269,2.463314,-6.080963,-16.817398,,,,,,,
1530639965.368252,-0.022302,0.504209,-1.707274,-0.103427,-0.165317,-0.270420,-0.019525,-0.483115,-0.875338,0.037027,0.010078,0.031848,2.478790,-6.147285,-17.080765,,,,,,,
1530639965.388220,-0.024064,0.502454,-1.713157,-0.080559,-0.293574,-0.242157,-0.021088,-0.481578,-0.876149,0.068466,0.008784,0.015446,2.301510,-6.156013,-17.274605,,,,,,,
1530639965.408189,-0.029277,0.501086,-1.718526,-0.078632,-0.433939,-0.218055,-0.025674,-0.480379,-0.876685,0.080682,0.001131,-0.014612,2.224869,-6.061646,-17.111549,,,,,,,
1530639965.428157,-0.034699,0.499115,-1.722818,-0.135695,-0.322776,-0.167297,-0.030460,-0.478649,-0.877477,0.054355,0.002788,-0.001673,2.088875,-5.891312,-17.025429,,,,,,,
1530639965.448125,-0.037450,0.495224,-1.726564,-0.231280,-0.185968,-0.151600,-0.032943,-0.475229,-0.879244,0.021743,0.003443,-0.001584,2.074455,-5.792366,-16.974380,,,,,,,
1530639965.468094,-0.038097,0.490650,-1.730228,-0.227181,-0.112076,-0.141578,-0.033594,-0.471199,-0.881386,0.018717,-0.004585,-0.019279,2.099350,-5.888748,-17.062340,,,,,,,
1530639965.488062,-0.039475,0.486767,-1.733208,-0.173030,-0.193016,-0.092932,-0.034881,-0.467771,-0.883161,0.032165,-0.006732,-0.047626,2.040562,-5.690521,-17.267372,,,,,,,
1530639965.508031,-0.043424,0.484429,-1.734995,-0.088386,-0.281624,-0.054358,-0.038416,-0.465703,-0.884106,0.025385,-0.010844,-0.057911,1.843304,-5.516693,-17.052773,,,,,,,
1530639965.527999,-0.048409,0.483660,-1.736099,-0.018245,-0.270707,-0.039953,-0.042839,-0.465022,-0.884261,0.007195,-0.002904,-0.050569,1.785015,-5.819519,-16.986656,,,,,,,
1530639965.547968,-0.052397,0.483928,-1.736745,0.023490,-0.181468,-0.016242,-0.046359,-0.465260,-0.883959,0.006778,0.008198,-0.038496,1.646248,-5.627350,-16.801048,,,,,,,
1530639965.567936,-0.054993,0.484292,-1.736508,0.009487,-0.105595,0.027416,-0.048644,-0.465582,-0.883666,0.014526,0.007726,-0.018769,1.633411,-5.624153,-17.119598,,,,,,,
1530639965.587905,-0.057572,0.483571,-1.735917,-0.051316,-0.139785,0.025740,-0.050943,-0.464944,-0.883873,0.007318,0.001336,-0.018670,1.522953,-5.533623,-17.180168,,,,,,,
1530639965.607873,-0.059218,0.482837,-1.735736,-0.011295,-0.029243,0.002121,-0.052417,-0.464293,-0.884128,-0.006634,-0.002854,-0.024655,1.613045,-5.531052,-16.993004,,,,,,,
1530639965.627842,-0.059183,0.483089,-1.736334,0.026792,-0.023449,-0.039242,-0.052380,-0.464517,-0.884013,-0.004719,0.010217,-0.020131,1.723507,-5.610123,-17.178062,,,,,,,
1530639965.647810,-0.058972,0.483941,-1.737371,0.043648,-0.009036,-0.049059,-0.052170,-0.465271,-0.883629,0.018951,-0.002609,0.013039,1.546310,-5.550499,-17.233253,,,,,,,
1530639965.667778,-0.059604,0.483995,-1.738377,-0.029832,-0.102922,-0.037946,-0.052726,-0.465319,-0.883571,0.038612,-0.004286,0.028300,1.413097,-5.507919,-17.242950,,,,,,,
1530639965.687747,-0.061408,0.482841,-1.739271,-0.065483,-0.085243,-0.038556,-0.054353,-0.464297,-0.884009,0.030214,-0.010907,0.012275,1.497292,-5.484726,-17.107651,,,,,,,
1530639965.707715,-0.061797,0.481089,-1.740549,-0.099943,-0.050880,-0.057438,-0.054748,-0.462745,-0.884799,0.023116,0.007148,-0.013379,1.471146,-5.737488,-17.296021,,,,,,,
1530639965.727684,-0.061191,0.479493,-1.741796,-0.060229,0.052778,-0.043340,-0.054257,-0.461330,-0.885568,0.026791,-0.003713,-0.036353,1.528999,-5.546738,-17.152901,,,,,,,
1530639965.747652,-0.058969,0.479362,-1.742786,0.008924,0.063747,-0.036474,-0.052292,-0.461213,-0.885746,0.027451,0.006577,-0.034008,1.496796,-5.491508,-17.344475,,,,,,,
1530639965.767621,-0.058685,0.480441,-1.743314,0.069563,-0.030278,-0.011693,-0.052012,-0.462170,-0.885264,0.036310,-0.004108,-0.039892,1.566868,-5.657494,-17.103531,,,,,,,
1530639965.787589,-0.059151,0.482087,-1.743230,0.082023,-0.020450,0.003324,-0.052379,-0.463630,-0.884479,0.024517,-0.002206,-0.008099,1.572647,-5.670830,-17.100174,,,,,,,
1530639965.807558,-0.059791,0.483078,-1.743246,0.032754,-0.046916,0.001561,-0.052918,-0.464507,-0.883986,0.028076,-0.002763,0.005889,1.501923,-5.519455,-17.121956,,,,,,,
1530639965.827526,-0.060271,0.482377,-1.743063,-0.068021,-0.007225,0.013618,-0.053362,-0.463886,-0.884286,0.020250,-0.016247,0.009744,1.567287,-5.520226,-17.160828,,,,,,,
1530639965.847494,-0.060263,0.480105,-1.743143,-0.116123,-0.014821,-0.003167,-0.053417,-0.461873,-0.885336,0.000515,-0.015331,-0.023936,1.504337,-5.353409,-17.079506,,,,,,,
1530639965.867463,-0.060041,0.478496,-1.743711,-0.047798,-0.001457,-0.023241,-0.053266,-0.460444,-0.886088,-0.022342,-0.005162,-0.059865,1.677032,-5.527573,-17.127525,,,,,,,
1530639965.887431,-0.059997,0.479190,-1.744196,0.088489,-0.014783,-0.018290,-0.053208,-0.461061,-0.885771,-0.034012,0.004426,-0.079256,1.561371,-5.617905,-17.093155,,,,,,,
1530639965.907400,-0.059859,0.482826,-1.744559,0.226020,0.001866,-0.038015,-0.052985,-0.464284,-0.884100,-0.054864,0.014165,-0.047388,1.436306,-5.533363,-17.174385,,,,,,,
1530639965.927368,-0.059293,0.487753,-1.745735,0.229495,-0.008897,-0.078006,-0.052348,-0.468642,-0.881835,-0.052907,0.012496,0.018737,1.457165,-5.563774,-17.099930,,,,,,,
1530639965.947337,-0.058960,0.490895,-1.747551,0.100672,-0.029696,-0.097222,-0.051967,-0.471415,-0.880378,-0.034733,0.006037,0.080635,1.505669,-5.722229,-17.048920,,,,,,,
1530639965.967305,-0.058854,0.490421,-1.750035,-0.088953,-0.053769,-0.119043,-0.051887,-0.470998,-0.880607,-0.028557,0.007817,0.099250,1.469444,-5.729164,-16.844086,,,,,,,
1530639965.987274,-0.058123,0.487195,-1.752929,-0.191700,0.001488,-0.123072,-0.051332,-0.468149,-0.882156,-0.021285,-0.002660,0.073486,1.553017,-5.752083,-16.993896,,,,,,,
1530639966.007242,-0.056698,0.483152,-1.755890,-0.204253,0.009248,-0.127219,-0.050181,-0.464573,-0.884111,-0.018804,0.005009,0.034807,1.536240,-5.317482,-16.988777,,,,,,,
1530639966.027211,-0.055851,0.480286,-1.758536,-0.120573,-0.027395,-0.100248,-0.049506,-0.462033,-0.885479,0.003211,0.001919,0.005810,1.544472,-5.498917,-17.167465,,,,,,,
1530639966.047179,-0.056902,0.479152,-1.760229,-0.047454,-0.122616,-0.062662,-0.050467,-0.461027,-0.885949,0.019644,-0.006014,0.004358,1.601219,-5.447014,-17.151428,,,,,,,
1530639966.067148,-0.059760,0.478780,-1.761522,-0.023355,-0.174534,-0.058852,-0.053008,-0.460697,-0.885972,0.009368,-0.002163,0.005830,1.481190,-5.442924,-17.124939,,,,,,,
1530639966.087116,-0.062018,0.478053,-1.763176,-0.068285,-0.132426,-0.079740,-0.055030,-0.460051,-0.886185,0.011344,0.001754,0.014572,1.366405,-5.345749,-17.092369,,,,,,,
1530639966.107085,-0.062879,0.475615,-1.765345,-0.163632,-0.061664,-0.091321,-0.055863,-0.457886,-0.887254,0.028168,-0.005447,0.010682,1.319813,-5.439133,-17.128525,,,,,,,
1530639966.127053,-0.062229,0.471853,-1.767576,-0.203579,-0.004319,-0.080915,-0.055393,-0.454538,-0.889003,0.037128,-0.003089,-0.011418,1.217911,-5.450264,-17.242538,,,,,,,
1530639966.147021,-0.061078,0.468322,-1.769152,-0.164025,0.028541,-0.045589,-0.054468,-0.451389,-0.890663,0.043375,-0.001171,-0.040185,1.373188,-5.497887,-17.171417,,,,,,,
1530639966.166990,-0.060736,0.465736,-1.769883,-0.121294,-0.026903,-0.011799,-0.054234,-0.449081,-0.891843,0.041920,-0.004960,-0.039050,1.264931,-5.107933,-17.228767,,,,,,,
1530639966.186958,-0.061437,0.463776,-1.769945,-0.088985,-0.027082,0.012662,-0.054913,-0.447329,-0.892682,0.033398,-0.011702,-0.033680,1.204998,-5.065987,-17.325043,,,,,,,
1530639966.206927,-0.060873,0.462539,-1.769818,-0.053324,0.070072,0.009515,-0.054443,-0.446222,-0.893264,0.022003,-0.005194,-0.027207,1.315788,-5.154518,-17.240990,,,,,,,
1530639966.226895,-0.057829,0.461542,-1.769802,-0.053358,0.178245,0.011117,-0.051749,-0.445329,-0.893870,0.034858,-0.008345,-0.009176,1.291622,-5.057030,-17.012688,,,,,,,
1530639966.246864,-0.054250,0.460103,-1.769263,-0.077772,0.181317,0.046980,-0.048584,-0.444040,-0.894688,0.051087,-0.014639,-0.008175,1.270290,-4.936043,-17.152618,,,,,,,
1530639966.266832,-0.052368,0.458436,-1.767494,-0.068820,0.092572,0.109014,-0.046939,-0.442546,-0.895516,0.058902,-0.012639,-0.025795,1.491722,-4.912323,-17.377769,,,,,,,
1530639966.286801,-0.052339,0.457638,-1.764629,-0.007138,0.059268,0.133002,-0.046932,-0.441830,-0.895869,0.035518,0.002240,-0.039845,1.534351,-5.165215,-17.016098,,,,,,,
1530639966.306769,-0.051847,0.457974,-1.762159,0.028844,0.094866,0.091803,-0.046484,-0.442132,-0.895744,0.016805,0.018823,-0.036599,1.529285,-5.327888,-17.358231,,,,,,,
1530639966.326738,-0.049586,0.458334,-1.760785,0.010240,0.167973,0.056765,-0.044450,-0.442454,-0.895688,0.018099,0.024791,-0.006854,1.598217,-4.937309,-17.332405,,,,,,,
1530639966.346706,-0.046244,0.457629,-1.759283,-0.069710,0.194285,0.086863,-0.041470,-0.441822,-0.896143,0.041928,0.024052,0.023660,1.483562,-5.099220,-17.353783,,,,,,,
1530639966.366675,-0.043186,0.454928,-1.756868,-0.157192,0.211604,0.140724,-0.038782,-0.439397,-0.897454,0.061304,0.029531,0.034478,1.700634,-5.333122,-17.270645,,,,,,,
1530639966.386643,-0.040120,0.450927,-1.752854,-0.197670,0.254144,0.216860,-0.036100,-0.435800,-0.899319,0.064664,0.028970,0.029232,1.700306,-5.047188,-17.308746,,,,,,,
1530639966.406612,-0.037407,0.446755,-1.747688,-0.189539,0.238463,0.249054,-0.033728,-0.432041,-0.901222,0.057150,0.030216,0.021217,1.704517,-4.978531,-17.325821,,,,,,,
1530639966.426580,-0.035240,0.442930,-1.742294,-0.183316,0.198655,0.258503,-0.031833,-0.428588,-0.902938,0.064502,0.017044,0.024947,1.886150,-5.254990,-17.215202,,,,,,,
1530639966.446549,-0.034399,0.438705,-1.736722,-0.217980,0.135683,0.267198,-0.031135,-0.424768,-0.904766,0.059974,0.008386,0.023083,1.825081,-5.031258,-17.232445,,,,,,,
1530639966.466517,-0.033935,0.433545,-1.730827,-0.267428,0.162062,0.286183,-0.030789,-0.420090,-0.906959,0.038022,0.005997,0.006263,1.840069,-5.055832,-17.202187,,,,,,,
1530639966.486485,-0.032018,0.427337,-1.724353,-0.321228,0.258971,0.322816,-0.029133,-0.414449,-0.909606,0.024449,0.010274,-0.006944,2.030842,-4.830360,-17.268272,,,,,,,
1530639966.506454,-0.028670,0.420113,-1.716731,-0.369008,0.354543,0.392812,-0.026173,-0.407863,-0.912667,0.025166,0.007412,-0.025581,1.961628,-4.847641,-17.596390,,,,,,,
1530639966.526422,-0.024172,0.412007,-1.707182,-0.415973,0.441083,0.491876,-0.022147,-0.400449,-0.916051,0.025290,0.023267,-0.039455,1.827763,-4.454895,-17.556717,,,,,,,
1530639966.546391,-0.018946,0.403792,-1.695145,-0.384430,0.516437,0.608382,-0.017422,-0.392908,-0.919412,0.027340,0.023035,-0.040442,2.112080,-4.640282,-17.602631,,,,,,,
1530639966.566359,-0.014752,0.397590,-1.680881,-0.249790,0.441876,0.688556,-0.013601,-0.387197,-0.921896,0.032430,0.020300,-0.031702,2.170189,-4.717026,-17.477188,,,,,,,
1530639966.586328,-0.014116,0.394113,-1.665671,-0.123033,0.258443,0.708966,-0.013033,-0.383989,-0.923245,0.022204,0.015718,-0.023014,2.336533,-4.736923,-17.639236,,,,,,,
1530639966.606296,-0.014927,0.391594,-1.651239,-0.120341,0.242384,0.636601,-0.013797,-0.381662,-0.924198,-0.022046,0.005884,0.015064,2.384144,-5.046532,-17.531136,,,,,,,
1530639966.626265,-0.013159,0.388365,-1.639099,-0.163521,0.401018,0.526740,-0.012178,-0.378676,-0.925449,-0.024702,0.001006,0.056690,2.276997,-5.043564,-17.486908,,,,,,,
1530639966.646233,-0.008637,0.384600,-1.628002,-0.199159,0.388899,0.524904,-0.008006,-0.375188,-0.926914,-0.000768,-0.001201,0.055362,2.426201,-5.427330,-17.588089,,,,,,,
1530639966.666202,-0.007853,0.379497,-1.616083,-0.279231,0.200909,0.575543,-0.007294,-0.370454,-0.928822,-0.013076,0.007157,0.027882,2.222290,-5.452866,-17.997795,,,,,,,
1530639966.686170,-0.008944,0.373351,-1.603842,-0.309491,0.178966,0.557423,-0.008328,-0.364737,-0.931073,-0.041447,0.009543,0.004452,2.194088,-5.790794,-18.248734,,,,,,,
1530639966.706139,-0.007343,0.367208,-1.592924,-0.313114,0.366045,0.482873,-0.006853,-0.359011,-0.933308,-0.058912,0.010241,0.008564,2.095860,-5.918831,-18.814156,,,,,,,
1530639966.726107,-0.001265,0.360195,-1.582913,-0.390687,0.538337,0.474816,-0.001184,-0.352457,-0.935827,-0.044394,0.012796,0.029806,2.059937,-6.067741,-19.232353,,,,,,,
1530639966.746076,0.006761,0.350847,-1.571781,-0.532941,0.630547,0.556590,0.006349,-0.343693,-0.939060,0.008787,0.005574,0.076908,2.174957,-6.239708,-20.320267,,,,,,,
1530639966.766044,0.015901,0.337028,-1.558349,-0.821106,0.728202,0.656120,0.015006,-0.330684,-0.943622,0.006250,0.000255,0.102619,2.551815,-6.305099,-21.638397,,,,,,,
1530639966.786013,0.025674,0.317687,-1.543480,-1.049983,0.705966,0.689734,0.024386,-0.312371,-0.949647,-0.048022,0.013863,0.021714,3.094288,-5.995193,-22.951210,,,,,,,
1530639966.805981,0.033418,0.298872,-1.528644,-0.869405,0.604505,0.666827,0.031930,-0.294442,-0.955136,-0.075784,0.020730,-0.087421,4.043339,-5.578499,-23.758850,,,,,,,
1530639966.825950,0.042160,0.286255,-1.514783,-0.550271,0.656582,0.623772,0.040432,-0.282362,-0.958455,-0.048504,0.012541,-0.040522,5.487560,-5.302086,-24.449005,,,,,,,
1530639966.845918,0.051033,0.276711,-1.501389,-0.553485,0.604634,0.633259,0.049071,-0.273193,-0.960707,0.019563,0.005889,0.069776,6.690746,-4.789948,-24.372726,,,,,,,
1530639966.865886,0.054924,0.262231,-1.486143,-0.915047,0.202160,0.744105,0.053020,-0.259236,-0.964357,0.048436,-0.004390,0.148501,7.924000,-4.230797,-24.060333,,,,,,,
1530639966.885855,0.046751,0.239145,-1.468858,-1.361840,-0.387341,0.766520,0.045404,-0.236872,-0.970479,-0.090661,-0.012227,0.086034,8.722759,-3.454422,-23.777153,,,,,,,
1530639966.905823,0.031573,0.207805,-1.452723,-1.719942,-0.676041,0.707471,0.030888,-0.206313,-0.977998,-0.114446,-0.082093,0.049654,9.462070,-2.593506,-23.543785,,,,,,,
1530639966.925792,0.038696,0.178142,-1.448086,-1.206456,1.443868,-0.330716,0.038074,-0.177202,-0.983438,-0.609287,0.025041,-0.023825,10.616421,-1.983276,-23.179443,,,,,,,
1530639966.945760,0.092749,0.159974,-1.467789,-0.763248,2.613362,-1.214188,0.091434,-0.159293,-0.982988,-0.600970,0.028907,-0.228728,12.315197,-1.196396,-22.750587,,,,,,,
1530639966.965729,0.129933,0.137634,-1.487952,-1.151393,1.205849,-1.033489,0.128342,-0.137199,-0.982194,-0.017014,-0.071388,-0.083099,13.835865,-0.728531,-22.741119,,,,,,,
1530639966.985697,0.140040,0.111757,-1.500879,-1.028013,-0.307587,-0.565394,0.138712,-0.111525,-0.984033,0.214438,-0.058488,-0.146048,14.375565,0.016617,-22.499252,,,,,,,
1530639967.005666,0.112980,0.098607,-1.498551,-0.488183,-2.008103,0.276994,0.112193,-0.098447,-0.988798,0.641302,0.003415,-0.611132,13.133793,0.243332,-22.781898,,,,,,,
1530639967.025634,0.080005,0.087586,-1.501680,-0.589646,-1.285058,-0.672925,0.079613,-0.087474,-0.992980,0.065940,0.024715,0.297317,12.129387,0.019928,-22.550629,,,,,,,
1530639967.045603,0.068917,0.080110,-1.517105,-0.027111,-0.222492,-0.626349,0.068642,-0.080024,-0.994427,-0.024498,0.009635,0.190624,11.684151,0.354683,-22.383492,,,,,,,
1530639967.065571,0.073837,0.088374,-1.522325,0.634826,0.461999,-0.028292,0.073483,-0.088259,-0.993383,-0.043713,-0.132948,0.016485,12.197830,0.191925,-22.144157,,,,,,,
1530639967.085540,0.084128,0.101490,-1.519042,0.615097,0.402088,0.335090,0.083596,-0.101315,-0.991336,0.029685,-0.149097,0.045428,12.626408,-0.371979,-22.206894,,,,,,,
1530639967.105508,0.090568,0.110767,-1.511567,0.283155,0.408341,0.404454,0.089890,-0.110541,-0.989798,0.037460,0.028570,0.044913,13.093018,-0.537926,-22.095299,,,,,,,
1530639967.125477,0.095133,0.115122,-1.506717,0.221202,0.077737,0.165163,0.094361,-0.114868,-0.988889,0.041656,0.066589,-0.114108,13.173538,-0.582962,-22.052368,,,,,,,
1530639967.145445,0.101821,0.117277,-1.507198,0.032224,0.280340,-0.070196,0.100947,-0.117009,-0.987987,0.007086,0.085560,0.124858,13.025040,-0.597710,-21.863800,,,,,,,
1530639967.165414,0.100524,0.118671,-1.509230,0.099551,-0.067295,-0.087690,0.099649,-0.118393,-0.987954,0.056632,0.026291,-0.132789,13.069344,-0.532028,-21.858612,,,,,,,
1530639967.185382,0.102087,0.120844,-1.511588,0.163997,0.010377,-0.148404,0.101167,-0.120550,-0.987539,0.028686,0.034307,-0.028651,13.376682,-0.373650,-22.061470,,,,,,,
1530639967.205351,0.103307,0.124507,-1.516294,0.220194,0.098107,-0.226229,0.102325,-0.124186,-0.986969,-0.015182,0.029322,-0.033341,13.844387,-0.367043,-22.068909,,,,,,,
1530639967.225319,0.107626,0.128532,-1.521289,0.269584,0.233984,-0.242281,0.106532,-0.128178,-0.986013,-0.077769,0.081547,-0.032710,14.348778,-0.500145,-22.080757,,,,,,,
1530639967.245288,0.117198,0.135933,-1.528864,0.527678,0.569438,-0.394408,0.115851,-0.135515,-0.983979,-0.139960,0.178774,-0.047470,14.628857,-0.564362,-22.005135,,,,,,,
1530639967.265256,0.131823,0.149242,-1.542197,0.879439,0.592471,-0.708661,0.129980,-0.148689,-0.980304,-0.091757,0.207038,-0.036282,14.929939,-1.008652,-21.896439,,,,,,,
1530639967.285225,0.143132,0.166322,-1.564864,1.037335,0.288655,-1.160477,0.140675,-0.165557,-0.976115,-0.055897,0.174346,-0.001515,14.434177,-0.972664,-21.549561,,,,,,,
1530639967.305193,0.154662,0.181162,-1.594397,0.876625,0.356510,-1.387084,0.151526,-0.180172,-0.971894,-0.094778,0.135739,0.111466,14.141350,-1.681709,-21.185287,,,,,,,
1530639967.325162,0.166195,0.192130,-1.623242,0.710717,0.272679,-1.229333,0.162387,-0.190950,-0.968074,-0.027530,0.048662,0.033306,13.831707,-1.858063,-20.804077,,,,,,,
1530639967.345129,0.175850,0.199311,-1.647514,0.477671,0.194371,-1.068678,0.171482,-0.197994,-0.965086,-0.000767,0.042462,0.056319,13.488266,-1.935944,-20.745682,,,,,,,
1530639967.365099,0.182841,0.204618,-1.670255,0.462618,0.043903,-1.019638,0.178030,-0.203193,-0.962817,0.068964,0.039024,-0.025265,13.324059,-2.257462,-20.624573,,,,,,,
1530639967.385067,0.180521,0.209005,-1.689830,0.344009,-0.468244,-0.864451,0.175635,-0.207487,-0.962342,0.245615,-0.029238,0.122742,12.857201,-2.171356,-20.157524,,,,,,,
1530639967.405035,0.177581,0.211067,-1.706298,0.185122,-0.183575,-0.676961,0.172729,-0.209503,-0.962431,0.247559,-0.057724,0.220487,12.314163,-2.442375,-19.852486,,,,,,,
1530639967.425004,0.179337,0.212236,-1.714869,0.106835,0.045060,-0.212338,0.174375,-0.210646,-0.961884,0.235415,0.022322,0.167084,11.766117,-2.201431,-19.602112,,,,,,,
1530639967.444973,0.177402,0.216784,-1.708076,0.268062,0.079403,0.720106,0.172342,-0.215090,-0.961267,0.469931,-0.125379,0.187616,11.183414,-2.435577,-19.648033,,,,,,,
1530639967.464941,0.182796,0.227714,-1.690687,0.392025,0.658528,0.936206,0.177087,-0.225751,-0.957954,0.311011,-0.090548,0.540718,11.040936,-2.654198,-19.503601,,,,,,,
1530639967.484910,0.194262,0.235080,-1.673378,0.098551,0.696291,0.916873,0.187732,-0.232921,-0.954203,0.420376,-0.076588,0.895594,10.987495,-2.637665,-18.900749,,,,,,,
1530639967.504878,0.193427,0.245511,-1.656185,0.613717,-0.110746,0.903170,0.186459,-0.243052,-0.951924,0.482349,-0.002249,0.390782,10.335781,-2.777222,-17.946404,,,,,,,
1530639967.524847,0.200386,0.268087,-1.645367,1.162898,1.178864,0.523887,0.191938,-0.264887,-0.944984,0.393939,0.291194,0.425605,9.168201,-3.265587,-17.012611,,,,,,,
1530639967.544815,0.247632,0.286623,-1.652939,0.785947,2.650634,-0.611462,0.235110,-0.282715,-0.929944,0.012495,0.530426,0.658978,8.735733,-4.032761,-16.444244,,,,,,,
1530639967.564784,0.311308,0.290078,-1.683715,0.569224,2.745131,-1.814477,0.293507,-0.286027,-0.912163,-0.091893,0.626297,0.402382,9.009426,-4.432831,-16.135742,,,,,,,
1530639967.584752,0.376972,0.288192,-1.735110,0.826420,2.426015,-2.612557,0.352925,-0.284219,-0.891438,-0.139516,0.616372,0.022420,9.743191,-4.384583,-15.855415,,,,,,,
1530639967.604721,0.445364,0.278421,-1.796596,0.605558,2.785727,-3.057129,0.414197,-0.274837,-0.867701,-0.313199,0.630840,0.064524,10.988136,-4.683357,-15.485641,,,,,,,
1530639967.624689,0.527638,0.253621,-1.861457,0.286489,3.510140,-3.556064,0.487387,-0.250911,-0.836359,-0.452963,0.643977,0.203959,12.373512,-4.287025,-15.177856,,,,,,,
1530639967.644658,0.616907,0.211474,-1.937535,0.302999,3.906564,-4.691090,0.565627,-0.209901,-0.797500,-0.436522,0.771745,0.020187,13.952068,-3.765205,-14.285324,,,,,,,
1530639967.664626,0.727751,0.155936,-2.029511,0.850581,5.064351,-5.642603,0.657120,-0.155305,-0.737612,-0.380723,0.662751,0.061495,16.074379,-2.973892,-12.817688,,,,,,,
1530639967.684595,0.844325,0.087051,-2.131185,1.252575,5.256883,-6.205712,0.744691,-0.086941,-0.661720,-0.252626,0.507778,-0.183541,18.154999,-2.106827,-11.200775,,,,,,,
1530639967.704563,0.959962,-0.001147,-2.232767,1.248628,5.734104,-6.891468,0.819168,0.001147,-0.573550,0.034180,0.581205,-0.234007,20.367970,-0.400665,-8.847198,,,,,,,
1530639967.724532,1.065609,-0.110015,-2.333593,1.554771,5.298964,-7.515904,0.869792,0.109794,-0.481045,0.291921,0.402932,-0.435551,22.023609,1.568237,-6.839760,,,,,,,
1530639967.744500,1.140475,-0.232028,-2.435890,1.863231,4.159129,-7.764125,0.884475,0.229952,-0.405983,0.646562,0.174910,-0.490501,22.981522,4.505707,-4.703178,,,,,,,
1530639967.764469,1.181043,-0.352691,-2.534295,1.966821,3.059175,-7.065175,0.868063,0.345425,-0.356572,1.081415,-0.040997,-0.495922,23.324581,7.319801,-2.905296,,,,,,,
1530639967.784437,1.198335,-0.449958,-2.626247,2.271415,2.515734,-5.438163,0.838722,0.434928,-0.327687,1.266228,-0.354865,-0.404781,23.169510,9.713127,-1.907433,,,,,,,
1530639967.804404,1.200567,-0.511609,-2.715040,2.703948,1.907326,-3.681250,0.812875,0.489581,-0.315499,1.354635,-0.613452,-0.268272,23.000771,11.429558,-1.365570,,,,,,,
1530639967.824374,1.184183,-0.547152,-2.799302,2.648389,0.990456,-2.631359,0.790974,0.520258,-0.322007,1.165691,-0.683481,-0.064178,22.680035,12.766426,-1.077156,,,,,,,
1530639967.844343,1.162706,-0.566315,-2.867701,2.092664,0.678840,-1.602339,0.774582,0.536526,-0.334901,1.183487,-0.657772,0.169953,22.532413,13.616005,-1.167259,,,,,,,
1530639967.864311,1.154613,-0.566596,-2.912686,1.495349,0.880486,-0.243608,0.771708,0.536763,-0.341097,1.113973,-0.799657,0.365527,22.468937,14.014091,-1.541748,,,,,,,
1530639967.884279,1.164630,-0.548780,-2.926130,0.476138,0.911743,1.031438,0.783748,0.521647,-0.337075,1.099217,-0.891123,0.644067,22.848309,13.291283,-1.236259,,,,,,,
1530639967.904248,1.190573,-0.527051,-2.890864,-1.979976,0.141045,1.969579,0.802565,0.502987,-0.320763,0.694093,-0.483394,1.205010,22.972046,12.772156,-0.787964,,,,,,,
1530639967.924217,1.247590,-0.497101,-2.809167,-3.046036,1.526916,2.911923,0.833455,0.476880,-0.279167,0.500591,-0.383420,0.679908,23.607597,11.298965,0.382988,,,,,,,
1530639967.944185,1.331569,-0.453423,-2.731852,-2.324092,2.649274,3.084358,0.873349,0.438046,-0.213008,0.465579,-0.355358,0.316401,23.926041,10.060036,1.961746,,,,,,,
1530639967.964154,1.393282,-0.398549,-2.688725,-0.751037,1.796440,3.097985,0.907140,0.388081,-0.162744,0.426860,0.059474,-0.163032,24.208168,8.405869,3.100380,,,,,,,
1530639967.984122,1.432059,-0.335375,-2.690325,1.289850,2.153878,3.194427,0.935211,0.329123,-0.130587,0.333328,0.058588,-0.551908,24.339214,6.994492,4.011765,,,,,,,
1530639968.004091,1.466583,-0.266424,-2.714923,1.455842,2.054926,3.288164,0.959482,0.263283,-0.100355,-0.010050,0.162895,-0.202700,24.391964,5.463142,4.627571,,,,,,,
1530639968.024059,1.512388,-0.199545,-2.727736,0.704741,2.818995,3.300937,0.978483,0.198223,-0.057216,-0.119871,-0.040539,0.038494,24.055492,3.950951,5.742271,,,,,,,
1530639968.044028,1.573072,-0.132916,-2.742648,1.027958,3.151419,3.264580,0.991174,0.132525,0.002255,0.028647,-0.098208,-0.261228,23.657192,2.399277,6.966454,,,,,,,
1530639968.063996,1.622533,-0.079227,-2.774184,1.730674,2.269599,2.243340,0.995526,0.079144,0.051551,-0.013028,0.179431,-0.543312,23.091572,1.370705,7.993660,,,,,,,
1530639968.083965,1.658065,-0.060719,-2.810806,1.698828,1.776740,0.243874,0.994355,0.060682,0.086997,-0.270479,0.363589,-0.255347,22.748123,1.262794,8.504463,,,,,,,
1530639968.103933,1.688080,-0.081346,-2.831743,0.643347,1.496511,-1.485878,0.989843,0.081256,0.116628,-0.569387,0.411496,-0.180043,22.288891,1.924606,9.133469,,,,,,,
1530639968.123902,1.722458,-0.125775,-2.818541,-0.810163,1.741898,-2.899312,0.980709,0.125443,0.149887,-0.729870,0.459411,-0.056045,21.843437,2.959808,9.916428,,,,,,,
1530639968.143870,1.754291,-0.201886,-2.785704,-0.896289,0.942756,-4.664557,0.963240,0.200518,0.178760,-0.656142,0.452208,-0.369174,21.353844,4.401176,10.133171,,,,,,,
1530639968.163839,1.766433,-0.306699,-2.750696,-0.547546,-0.296490,-5.863859,0.935147,0.301913,0.185319,-0.668118,0.266644,-0.537507,20.845772,6.243622,9.978493,,,,,,,
1530639968.183807,1.756594,-0.426327,-2.717517,-0.264604,-1.530893,-6.323649,0.894817,0.413530,0.168195,-0.677059,-0.011613,-0.448301,20.256279,8.497902,9.594254,,,,,,,
1530639968.203776,1.709659,-0.554013,-2.695322,0.404755,-3.929392,-6.560219,0.842231,0.526104,0.117712,-0.600028,-0.109737,-0.290716,19.469177,10.513435,8.090385,,,,,,,
1530639968.223744,1.609075,-0.694266,-2.701379,1.026463,-4.951199,-7.289000,0.767957,0.639821,0.029411,-0.441480,-0.060704,0.032402,18.321548,12.979309,6.155655,,,,,,,
1530639968.243713,1.502597,-0.849279,-2.733743,0.993649,-3.575912,-8.057470,0.658985,0.750805,-0.045012,-0.260715,-0.124263,0.271789,16.549107,15.220451,4.424736,,,,,,,
1530639968.263681,1.400219,-1.014361,-2.798421,0.877504,-1.993224,-8.642866,0.520493,0.849143,-0.089656,-0.146958,-0.177283,0.322032,14.435680,17.338211,3.362541,,,,,,,
1530639968.283650,1.247131,-1.181358,-2.927908,0.797106,-1.877184,-8.817248,0.359950,0.925122,-0.120750,0.016042,-0.203076,-0.009987,11.639904,19.204742,2.525146,,,,,,,
1530639968.303618,0.949813,-1.324694,3.075072,0.473359,-1.209344,-7.839904,0.198137,0.969869,-0.141746,0.162688,-0.199407,0.043647,9.420795,20.234886,2.048294,,,,,,,
1530639968.323587,0.457994,-1.397025,2.572566,0.890632,1.433499,-4.676931,0.076442,0.984940,-0.155070,0.459004,0.381348,-0.022984,7.802063,20.783211,1.735809,,,,,,,
1530639968.343555,0.526090,-1.377697,2.519889,1.054919,8.979087,2.771470,0.096360,0.981414,-0.165944,0.942321,2.271195,-0.085246,8.113098,20.491760,2.419403,,,,,,,
1530639968.363524,1.016541,-1.292619,2.791469,0.381000,11.720057,6.003714,0.233487,0.961558,-0.144523,0.666400,1.685781,-0.472756,9.864014,19.726425,4.488556,,,,,,,
1530639968.383492,1.385034,-1.188928,2.963946,-1.455753,9.059121,5.364431,0.366239,0.927970,-0.068827,0.173586,0.759881,-0.457128,11.139668,18.717186,6.675247,,,,,,,
1530639968.403461,1.569775,-1.115643,3.067619,-1.302244,-0.577731,2.594132,0.439595,0.898194,-0.000449,-0.306508,0.151794,-0.651758,11.973850,18.055763,8.117638,,,,,,,
1530639968.423429,1.468487,-1.097681,3.085918,-0.105528,-7.147255,0.159683,0.453276,0.890153,-0.046537,-0.584334,-0.378282,-0.340518,12.700058,17.729218,6.711548,,,,,,,
1530639968.443398,1.324575,-1.107613,3.080039,0.098384,-6.745420,-0.809070,0.433321,0.894634,-0.108903,-0.277879,-0.310650,0.029633,12.957661,17.940895,5.013756,,,,,,,
1530639968.463367,1.178388,-1.124317,3.055642,0.355321,-5.811632,-0.962612,0.398970,0.901973,-0.165123,-0.059233,-0.223140,0.064857,12.908501,17.860367,3.319374,,,,,,,
1530639968.483335,1.055869,-1.130414,3.020974,0.621938,-3.618566,-0.276491,0.371006,0.904589,-0.209932,0.200084,0.103285,0.129015,12.655548,18.211395,1.999290,,,,,,,
1530639968.503304,1.029338,-1.118182,3.018507,0.003213,0.454603,0.911321,0.374761,0.899307,-0.225387,0.373011,0.250595,0.538482,12.722401,17.909492,1.575653,,,,,,,
1530639968.523272,1.110549,-1.106192,3.063637,-0.826715,2.511454,0.913913,0.401442,0.893999,-0.199018,0.102846,0.041731,0.379605,12.959785,17.603165,2.353691,,,,,,,
1530639968.543241,1.202543,-1.104441,3.111697,-0.981668,2.348343,0.243936,0.419487,0.893213,-0.161861,-0.020607,-0.019251,-0.050175,13.142303,17.702393,3.339417,,,,,,,
1530639968.563209,1.276927,-1.112778,-3.134664,-0.824135,1.901575,-0.288374,0.423213,0.896931,-0.128078,-0.026210,-0.141498,-0.135777,13.140728,17.499619,4.090591,,,,,,,
1530639968.583178,1.329493,-1.122460,-3.112692,-0.438977,1.496495,-0.314924,0.420906,0.901170,-0.103584,0.109383,-0.109071,-0.168556,12.921005,17.843697,4.729698,,,,,,,
1530639968.603146,1.356031,-1.126183,-3.108374,0.058192,0.869715,-0.054696,0.420225,0.902777,-0.091663,0.216097,-0.041174,-0.183865,12.923130,17.739952,5.312302,,,,,,,
1530639968.623115,1.349016,-1.123054,-3.123826,0.522420,0.040315,0.134800,0.422325,0.901427,-0.095230,0.219780,-0.034758,-0.163300,12.774765,17.848099,4.942123,,,,,,,
1530639968.643083,1.316171,-1.117192,3.130192,0.755399,-0.494000,0.126504,0.424077,0.898873,-0.110376,0.139415,-0.073449,-0.087225,12.724300,17.664658,4.731308,,,,,,,
1530639968.663052,1.275539,-1.110307,3.098268,0.759300,-0.624535,0.165738,0.425154,0.895835,-0.129310,0.083162,-0.077735,-0.009637,12.853966,17.362999,4.620537,,,,,,,
1530639968.683020,1.240684,-1.101415,3.072405,0.631331,-0.561373,0.296829,0.427909,0.891848,-0.146623,0.057534,-0.009478,0.040483,12.924644,17.309181,3.973145,,,,,,,
1530639968.702989,1.216729,-1.091405,3.057713,0.381031,-0.548652,0.384765,0.432625,0.887276,-0.159918,-0.018258,0.058296,0.117208,13.098976,16.826363,3.829140,,,,,,,
1530639968.722957,1.203415,-1.083137,3.056359,0.047771,-0.656561,0.360830,0.437291,0.883432,-0.168293,-0.138371,0.105078,0.233661,13.259937,16.956093,3.403122,,,,,,,
1530639968.742926,1.198257,-1.078841,3.067717,-0.287937,-0.805835,0.252603,0.439948,0.881411,-0.171926,-0.217261,0.086988,0.268621,13.279621,16.726791,3.294106,,,,,,,
1530639968.762894,1.197760,-1.078256,3.087074,-0.483310,-0.933231,0.166713,0.440342,0.881135,-0.172333,-0.170384,0.027954,0.157516,13.250458,16.576454,3.115761,,,,,,,
1530639968.782863,1.199054,-1.080075,3.111796,-0.626445,-1.067436,0.105044,0.439071,0.881993,-0.171180,-0.098449,-0.021687,0.052650,13.182941,16.554886,2.894424,,,,,,,
1530639968.802832,1.201904,-1.084043,3.138974,-0.659310,-1.039234,0.019244,0.436290,0.883856,-0.168665,-0.035838,-0.016165,0.026850,13.188698,16.249382,2.937149,,,,,,,
1530639968.822800,1.203324,-1.089364,-3.120765,-0.515016,-0.934961,-0.060527,0.432133,0.886333,-0.166353,0.048656,-0.024669,0.045656,13.114647,16.342468,2.552017,,,,,,,
1530639968.842769,1.195521,-1.094160,-3.108885,-0.196621,-0.931201,-0.140480,0.426862,0.888543,-0.168160,0.116091,-0.052133,0.106820,13.088909,16.462700,2.419174,,,,,,,
1530639968.862737,1.174264,-1.097321,-3.112651,0.133072,-0.842631,-0.193177,0.420599,0.889989,-0.176110,0.142878,-0.068608,0.145058,13.141216,16.186478,2.099129,,,,,,,
1530639968.882706,1.149123,-1.098865,-3.125961,0.296534,-0.542477,-0.184846,0.414785,0.890692,-0.186065,0.117427,-0.081229,0.155104,12.798050,16.239853,1.748436,,,,,,,
1530639968.902674,1.126022,-1.099228,3.140255,0.363564,-0.351560,-0.179247,0.410084,0.890857,-0.195457,0.064342,-0.079486,0.164665,12.617249,16.066032,1.533218,,,,,,,
1530639968.922643,1.102388,-1.099214,3.122324,0.374229,-0.434219,-0.199174,0.405362,0.890850,-0.205099,0.045475,-0.074185,0.159277,12.591530,16.016289,1.400452,,,,,,,
1530639968.942611,1.076547,-1.099335,3.104970,0.353336,-0.589824,-0.205095,0.399832,0.890905,-0.215453,0.078577,-0.076895,0.152022,12.238983,15.943794,0.815170,,,,,,,
1530639968.962580,1.047365,-1.099002,3.088273,0.367864,-0.818509,-0.180463,0.393633,0.890754,-0.227176,0.148421,-0.061576,0.156283,12.037491,15.732681,0.586967,,,,,,,
1530639968.982548,1.014268,-1.097806,3.071267,0.394974,-0.932373,-0.158655,0.386803,0.890210,-0.240640,0.203376,-0.045377,0.165536,11.730042,15.758125,0.164246,,,,,,,
1530639969.002517,0.983150,-1.096336,3.054419,0.374035,-0.723660,-0.168213,0.380218,0.889539,-0.253283,0.238404,-0.032362,0.177218,11.460808,15.437370,-0.108421,,,,,,,
1530639969.022485,0.959889,-1.095766,3.039324,0.291390,-0.375670,-0.201245,0.374640,0.889279,-0.262349,0.274011,-0.040188,0.184346,11.201683,15.197632,-0.639610,,,,,,,
1530639969.042454,0.946041,-1.095878,3.027867,0.212340,-0.124249,-0.158201,0.370891,0.889330,-0.267454,0.344975,-0.032869,0.186018,10.863625,14.786232,-1.172012,,,,,,,
1530639969.062422,0.937104,-1.093818,3.019981,0.235691,-0.130214,0.064771,0.369960,0.888386,-0.271842,0.419117,-0.014378,0.183737,10.478981,14.496590,-1.295082,,,,,,,
1530639969.082391,0.929299,-1.085518,3.017207,0.337628,-0.381157,0.430247,0.373723,0.884545,-0.279124,0.406901,0.050941,0.229777,10.183910,14.402710,-1.744896,,,,,,,
1530639969.102360,0.918395,-1.072896,3.018546,0.334793,-0.709702,0.528999,0.379499,0.878587,-0.289937,0.369829,0.268736,0.313375,9.764252,13.886551,-2.231262,,,,,,,
1530639969.122328,0.910510,-1.065870,3.024902,-0.131583,-0.552959,0.233823,0.382067,0.875210,-0.296700,0.302259,0.442035,0.586266,9.034714,13.196312,-2.934891,,,,,,,
1530639969.142297,0.929423,-1.073694,3.048821,-1.050335,0.189872,-0.026742,0.382112,0.878968,-0.285316,0.285765,0.376876,0.839790,8.560898,13.155594,-3.229004,,,,,,,
1530639969.162265,0.988323,-1.090693,3.104290,-1.817346,0.610630,0.145242,0.385710,0.886947,-0.254071,0.451814,0.231873,0.653638,7.894054,13.115768,-3.233658,,,,,,,
1530639969.182234,1.082666,-1.105797,-3.089637,-2.292495,0.844304,0.538629,0.396051,0.893822,-0.210299,0.595984,0.139305,0.407610,7.361900,13.439621,-3.012444,,,,,,,
1530639969.202202,1.205797,-1.111944,-2.976280,-2.478994,1.226062,0.895133,0.413741,0.896561,-0.158099,0.528535,0.028976,0.284824,7.013142,13.548569,-3.243645,,,,,,,
1530639969.222171,1.344348,-1.106634,-2.855092,-2.521634,1.688323,1.097343,0.436244,0.894197,-0.100511,0.226964,-0.015169,0.278947,6.743336,13.747780,-3.049194,,,,,,,
1530639969.242139,1.490225,-1.093023,-2.736473,-2.573838,2.142322,1.058026,0.458310,0.888021,-0.037007,-0.040952,0.158625,0.236226,6.590958,13.925285,-2.831284,,,,,,,
1530639969.262108,1.625494,-1.073794,-2.626799,-2.537286,1.641807,0.960314,0.476078,0.879016,0.026066,-0.074055,0.241605,-0.150502,6.414513,14.524887,-2.603645,,,,,,,
1530639969.282076,1.727451,-1.050010,-2.530773,-2.412917,0.406802,0.914210,0.491469,0.867428,0.077627,-0.072844,0.321171,-0.499380,6.187504,15.101143,-2.769363,,,,,,,
1530639969.302045,1.789756,-1.024461,-2.451271,-2.042045,-0.629485,0.854563,0.507154,0.854434,0.112856,-0.130826,0.489896,-0.639727,5.894600,15.602234,-2.965790,,,,,,,
1530639969.322014,1.820593,-1.001212,-2.401236,-1.263579,-0.311452,0.802495,0.522543,0.842125,0.133314,-0.146582,0.518898,-0.502836,5.679520,16.020042,-3.211693,,,,,,,
1530639969.341982,1.859456,-0.981110,-2.374968,-0.877787,1.619405,0.768867,0.533091,0.831115,0.158303,-0.013377,0.299470,0.158087,5.844627,16.560745,-3.329300,,,,,,,
1530639969.361951,1.931264,-0.961182,-2.349130,-1.113156,2.844429,0.667274,0.535753,0.819869,0.201945,0.031828,0.231660,0.202107,5.971691,17.089096,-2.889946,,,,,,,
1530639969.381919,2.010719,-0.941027,-2.318272,-1.270378,2.493226,0.537835,0.532879,0.808163,0.250819,-0.074368,0.131061,-0.252314,6.336853,17.425156,-2.505104,,,,,,,
1530639969.401888,2.070409,-0.919656,-2.288032,-1.292437,1.330577,0.571292,0.532009,0.795393,0.290370,-0.105617,-0.031279,-0.521205,6.385040,17.936218,-2.606476,,,,,,,
1530639969.421856,2.107141,-0.895008,-2.263347,-1.259304,0.711016,0.767479,0.537679,0.780214,0.319635,-0.099065,-0.203127,-0.503717,6.646729,18.497719,-2.293671,,,,,,,
1530639969.441825,2.139244,-0.869803,-2.243506,-1.148502,0.966618,0.675850,0.543546,0.764202,0.347207,-0.279188,-0.298381,-0.438195,6.840275,18.747826,-1.998451,,,,,,,
1530639969.461793,2.175132,-0.850756,-2.226015,-0.901636,1.187294,0.360437,0.542618,0.751779,0.374689,-0.405747,-0.352426,-0.500651,7.001049,19.234993,-1.970772,,,,,,,
1530639969.481762,2.207155,-0.839795,-2.212432,-0.548161,0.974827,0.098952,0.536939,0.744506,0.396744,-0.450925,-0.386596,-0.539551,7.107761,19.420700,-2.216484,,,,,,,
1530639969.501730,2.224009,-0.836012,-2.207168,-0.057791,0.438620,0.032894,0.532410,0.741975,0.407446,-0.457184,-0.376588,-0.563635,7.111904,19.768608,-2.246918,,,,,,,
1530639969.521699,2.220549,-0.839948,-2.214590,0.540707,-0.092006,-0.047228,0.531487,0.744608,0.403831,-0.519082,-0.319361,-0.578636,7.124733,20.022453,-2.766052,,,,,,,
1530639969.541667,2.200318,-0.853493,-2.231702,1.030711,-0.506399,-0.328395,0.531346,0.753581,0.387023,-0.612599,-0.306468,-0.520293,7.032169,20.283546,-3.622131,,,,,,,
1530639969.561636,2.169595,-0.876249,-2.251637,1.240258,-0.975407,-0.680178,0.528680,0.768343,0.360758,-0.652200,-0.372713,-0.402262,7.058311,20.198868,-4.748489,,,,,,,
1530639969.581605,2.128363,-0.902915,-2.270422,1.195510,-1.527366,-0.837673,0.525524,0.785136,0.327698,-0.547100,-0.462641,-0.232056,6.738079,20.200500,-6.057808,,,,,,,
1530639969.601573,2.081967,-0.929116,-2.285289,0.935218,-1.830210,-0.931266,0.522032,0.801091,0.292806,-0.276854,-0.391316,0.299098,6.014709,20.138657,-7.098419,,,,,,,
1530639969.621542,2.044443,-0.947171,-2.283019,-0.095461,-2.123007,-0.685487,0.519691,0.811767,0.266374,0.506828,-0.007888,1.479994,5.513470,20.387695,-8.251305,,,,,,,
1530639969.641510,2.018480,-0.944664,-2.250048,-1.305221,-2.867580,-0.072204,0.528264,0.810300,0.253673,1.262278,0.811435,1.466862,4.906139,20.673431,-8.941414,,,,,,,
1530639969.661479,2.004721,-0.925188,-2.210972,-1.420745,-1.690531,0.691830,0.545921,0.798734,0.252969,1.216332,1.300296,0.579551,4.591900,21.412437,-9.273911,,,,,,,
1530639969.681447,2.000803,-0.897782,-2.199664,-0.419943,-0.044348,1.247766,0.566598,0.781946,0.259858,0.902106,0.543387,0.547118,5.031837,21.934273,-9.481644,,,,,,,
1530639969.701416,1.994797,-0.882496,-2.221481,0.656010,0.663301,0.712307,0.578976,0.772327,0.261338,-0.188458,-0.082004,0.189361,5.795757,22.228340,-9.802498,,,,,,,
1530639969.721384,1.972796,-0.891223,-2.252166,1.248223,-0.438961,-0.512660,0.578360,0.777841,0.245891,-0.710181,-0.078286,-0.315105,5.829830,22.751640,-10.806419,,,,,,,
1530639969.741353,1.930020,-0.928709,-2.272602,1.209876,-1.739560,-2.080224,0.560642,0.800847,0.210530,-0.755588,0.212626,-0.551167,5.151035,22.992432,-11.980713,,,,,,,
1530639969.761322,1.898430,-0.982291,-2.269238,0.523091,-1.495003,-2.612066,0.525589,0.831771,0.178639,-0.369049,0.433060,-0.533405,3.965790,23.308815,-12.979301,,,,,,,
1530639969.781290,1.895138,-1.017319,-2.255657,0.083480,-0.335378,-1.069199,0.498241,0.850702,0.167516,0.241887,0.529975,-0.414068,3.107998,23.852783,-13.641167,,,,,,,
1530639969.801259,1.890449,-1.016028,-2.254180,-0.117430,-0.410555,0.552524,0.500062,0.850023,0.165523,0.213759,0.031401,-0.226207,3.381695,24.073387,-13.910942,,,,,,,
1530639969.821227,1.874717,-1.001722,-2.257828,-0.119058,-0.743382,0.631825,0.514156,0.842400,0.161259,-0.307995,-0.215279,-0.379368,3.572605,24.220802,-13.860336,,,,,,,
1530639969.841196,1.859811,-0.999167,-2.254247,-0.151324,-1.004128,-0.292305,0.518565,0.841021,0.154190,-0.508464,-0.116991,-0.448608,3.472515,24.543922,-14.311920,,,,,,,
1530639969.861164,1.850837,-1.015456,-2.238327,-0.185799,-1.134683,-1.206078,0.506694,0.849721,0.145724,-0.422221,-0.079900,-0.429080,3.019016,24.990845,-14.988884,,,,,,,
1530639969.881133,1.849060,-1.041599,-2.218182,-0.097196,-0.807673,-1.406052,0.485422,0.863212,0.138673,-0.207529,0.001335,-0.393586,2.350964,25.135765,-14.815331,,,,,,,
1530639969.901101,1.848229,-1.062114,-2.206932,0.085309,-0.373820,-0.778208,0.468404,0.873387,0.133391,0.077082,0.172481,-0.366804,1.869301,25.462837,-15.218338,,,,,,,
1530639969.921070,1.839708,-1.067370,-2.212208,0.250273,-0.120365,0.076525,0.465091,0.875935,0.128173,0.189847,0.187435,-0.319122,1.908127,25.494370,-15.773293,,,,,,,
1530639969.941038,1.799590,-1.067821,-2.236665,0.969984,-2.070388,-0.044090,0.469473,0.876152,0.109327,0.038858,0.048683,-0.407758,1.738281,25.480507,-16.453323,,,,,,,
1530639969.961007,1.674746,-1.081240,-2.296563,1.708647,-4.032036,-0.559702,0.467696,0.882541,0.048793,0.002305,-0.069340,-0.285335,0.662098,24.990746,-17.368507,,,,,,,
1530639969.980976,1.543014,-1.092327,-2.369359,1.670567,-2.785552,-0.421705,0.460243,0.887701,-0.012790,0.112969,-0.085333,0.029392,-0.761398,24.538498,-18.420952,,,,,,,
1530639970.000944,1.445423,-1.096921,-2.436671,1.431628,-1.509883,-0.343983,0.452756,0.889807,-0.057063,0.038944,-0.233847,0.138117,-1.577656,23.867195,-19.165192,,,,,,,
1530639970.020913,1.364369,-1.101512,-2.495801,1.200199,-1.423625,-0.514744,0.442646,0.891892,-0.092695,-0.027531,-0.349640,0.222928,-2.190914,23.357132,-19.868439,,,,,,,
1530639970.040881,1.294508,-1.106722,-2.545710,0.913757,-1.092433,-0.503620,0.430619,0.894236,-0.122098,0.080459,-0.232417,0.279477,-2.815277,22.872772,-20.512146,,,,,,,
1530639970.060849,1.245990,-1.110851,-2.584486,0.698999,-0.459311,-0.417388,0.420688,0.896077,-0.141659,0.106442,-0.097508,0.243069,-3.164120,22.416801,-21.255966,,,,,,,
1530639970.080817,1.209775,-1.113309,-2.618817,0.691093,-0.227926,-0.353630,0.413222,0.897165,-0.156020,0.147111,-0.073633,0.200530,-3.174988,21.884674,-21.588036,,,,,,,
1530639970.100786,1.167332,-1.114326,-2.658665,0.881411,-0.419669,-0.411593,0.405390,0.897614,-0.173054,0.154943,-0.077332,0.145939,-3.306623,21.723320,-22.057037,,,,,,,
1530639970.120754,1.110570,-1.113863,-2.710436,1.153493,-0.555158,-0.466914,0.395292,0.897410,-0.195958,0.139056,-0.053736,0.144872,-3.514692,21.172058,-22.559288,,,,,,,
1530639970.140723,1.045001,-1.110441,-2.771554,1.312174,-0.525117,-0.508366,0.384257,0.895895,-0.222978,0.124166,-0.021948,0.197755,-3.743963,20.399048,-23.064491,,,,,,,
1530639970.160691,0.978859,-1.105700,-2.831482,1.207203,-0.752617,-0.490010,0.372200,0.893778,-0.250254,0.098915,-0.058817,0.269191,-3.942577,19.981247,-23.658333,,,,,,,
1530639970.180660,0.910585,-1.099515,-2.879991,0.955281,-1.610417,-0.310269,0.358620,0.890987,-0.278448,0.163948,0.057987,0.365759,-4.307928,19.252754,-24.185661,,,,,,,
1530639970.200629,0.852448,-1.096829,-2.903627,0.128361,-1.753062,-0.236351,0.343635,0.889765,-0.300389,0.322411,0.298452,0.618596,-5.128956,18.825943,-24.313522,,,,,,,
1530639970.220597,0.845362,-1.110174,-2.892613,-1.047358,-0.202871,-0.382426,0.332584,0.895776,-0.294912,0.376309,0.155326,0.636800,-5.491606,19.016876,-24.298935,,,,,,,
1530639970.240566,0.889174,-1.131968,-2.851795,-1.445894,0.335349,-0.132912,0.329940,0.905250,-0.267696,0.549363,-0.034996,0.334514,-5.374249,19.770638,-23.592743,,,,,,,
1530639970.260534,0.917257,-1.144255,-2.805629,-0.910837,-1.341118,0.265292,0.328470,0.910402,-0.251544,0.760397,0.049788,0.110614,-5.676004,20.696129,-22.965096,,,,,,,
1530639970.280503,0.927502,-1.144886,-2.763601,-0.692533,-1.110739,0.623225,0.330570,0.910663,-0.247821,0.833019,0.172772,0.313281,-6.216091,21.556725,-22.205070,,,,,,,
1530639970.300471,0.983109,-1.143569,-2.699656,-1.375198,0.484467,0.968228,0.344831,0.910118,-0.229730,0.894824,0.238594,0.751093,-6.467552,22.041756,-21.927101,,,,,,,
1530639970.320440,1.119506,-1.140676,-2.581514,-2.419752,1.978557,1.585150,0.375233,0.908916,-0.181856,0.797512,0.136159,0.910066,-5.735516,23.144836,-21.037315,,,,,,,
1530639970.340408,1.315274,-1.125177,-2.428806,-2.907557,3.481897,1.955670,0.417021,0.902344,-0.108940,0.359071,0.163864,0.523277,-4.265615,24.523849,-20.399712,,,,,,,
1530639970.360377,1.530248,-1.095461,-2.287214,-2.836899,4.800517,1.873911,0.457260,0.889139,-0.018551,0.132721,0.306509,-0.093265,-2.060825,25.886925,-19.250305,,,,,,,
1530639970.380346,1.722353,-1.059290,-2.177242,-2.618965,4.539073,1.517654,0.483880,0.872008,0.073902,0.136328,0.420183,-0.523899,0.319901,27.109177,-17.807442,,,,,,,
1530639970.400314,1.865604,-1.022801,-2.090641,-2.513061,2.618347,1.180469,0.498501,0.853571,0.151373,0.084278,0.671469,-0.728674,2.135845,28.080956,-16.344040,,,,,,,
1530639970.420283,1.948124,-0.985283,-2.018771,-2.386240,0.195626,1.119975,0.513751,0.833429,0.203609,-0.017246,0.807380,-0.776744,3.066162,29.076591,-15.144241,,,,,,,
1530639970.440251,1.965877,-0.948084,-1.968128,-1.627637,-2.025514,1.252170,0.538311,0.812300,0.224479,-0.241237,0.775011,-0.735725,3.215336,29.658081,-13.845551,,,,,,,
1530639970.460220,1.923835,-0.919082,-1.963223,-0.166586,-2.019142,1.219362,0.569143,0.795045,0.209715,-0.483998,0.547088,-0.137007,2.949821,30.295692,-13.288727,,,,,,,
1530639970.480188,1.901524,-0.903391,-1.973671,-0.004759,0.150903,0.610111,0.585407,0.785430,0.200993,-0.463291,0.313248,0.317592,3.062576,30.389984,-13.263535,,,,,,,
1530639970.500157,1.930281,-0.895139,-1.964850,-0.661764,1.425045,0.130374,0.585433,0.780296,0.220015,-0.352690,0.074272,-0.030928,3.469101,30.529366,-13.005829,,,,,,,
1530639970.520125,1.984270,-0.889526,-1.935782,-1.051540,1.655781,-0.172815,0.576709,0.776773,0.253041,-0.396136,-0.087168,-0.434285,3.548656,31.074158,-12.253799,,,,,,,
1530639970.540094,2.048203,-0.884778,-1.904213,-0.928735,2.222241,-0.200512,0.562634,0.773774,0.291061,-0.332501,-0.241410,-0.539779,3.889740,31.374298,-11.554916,,,,,,,
1530639970.560062,2.118933,-0.878600,-1.880913,-0.750095,2.830180,-0.003191,0.544727,0.769846,0.332580,-0.205066,-0.360133,-0.502990,4.380470,31.939415,-10.840378,,,,,,,
1530639970.580031,2.185552,-0.867122,-1.864480,-0.774596,2.453793,0.310180,0.528563,0.762470,0.373177,-0.093458,-0.430622,-0.487251,4.969040,31.994240,-10.345085,,,,,,,
1530639970.600000,2.226785,-0.851247,-1.854206,-0.683419,1.199665,0.476800,0.522258,0.752103,0.401980,-0.196971,-0.483731,-0.605166,5.513687,32.156456,-9.872490,,,,,,,
1530639970.619968,2.241450,-0.839910,-1.853020,-0.138082,0.494878,0.361896,0.522953,0.744583,0.414869,-0.442097,-0.464981,-0.710401,5.871368,32.296440,-9.908241,,,,,,,
1530639970.639937,2.238401,-0.841803,-1.866121,0.738844,0.240427,0.080605,0.523108,0.745845,0.412399,-0.578604,-0.449871,-0.794402,5.859997,31.963326,-10.301331,,,,,,,
1530639970.659905,2.217976,-0.860113,-1.892207,1.510364,-0.274341,-0.385242,0.520438,0.757916,0.393329,-0.689719,-0.440060,-0.795962,5.429409,31.769905,-11.248947,,,,,,,
1530639970.679874,2.175818,-0.892755,-1.925405,1.965381,-1.188529,-0.864739,0.515922,0.778803,0.356777,-0.742515,-0.441385,-0.660412,4.461216,31.570213,-12.725182,,,,,,,
1530639970.699842,2.116916,-0.931993,-1.963248,2.001635,-1.375944,-1.062321,0.509511,0.802810,0.309670,-0.678303,-0.447692,-0.125725,3.403660,30.938713,-14.216301,,,,,,,
1530639970.719811,2.116546,-0.954076,-1.968960,-0.560520,1.509444,-0.585358,0.494349,0.815779,0.300205,0.072927,-0.040099,2.650006,3.040264,30.818581,-14.582771,,,,,,,
1530639970.739780,2.158302,-0.939498,-1.922925,-1.505142,-1.338685,0.101232,0.491233,0.807262,0.327136,1.310876,0.903218,1.825543,2.707882,31.515190,-13.821022,,,,,,,
1530639970.759748,2.107820,-0.923781,-1.911143,-0.278322,-3.404111,0.681082,0.517953,0.797886,0.308385,1.137305,1.614162,-0.150045,1.834732,31.677246,-13.868507,,,,,,,
1530639970.779717,2.044230,-0.907977,-1.925941,0.141567,-1.736046,0.973691,0.547659,0.788261,0.280562,0.664988,0.795800,0.519548,1.749840,31.889153,-14.254051,,,,,,,
1530639970.799685,2.020590,-0.896782,-1.947964,0.464001,0.180567,0.608492,0.562050,0.781323,0.271358,-0.366066,-0.064938,0.454518,1.948647,31.855820,-14.761978,,,,,,,
1530639970.819654,2.001115,-0.903486,-1.959808,0.427751,-1.177017,-0.700529,0.562454,0.785489,0.258170,-0.675827,0.018817,-0.402213,1.342331,32.104088,-15.136223,,,,,,,
1530639970.839622,1.980934,-0.935004,-1.946465,0.140815,-1.364216,-2.031425,0.544568,0.804601,0.236775,-0.430661,0.360758,-0.613133,0.078453,32.186974,-15.719971,,,,,,,
1530639970.859591,1.999165,-0.967414,-1.914098,-0.350898,0.253519,-1.441367,0.516160,0.823421,0.235703,0.445251,0.541783,-0.236359,-0.934658,32.410606,-15.745621,,,,,,,
1530639970.879559,2.023650,-0.971573,-1.901649,-0.114936,0.642673,0.219991,0.507151,0.825774,0.246769,0.479589,0.085862,-0.423542,-0.804148,32.707092,-15.958717,,,,,,,
1530639970.899528,2.022807,-0.963146,-1.910759,0.120988,0.233379,0.490524,0.513601,0.820992,0.249372,-0.152852,-0.318916,-0.481001,-0.224606,32.926292,-16.073074,,,,,,,
1530639970.919497,2.015982,-0.962526,-1.917904,0.184284,-0.332696,-0.184795,0.515750,0.820637,0.246081,-0.501132,-0.247151,-0.621661,-0.116924,32.747238,-16.095100,,,,,,,
1530639970.939465,2.000717,-0.977717,-1.912005,0.158278,-1.407197,-1.084876,0.508055,0.829224,0.232956,-0.536879,-0.085449,-0.638443,-0.969273,33.027443,-16.352707,,,,,,,
1530639970.959434,1.975974,-1.004429,-1.896555,0.157505,-2.078901,-1.488241,0.493125,0.843856,0.211506,-0.369102,0.103547,-0.600559,-2.442240,33.115677,-16.686462,,,,,,,
1530639970.979402,1.945209,-1.029900,-1.883247,0.162835,-2.035127,-1.113838,0.479234,0.857247,0.188314,-0.111253,0.323112,-0.532567,-3.843029,33.264679,-16.910820,,,,,,,
1530639970.999371,1.912648,-1.042106,-1.880815,0.149567,-1.540884,-0.270065,0.475216,0.863469,0.169092,0.066716,0.343990,-0.413110,-4.806274,33.227844,-16.931358,,,,,,,
1530639971.019339,1.883579,-1.040748,-1.885464,0.035197,-1.082946,0.241347,0.481045,0.862783,0.155569,0.012149,0.130366,-0.299109,-5.202841,33.300087,-16.939789,,,,,,,
1530639971.039308,1.865470,-1.037166,-1.885813,-0.016575,-0.974380,0.028875,0.486737,0.860966,0.147730,-0.081830,0.021831,-0.220499,-5.379028,33.549072,-16.914352,,,,,,,
1530639971.059276,1.776085,-1.053912,-1.912976,1.384361,-4.557446,-1.031178,0.483798,0.869363,0.100738,-0.054477,-0.148263,-0.501876,-7.157110,33.315437,-17.170326,,,,,,,
1530639971.079245,1.627348,-1.082613,-1.977400,1.805179,-4.151227,-1.207349,0.468273,0.883186,0.026510,0.173726,-0.145912,-0.044424,-9.294308,32.539894,-17.686470,,,,,,,
1530639971.099214,1.499943,-1.102325,-2.056806,1.834739,-2.112249,-0.895841,0.450390,0.892259,-0.031965,0.222293,-0.236116,0.176420,-10.928320,31.745750,-18.427155,,,,,,,
1530639971.119182,1.397927,-1.114072,-2.142855,1.807449,-0.767246,-0.797389,0.434437,0.897502,-0.075858,0.187206,-0.335795,0.417441,-11.840946,30.968536,-19.105515,,,,,,,
1530639971.139151,1.329199,-1.121390,-2.222385,1.485206,0.672571,-0.667296,0.421813,0.900705,-0.103939,0.161469,-0.190393,0.495342,-12.187336,30.443367,-20.525986,,,,,,,
1530639971.159119,1.294569,-1.127003,-2.285537,1.132326,1.175709,-0.614728,0.413092,0.903129,-0.117101,0.087183,-0.161430,0.318212,-11.965830,29.681953,-21.524773,,,,,,,
1530639971.179088,1.258813,-1.132417,-2.343969,1.148299,0.647044,-0.631469,0.403982,0.905441,-0.130291,0.091486,-0.162857,0.137661,-11.860260,29.239609,-22.386841,,,,,,,
1530639971.199056,1.209119,-1.136694,-2.409064,1.264136,0.432116,-0.685509,0.393385,0.907248,-0.148825,0.119479,-0.142752,0.129629,-11.910667,28.913300,-23.324120,,,,,,,
1530639971.219025,1.154791,-1.140737,-2.479674,1.309889,0.516573,-0.768635,0.381365,0.908941,-0.168483,0.123594,-0.158727,0.130611,-11.612587,27.980103,-24.231956,,,,,,,
1530639971.238993,1.096543,-1.142335,-2.552128,1.335379,0.221152,-0.672188,0.369618,0.909606,-0.189735,0.148769,-0.175582,0.123085,-11.852722,27.474228,-25.084953,,,,,,,
1530639971.258962,1.028062,-1.139361,-2.619750,1.272165,-0.758205,-0.483181,0.358083,0.908367,-0.215979,0.222224,-0.041973,0.151495,-12.157692,26.745110,-26.010811,,,,,,,
1530639971.278931,0.953001,-1.133586,-2.672330,0.919509,-1.642525,-0.294941,0.345149,0.905936,-0.245258,0.335805,0.167062,0.290927,-12.750360,26.532104,-26.270927,,,,,,,
1530639971.298899,0.900481,-1.133017,-2.696059,0.060669,-1.319832,-0.304720,0.332202,0.905695,-0.263359,0.360318,0.229498,0.498772,-13.584936,26.362526,-26.440659,,,,,,,
1530639971.318868,0.896676,-1.144297,-2.686062,-0.794618,-0.338534,-0.252041,0.323195,0.910420,-0.258227,0.348329,0.028408,0.552447,-13.998577,26.656601,-25.942017,,,,,,,
1530639971.338836,0.916329,-1.155084,-2.651771,-0.846227,-0.917722,0.176049,0.320397,0.914829,-0.245833,0.545891,0.069790,0.357070,-13.945175,27.197060,-25.964188,,,,,,,
1530639971.358805,0.929356,-1.158313,-2.609992,-0.787639,-1.259701,0.458503,0.321204,0.916128,-0.239870,0.650858,0.178293,0.383150,-14.199648,28.295929,-25.343750,,,,,,,
1530639971.378773,0.969670,-1.162818,-2.550801,-1.344313,-0.243386,0.541599,0.327203,0.917925,-0.224393,0.767631,0.270903,0.629743,-13.809484,29.212929,-24.626328,,,,,,,
1530639971.398742,1.073002,-1.169303,-2.450891,-2.131269,1.016908,0.952969,0.343366,0.920478,-0.186600,0.924181,0.224251,0.801300,-12.796352,30.642128,-23.967728,,,,,,,
1530639971.418711,1.240482,-1.164524,-2.307959,-2.651502,2.387156,1.574493,0.373824,0.918600,-0.128175,0.704133,0.016519,0.605440,-10.528561,32.085190,-23.051025,,,,,,,
1530639971.438679,1.457586,-1.141947,-2.153535,-2.841058,4.684618,1.872317,0.413163,0.909445,-0.046975,0.330597,0.101099,0.288186,-7.197733,33.978729,-21.763336,,,,,,,
1530639971.458648,1.685876,-1.105029,-2.023824,-2.785200,5.846355,1.809378,0.446138,0.893477,0.051569,0.316405,0.226991,-0.325175,-2.893316,35.640671,-20.284584,,,,,,,
1530639971.478616,1.881433,-1.059787,-1.926391,-2.660256,4.956320,1.684039,0.465651,0.872251,0.149488,0.348680,0.475985,-0.609235,1.071995,37.046402,-17.956642,,,,,,,
1530639971.498585,1.998009,-1.011625,-1.861844,-2.221888,1.713225,1.632448,0.482806,0.847695,0.219798,0.271451,0.826209,-0.883449,4.100647,37.972771,-15.980820,,,,,,,
1530639971.518553,2.016238,-0.967410,-1.823981,-1.710121,-2.043521,1.465426,0.512064,0.823419,0.244483,0.018927,0.990363,-0.923926,5.772774,38.415108,-14.231346,,,,,,,
1530639971.538522,1.962339,-0.932702,-1.802481,-0.919699,-4.083722,1.291854,0.550587,0.803232,0.227315,-0.302769,0.798513,-0.661442,6.562729,38.415001,-13.372765,,,,,,,
1530639971.558491,1.901227,-0.907007,-1.810316,0.060598,-1.336092,1.248271,0.582776,0.787663,0.199896,-0.492261,0.374339,0.356501,7.122818,38.411339,-12.950661,,,,,,,
1530639971.578459,1.911420,-0.887428,-1.819442,-0.234500,1.782101,0.837207,0.595132,0.775450,0.210938,-0.379220,0.119172,0.334747,8.441059,38.277573,-12.581223,,,,,,,
1530639971.598428,1.962488,-0.873918,-1.808650,-0.706532,2.190910,0.328675,0.593217,0.766850,0.245019,-0.433854,-0.012165,-0.350381,9.955448,38.257706,-11.651947,,,,,,,
1530639971.618396,2.021298,-0.866063,-1.789777,-0.649395,2.302410,0.006126,0.583196,0.761784,0.282077,-0.443288,-0.190373,-0.585528,10.933304,38.343224,-10.729431,,,,,,,
1530639971.638365,2.083188,-0.864042,-1.778107,-0.198736,2.904664,-0.104703,0.565973,0.760473,0.318361,-0.366846,-0.327963,-0.607409,11.780136,38.319008,-9.354774,,,,,,,
1530639971.658333,2.147415,-0.864601,-1.778805,0.111082,3.344817,0.085015,0.544017,0.760836,0.353799,-0.194819,-0.404849,-0.505136,12.764839,38.367584,-8.167000,,,,,,,
1530639971.678302,2.201307,-0.860337,-1.785490,0.004709,2.569808,0.417834,0.526784,0.758063,0.384499,-0.048040,-0.412466,-0.450569,13.769547,38.374481,-6.971855,,,,,,,
1530639971.698270,2.230001,-0.852594,-1.795474,0.088166,1.410101,0.499785,0.520161,0.752990,0.403037,-0.190647,-0.416793,-0.601630,14.581982,38.432861,-6.206161,,,,,,,
,,,,,,,,,,,,,,,,39.779249,-84.064337,292.343689,-1.000000,-1.000000,1530639971.679731,
1530639971.718239,2.239648,-0.852042,-1.810275,0.584729,0.908709,0.187929,0.516574,0.752627,0.408293,-0.473453,-0.364046,-0.720931,15.242275,38.260132,-5.615059,,,,,,,
1530639971.738208,2.236734,-0.866166,-1.832630,1.258832,0.530974,-0.294553,0.509352,0.761851,0.400179,-0.606139,-0.364344,-0.802508,15.592205,38.169891,-5.894241,,,,,,,
1530639971.758176,2.216450,-0.895661,-1.858700,1.701152,-0.406705,-0.888352,0.499194,0.780622,0.376077,-0.734698,-0.362898,-0.771723,15.362900,38.110710,-6.834061,,,,,,,
