timestamp(unix),attitude_roll(radians),attitude_pitch(radians),attitude_yaw(radians),rotation_rate_x(radians/s),rotation_rate_y(radians/s),rotation_rate_z(radians/s),gravity_x(G),gravity_y(G),gravity_z(G),user_acc_x(G),user_acc_y(G),user_acc_z(G),magnetic_field_x(microteslas),magnetic_field_y(microteslas),magnetic_field_z(microteslas),latitude(degree),longitude(degree),altitude(meter),speed(m/s),course(degree),timestamp(unix),User Mark
1530640048.477457,0.037231,0.534308,0.127714,0.225324,-0.274268,-0.334911,0.032034,-0.509245,-0.860024,-0.030157,0.041091,-0.035942,18.613350,-16.474419,-42.517807,,,,,,,
,,,,,,,,,,,,,,,,39.779088,-84.063356,290.775356,0.610000,134.296875,1530640043.000022,
,,,,,,,,,,,,,,,,39.779088,-84.063356,290.775356,0.610000,134.296875,1530640048.461340,
1530640048.497426,0.033975,0.537468,0.119412,0.132590,-0.402697,-0.276301,0.029180,-0.511962,-0.858511,0.006175,-0.007569,0.014746,18.594555,-16.586754,-42.316864,,,,,,,
1530640048.517395,0.027043,0.538230,0.111917,0.004720,-0.542820,-0.281005,0.023216,-0.512617,-0.858303,-0.006951,-0.022356,0.012004,18.371048,-16.708061,-42.358765,,,,,,,
1530640048.537364,0.019587,0.536874,0.103606,-0.079791,-0.539114,-0.334014,0.016830,-0.511452,-0.859146,-0.037384,-0.016761,-0.011673,17.914398,-16.377182,-42.778320,,,,,,,
1530640048.557332,0.013083,0.535206,0.094109,-0.048065,-0.526756,-0.366644,0.011253,-0.510018,-0.860089,-0.055015,-0.011283,-0.055667,17.494617,-16.093346,-42.823334,,,,,,,
1530640048.577301,0.009199,0.535086,0.084163,0.021102,-0.393219,-0.364582,0.007913,-0.509915,-0.860187,-0.029855,0.029172,-0.013470,17.261600,-15.962364,-42.971436,,,,,,,
1530640048.597270,0.002871,0.535062,0.075782,-0.028996,-0.556193,-0.261300,0.002470,-0.509895,-0.860232,0.000597,0.035835,-0.030576,17.039776,-15.958672,-43.125168,,,,,,,
1530640048.617239,-0.007973,0.533583,0.071231,-0.118612,-0.627020,-0.071943,-0.006865,-0.508622,-0.860962,0.017332,0.009751,-0.032471,16.528561,-15.801956,-43.418839,,,,,,,
1530640048.637208,-0.018396,0.526857,0.072980,-0.450665,-0.360967,0.261833,-0.015900,-0.502819,-0.864244,-0.005981,-0.004368,0.049089,16.098866,-15.629753,-43.660889,,,,,,,
1530640048.657177,-0.027808,0.516815,0.081020,-0.444002,-0.051077,0.466019,-0.024173,-0.494113,-0.869060,-0.026150,-0.064023,0.004131,15.619057,-15.144447,-43.904861,,,,,,,
1530640048.677145,-0.028138,0.512013,0.089455,-0.074107,0.290622,0.363417,-0.024526,-0.489934,-0.871414,-0.045786,-0.080898,-0.045670,15.741734,-15.065155,-44.026825,,,,,,,
1530640048.697114,-0.024917,0.514358,0.093553,0.194763,0.235464,0.185564,-0.021691,-0.491976,-0.870337,-0.049903,0.095980,-0.070428,15.851158,-15.311882,-43.693069,,,,,,,
1530640048.717083,-0.026992,0.517966,0.096914,0.161621,0.006387,0.268937,-0.023448,-0.495114,-0.868510,-0.080540,0.119061,0.001247,15.764793,-15.586838,-43.728668,,,,,,,
1530640048.737052,-0.028754,0.520921,0.104218,0.155514,0.197770,0.370228,-0.024936,-0.497679,-0.867002,-0.045742,0.024642,0.094800,15.771721,-15.773148,-43.415741,,,,,,,
1530640048.757021,-0.023044,0.525722,0.104454,0.275891,0.368714,-0.250380,-0.019930,-0.501837,-0.864731,-0.059584,-0.032709,0.019700,16.231899,-15.960976,-43.193069,,,,,,,
1530640048.776989,-0.008104,0.531272,0.084513,0.251389,0.291822,-1.102526,-0.006987,-0.506630,-0.862134,-0.086778,-0.039726,-0.016452,16.774960,-16.086021,-43.231964,,,,,,,
1530640048.796958,0.017508,0.533066,0.054475,0.007354,0.760086,-1.279935,0.015078,-0.508176,-0.861120,-0.087771,-0.006076,0.097128,17.848885,-15.782524,-42.911331,,,,,,,
1530640048.816927,0.050075,0.527978,0.024950,-0.307087,0.922839,-1.174411,0.043238,-0.503788,-0.862744,-0.014841,0.070377,0.113324,18.871323,-15.293716,-42.787384,,,,,,,
1530640048.836896,0.074760,0.521860,0.001646,-0.136647,0.488881,-0.846141,0.064749,-0.498494,-0.864471,0.070185,0.070118,-0.021561,19.630268,-14.694061,-42.803787,,,,,,,
1530640048.856865,0.084879,0.524867,-0.016420,0.414912,-0.206703,-0.695757,0.073366,-0.501098,-0.862274,0.034941,0.043853,-0.154343,19.839874,-14.692169,-42.376923,,,,,,,
1530640048.876833,0.087291,0.534871,-0.036429,0.564886,-0.328407,-0.823048,0.075004,-0.509730,-0.857058,0.004098,0.089137,0.019503,19.729538,-14.675980,-42.348969,,,,,,,
1530640048.896802,0.091199,0.540281,-0.058240,0.212837,-0.364469,-0.859376,0.078101,-0.514377,-0.853999,0.025552,0.020511,0.049846,19.790802,-14.629959,-42.811386,,,,,,,
1530640048.916771,0.093695,0.540966,-0.078409,0.090450,-0.350707,-0.768485,0.080199,-0.514964,-0.853451,0.030366,0.013164,-0.004383,19.737041,-14.555687,-42.549011,,,,,,,
1530640048.936740,0.094076,0.542056,-0.094993,0.124642,-0.434767,-0.586986,0.080471,-0.515898,-0.852861,0.062977,0.009413,-0.073165,19.571915,-14.210175,-42.611679,,,,,,,
1530640048.956709,0.089912,0.543690,-0.108303,0.135409,-0.569018,-0.489605,0.076843,-0.517297,-0.852348,0.047165,0.016031,-0.073846,19.401058,-14.007057,-42.464050,,,,,,,
1530640048.976677,0.081164,0.545196,-0.121666,0.090897,-0.901954,-0.552206,0.069321,-0.518585,-0.852210,-0.006348,0.036896,0.000266,18.767410,-13.976776,-43.144302,,,,,,,
1530640048.996646,0.069315,0.543794,-0.138394,-0.078561,-0.962475,-0.731887,0.059269,-0.517386,-0.853696,0.025402,0.026267,0.056027,18.089947,-13.539459,-43.297653,,,,,,,
1530640049.016615,0.065316,0.539558,-0.156458,-0.220451,-0.444876,-0.705228,0.055997,-0.513757,-0.856105,0.048190,-0.003791,0.038890,17.816563,-13.244019,-43.693024,,,,,,,
1530640049.036584,0.068349,0.532034,-0.170181,-0.402842,-0.039116,-0.467286,0.058856,-0.507287,-0.859764,0.068784,0.013040,0.003150,17.744305,-12.839706,-43.768066,,,,,,,
1530640049.056553,0.073851,0.522982,-0.178049,-0.408819,0.165842,-0.253767,0.063921,-0.499466,-0.863971,0.050352,0.037033,-0.052441,17.911777,-12.282570,-43.920135,,,,,,,
1530640049.076521,0.078269,0.516930,-0.183038,-0.208160,0.050368,-0.166946,0.067973,-0.494214,-0.866678,0.045919,0.026639,-0.099951,17.945557,-11.880310,-43.713287,,,,,,,
1530640049.096490,0.077492,0.515473,-0.188284,0.013502,-0.272872,-0.207541,0.067355,-0.492946,-0.867447,0.020825,0.006359,-0.091308,17.928562,-11.895027,-44.072861,,,,,,,
1530640049.116459,0.070858,0.516568,-0.195807,0.096265,-0.603311,-0.317868,0.061561,-0.493899,-0.867336,-0.005836,0.008563,-0.026493,17.580910,-11.838852,-44.135605,,,,,,,
1530640049.136429,0.061300,0.518784,-0.205634,0.162943,-0.717639,-0.390314,0.053201,-0.495825,-0.866790,-0.007211,0.006231,-0.023987,17.105701,-11.903831,-44.250595,,,,,,,
1530640049.156398,0.052265,0.522637,-0.215349,0.246323,-0.636398,-0.329336,0.045267,-0.499167,-0.865321,0.012213,0.026236,-0.038838,16.593178,-11.925873,-44.555267,,,,,,,
1530640049.176366,0.043518,0.527490,-0.222358,0.272423,-0.565630,-0.187983,0.037591,-0.503366,-0.863254,0.037940,0.044000,-0.030515,16.095413,-11.949417,-44.623230,,,,,,,
1530640049.196335,0.034671,0.533070,-0.226742,0.301138,-0.496630,-0.110305,0.029855,-0.508179,-0.860732,0.006156,0.049332,-0.017853,15.826237,-12.363083,-44.773056,,,,,,,
1530640049.216304,0.028306,0.538485,-0.231433,0.248223,-0.341558,-0.183406,0.024297,-0.512836,-0.858142,-0.044531,0.042773,0.025805,15.503670,-12.416550,-44.851822,,,,,,,
1530640049.236273,0.028550,0.540404,-0.239257,0.024012,-0.078748,-0.343687,0.024478,-0.514483,-0.857150,-0.077320,0.046328,0.101733,15.240200,-12.284508,-44.744537,,,,,,,
1530640049.256242,0.033289,0.537554,-0.250192,-0.203610,0.009389,-0.467024,0.028589,-0.512037,-0.858486,-0.074030,0.051053,0.103939,15.552925,-12.298309,-44.677063,,,,,,,
1530640049.276210,0.040921,0.529981,-0.262565,-0.417316,0.116743,-0.496578,0.035297,-0.505517,-0.862093,-0.053287,0.015252,0.104723,15.643932,-11.661926,-44.835098,,,,,,,
1530640049.296179,0.046562,0.520404,-0.273038,-0.478022,-0.014312,-0.379006,0.040383,-0.497231,-0.866676,0.034614,-0.043830,0.035118,15.776203,-11.062027,-44.930969,,,,,,,
1530640049.316148,0.048007,0.510925,-0.279688,-0.441795,-0.056470,-0.190855,0.041860,-0.488984,-0.871286,0.067759,-0.064192,0.004144,15.838264,-10.604927,-45.104965,,,,,,,
1530640049.336117,0.047355,0.503743,-0.281624,-0.294402,-0.061117,-0.004788,0.041457,-0.482707,-0.874799,0.052293,-0.047002,-0.048862,15.774975,-10.192329,-45.123138,,,,,,,
1530640049.356086,0.045479,0.501892,-0.282858,0.018463,-0.109491,-0.048264,0.039856,-0.481085,-0.875766,-0.015213,0.042654,-0.097485,15.614605,-10.369820,-45.069534,,,,,,,
1530640049.376055,0.043556,0.504161,-0.286728,0.122178,-0.199260,-0.161967,0.038125,-0.483073,-0.874749,-0.041588,0.046900,-0.051216,15.533691,-10.446770,-45.266205,,,,,,,
1530640049.396023,0.041637,0.504943,-0.292785,-0.046274,-0.271753,-0.206894,0.036430,-0.483757,-0.874442,-0.026283,0.034768,0.029655,15.379921,-10.423981,-45.451920,,,,,,,
1530640049.415992,0.036925,0.500685,-0.296280,-0.270784,-0.239526,-0.067375,0.032386,-0.480027,-0.876654,0.043496,0.047990,0.028327,15.199757,-10.251518,-45.493347,,,,,,,
1530640049.435961,0.034434,0.494979,-0.297317,-0.270465,-0.085573,0.018572,0.030295,-0.475013,-0.879456,0.043069,-0.029610,-0.041961,15.103630,-9.989662,-45.604416,,,,,,,
1530640049.455930,0.032218,0.490002,-0.296812,-0.221631,-0.053953,0.073204,0.028422,-0.470628,-0.881873,0.056264,-0.057906,-0.049951,14.868729,-9.439667,-45.603912,,,,,,,
1530640049.475899,0.029986,0.486514,-0.296300,-0.143706,-0.091244,0.034448,0.026502,-0.467547,-0.883569,0.032168,-0.031125,-0.064352,14.997829,-9.492867,-45.542725,,,,,,,
1530640049.495867,0.029172,0.484641,-0.298162,-0.054718,-0.038616,-0.077335,0.025809,-0.465891,-0.884465,-0.031012,0.032739,-0.073452,14.957466,-9.626526,-45.594727,,,,,,,
1530640049.515836,0.030514,0.484956,-0.301329,0.061770,0.038709,-0.090072,0.026991,-0.466170,-0.884282,-0.002318,0.023863,-0.074473,14.792992,-9.437347,-45.551163,,,,,,,
1530640049.535805,0.032228,0.487099,-0.303892,0.109605,0.053808,-0.040895,0.028475,-0.468065,-0.883234,0.023298,0.011598,-0.028921,14.895554,-9.504402,-45.714905,,,,,,,
1530640049.555774,0.032867,0.488557,-0.305158,0.042183,-0.008261,-0.001650,0.029016,-0.469352,-0.882533,0.019476,0.003395,0.011470,14.895191,-9.631287,-45.782333,,,,,,,
1530640049.575743,0.031677,0.488344,-0.306584,-0.022611,-0.109630,-0.026251,0.027970,-0.469164,-0.882667,-0.007859,0.028872,0.009605,14.935898,-9.625954,-45.784805,,,,,,,
1530640049.595712,0.029695,0.487619,-0.309451,-0.023896,-0.128813,-0.125554,0.026231,-0.468524,-0.883060,-0.040208,-0.013654,0.000751,14.836136,-9.675835,-45.760727,,,,,,,
1530640049.615680,0.030024,0.486812,-0.313723,-0.039540,-0.023844,-0.138906,0.026532,-0.467810,-0.883429,0.002734,-0.023599,0.021613,14.857143,-9.660538,-45.942871,,,,,,,
1530640049.635649,0.030758,0.485623,-0.316984,-0.064106,-0.035257,-0.083692,0.027197,-0.466759,-0.883965,0.009775,-0.013511,0.020943,14.965927,-9.563713,-45.963562,,,,,,,
1530640049.655618,0.031317,0.484340,-0.320175,-0.051237,-0.006313,-0.119280,0.027711,-0.465624,-0.884547,-0.030564,0.008135,0.003032,14.838825,-9.370995,-45.616455,,,,,,,
1530640049.675587,0.032333,0.482850,-0.324495,-0.090759,-0.033624,-0.158898,0.028632,-0.464305,-0.885211,-0.037390,0.004069,0.003101,14.669689,-9.262642,-45.755630,,,,,,,
,,,,,,,,,,,,,,,,39.779050,-84.063305,291.320950,0.330000,-1.000000,1530640049.099003,
1530640049.695556,0.032471,0.480328,-0.328701,-0.146510,-0.069083,-0.136904,0.028792,-0.462070,-0.886375,-0.002471,0.008060,0.020713,14.885258,-9.081688,-45.632782,,,,,,,
1530640049.715524,0.033448,0.477330,-0.331871,-0.161677,0.036506,-0.080153,0.029704,-0.459409,-0.887727,0.011221,0.004041,0.034028,14.775673,-8.880440,-45.687271,,,,,,,
1530640049.735493,0.035348,0.473304,-0.333985,-0.224849,0.081579,-0.050139,0.031456,-0.455829,-0.889510,-0.002785,0.004459,0.038680,14.934399,-8.816681,-45.931305,,,,,,,
1530640049.755462,0.037222,0.468646,-0.335572,-0.222856,0.083697,-0.037205,0.033201,-0.451679,-0.891562,-0.006788,0.004138,0.027151,15.064602,-8.572281,-45.804352,,,,,,,
1530640049.775431,0.038672,0.465466,-0.338103,-0.118380,0.006936,-0.116347,0.034549,-0.448839,-0.892943,-0.047031,0.006075,-0.032136,15.011833,-8.348755,-45.650940,,,,,,,
1530640049.795400,0.038717,0.464526,-0.343010,0.002987,-0.160273,-0.206888,0.034605,-0.447999,-0.893363,-0.049879,0.014222,-0.051705,14.898853,-8.279152,-45.675323,,,,,,,
1530640049.815368,0.035478,0.465590,-0.347951,0.069587,-0.295433,-0.140301,0.031695,-0.448950,-0.892993,0.009092,0.046912,-0.023923,14.726391,-8.186958,-45.901901,,,,,,,
1530640049.835337,0.031964,0.466993,-0.351922,0.067319,-0.177437,-0.122453,0.028537,-0.450204,-0.892469,-0.017199,0.008492,0.029721,14.608101,-8.361458,-45.844421,,,,,,,
1530640049.855306,0.032328,0.465877,-0.353016,-0.168369,0.182122,0.094267,0.028877,-0.449206,-0.892960,0.037315,-0.019315,0.095567,14.631912,-8.250191,-45.865295,,,,,,,
1530640049.875275,0.037633,0.456697,-0.347708,-0.642193,0.521813,0.322052,0.033768,-0.440986,-0.896877,0.033370,-0.043160,0.142696,14.824116,-8.122307,-45.899490,,,,,,,
1530640049.895244,0.045835,0.440556,-0.341718,-0.868919,0.554614,0.218932,0.041443,-0.426442,-0.903564,-0.016129,-0.014628,0.045150,15.307636,-7.595528,-46.137421,,,,,,,
1530640049.915213,0.053641,0.425228,-0.339054,-0.670619,0.408680,0.081299,0.048841,-0.412528,-0.909634,-0.020765,0.015983,-0.091709,15.738987,-6.770378,-46.060165,,,,,,,
1530640049.935181,0.059758,0.417124,-0.338359,-0.248729,0.293993,0.043893,0.054602,-0.405133,-0.912625,0.007593,0.037640,-0.147067,16.031357,-6.343803,-45.950806,,,,,,,
1530640049.955150,0.062025,0.417383,-0.338256,0.153969,0.023365,0.049078,0.056664,-0.405369,-0.912394,0.032295,0.032811,-0.120809,16.389862,-6.581886,-45.820724,,,,,,,
1530640049.975119,0.059302,0.423339,-0.339734,0.347535,-0.219083,-0.019944,0.054035,-0.410807,-0.910119,-0.001377,0.014567,-0.046104,16.017754,-6.683426,-45.737793,,,,,,,
1530640049.995088,0.054963,0.429513,-0.343156,0.268819,-0.266806,-0.139048,0.049945,-0.416428,-0.907795,-0.042072,0.005005,0.039616,15.830669,-6.859253,-45.830017,,,,,,,
1530640050.015057,0.052933,0.431530,-0.348117,0.004926,-0.126180,-0.188410,0.048058,-0.418261,-0.907054,-0.033226,0.005419,0.092265,15.748413,-7.014748,-45.895859,,,,,,,
1530640050.035026,0.053675,0.428428,-0.352323,-0.215808,0.003739,-0.128266,0.048801,-0.415441,-0.908309,0.003308,-0.001246,0.089004,15.879784,-6.789940,-46.005066,,,,,,,
1530640050.054994,0.054147,0.423578,-0.354669,-0.222655,-0.025438,-0.059305,0.049338,-0.411025,-0.910287,0.023431,0.005080,0.035486,15.793064,-6.514992,-45.927277,,,,,,,
1530640050.074963,0.052286,0.420437,-0.356563,-0.111459,-0.177809,-0.060149,0.047711,-0.408159,-0.911662,0.003391,0.003161,0.021724,15.666836,-6.346008,-46.019012,,,,,,,
1530640050.094932,0.047483,0.418271,-0.359111,-0.156326,-0.291326,-0.085024,0.043374,-0.406181,-0.912762,-0.024407,0.004921,0.069653,15.479618,-6.214073,-46.047729,,,,,,,
1530640050.114901,0.042722,0.411035,-0.360070,-0.529730,-0.192792,0.051013,0.039152,-0.399558,-0.915871,-0.011793,-0.003854,0.131004,15.220032,-5.847595,-46.154221,,,,,,,
1530640050.134869,0.038838,0.395100,-0.355729,-0.954458,-0.020001,0.306593,0.035837,-0.384900,-0.922262,0.022940,0.006620,0.108754,15.234394,-5.282455,-46.429886,,,,,,,
1530640050.154838,0.036838,0.374677,-0.346730,-1.037599,0.134563,0.467846,0.034275,-0.365972,-0.929994,-0.008533,0.019567,0.020418,15.323040,-4.489128,-46.382996,,,,,,,
1530640050.174806,0.035889,0.357633,-0.337065,-0.728079,0.113622,0.448268,0.033611,-0.350058,-0.936124,-0.075573,0.058981,-0.064227,15.223915,-3.612190,-46.115112,,,,,,,
1530640050.194775,0.032170,0.349864,-0.329012,-0.200992,-0.143246,0.373458,0.030216,-0.342770,-0.938933,-0.124698,0.072919,-0.065447,15.152760,-3.448311,-46.588165,,,,,,,
1530640050.214744,0.022377,0.350716,-0.323696,0.124235,-0.551965,0.237518,0.021013,-0.343571,-0.938891,-0.155534,0.066898,0.076876,14.705746,-3.815613,-46.627411,,,,,,,
1530640050.234713,0.005320,0.352476,-0.321994,0.006163,-0.921653,0.065507,0.004993,-0.345222,-0.938507,-0.163334,0.043144,0.253800,13.870716,-3.864380,-46.725754,,,,,,,
1530640050.254682,-0.013851,0.347183,-0.322716,-0.442031,-0.966239,-0.010814,-0.013024,-0.340250,-0.940244,-0.187370,0.053339,0.351102,12.963631,-3.384583,-46.947891,,,,,,,
1530640050.274651,-0.034221,0.334071,-0.323953,-0.745382,-1.092250,0.027401,-0.032322,-0.327892,-0.944162,-0.194042,0.100445,0.350366,11.939079,-2.785294,-47.434448,,,,,,,
1530640050.294619,-0.063297,0.319781,-0.323445,-0.627773,-1.736737,0.152460,-0.060048,-0.314359,-0.947403,-0.191340,0.185254,0.347107,10.546352,-2.413368,-47.551422,,,,,,,
1530640050.314588,-0.117141,0.313356,-0.321265,-0.099808,-3.239185,0.129879,-0.111182,-0.308253,-0.944785,-0.232354,0.215815,0.340109,7.766865,-2.140327,-48.165985,,,,,,,
1530640050.334557,-0.192858,0.310584,-0.326086,-0.394926,-4.048531,-0.309828,-0.182495,-0.305615,-0.934502,-0.384598,0.223339,0.506463,4.124428,-1.838631,-48.334930,,,,,,,
1530640050.354526,-0.270878,0.289664,-0.340209,-1.621039,-4.144376,-0.279966,-0.256430,-0.285631,-0.923395,-0.278742,0.353090,0.714670,0.160831,-0.739204,-48.359131,,,,,,,
1530640050.374495,-0.353759,0.255019,-0.350249,-1.653506,-4.452410,0.366009,-0.335222,-0.252264,-0.907738,-0.196226,0.453467,0.217018,-3.889872,0.749931,-48.118317,,,,,,,
1530640050.394464,-0.456169,0.234836,-0.345700,-0.206149,-5.539615,0.754093,-0.428421,-0.232684,-0.873105,-0.061859,0.490908,-0.042087,-8.779310,1.280579,-47.426880,,,,,,,
1530640050.414432,-0.593723,0.234942,-0.323893,0.820846,-7.300058,1.140177,-0.544080,-0.232787,-0.806092,0.050321,0.482878,0.043671,-14.703072,0.741341,-45.660995,,,,,,,
1530640050.434401,-0.764463,0.226101,-0.285450,0.957151,-8.430116,2.199929,-0.674532,-0.224180,-0.703382,0.152330,0.606992,0.061476,-21.743979,0.446831,-42.661621,,,,,,,
1530640050.454370,-0.942957,0.203755,-0.226749,1.867733,-8.094082,3.050345,-0.792555,-0.202348,-0.575245,0.203611,0.644456,-0.169994,-28.419258,0.455063,-38.340317,,,,,,,
1530640050.474339,-1.115092,0.169215,-0.150701,2.581200,-7.848917,3.641420,-0.885123,-0.168409,-0.433808,0.219382,0.637251,-0.077118,-34.146236,0.441254,-33.277359,,,,,,,
1530640050.494308,-1.282582,0.114031,-0.073560,2.567214,-7.765549,4.197411,-0.952522,-0.113784,-0.282393,0.249138,0.615203,0.080565,-39.034988,1.282448,-27.660690,,,,,,,
1530640050.514276,-1.437916,0.035607,-0.006493,2.525966,-7.345416,4.744528,-0.990551,-0.035599,-0.132405,0.171948,0.555939,0.002690,-42.793861,3.017853,-21.765388,,,,,,,
1530640050.534245,-1.571361,-0.060197,0.052364,2.813389,-6.238476,5.091925,-0.998183,0.060160,0.000564,-0.027070,0.494802,-0.226745,-45.315353,5.615730,-16.015892,,,,,,,
1530640050.554214,-1.671200,-0.165614,0.109017,3.320647,-4.679896,5.089722,-0.981344,0.164858,0.098863,-0.234064,0.342939,-0.376848,-46.472137,8.624832,-11.253357,,,,,,,
1530640050.574183,-1.725912,-0.270469,0.162711,3.141054,-2.556410,4.684493,-0.952070,0.267183,0.148876,-0.538164,0.140974,-0.085186,-46.670303,11.740288,-8.513802,,,,,,,
1530640050.594152,-1.744728,-0.363898,0.197705,2.014047,-0.880605,4.090913,-0.920411,0.355920,0.161722,-0.740966,-0.144814,0.090765,-46.230324,14.707214,-7.161049,,,,,,,
1530640050.614121,-1.745473,-0.439598,0.218285,1.475439,-0.375689,3.256764,-0.891146,0.425576,0.157265,-0.850828,-0.374489,-0.037789,-45.768200,16.982452,-7.078308,,,,,,,
1530640050.634089,-1.748759,-0.501997,0.241341,1.704280,-0.978159,2.728333,-0.862772,0.481177,0.155183,-0.830724,-0.468298,-0.263734,-45.184082,18.897369,-6.625587,,,,,,,
1530640050.654058,-1.760507,-0.558257,0.280936,2.508489,-1.932220,2.251394,-0.832956,0.529708,0.159944,-1.002600,-0.608200,-0.417513,-44.986923,20.363037,-6.094879,,,,,,,
1530640050.674027,-1.768165,-0.600806,0.343553,3.226491,-2.040657,1.136650,-0.808859,0.565307,0.161749,-1.333581,-0.666381,-0.170584,-44.937462,21.226181,-5.377609,,,,,,,
1530640050.693996,-1.754605,-0.614266,0.418941,2.863388,-1.185870,-0.653251,-0.803424,0.576359,0.149362,-1.621945,-0.797275,0.340598,-45.176567,20.936279,-4.878616,,,,,,,
1530640050.713965,-1.741498,-0.592236,0.473109,1.465353,-0.621074,-1.804739,-0.817630,0.558217,0.140943,-1.281125,-0.786092,0.677600,-45.739071,19.317062,-4.921265,,,,,,,
1530640050.733934,-1.731363,-0.553307,0.498605,0.326421,0.018966,-2.196109,-0.839841,0.525504,0.136022,-0.802416,-0.608557,0.710444,-46.265560,17.555031,-4.940582,,,,,,,
1530640050.753902,-1.723592,-0.514581,0.492852,-1.267277,0.932780,-1.608486,-0.860352,0.492170,0.132490,-0.205078,-0.376966,0.950166,-46.452236,15.999664,-5.343643,,,,,,,
1530640050.773871,-1.716551,-0.481150,0.452456,-2.278329,1.513073,-1.347922,-0.877057,0.462799,0.128748,-0.029742,-0.282990,0.777975,-46.622322,14.953934,-6.389244,,,,,,,
1530640050.793840,-1.711374,-0.440689,0.411859,-1.699092,0.583578,-2.014322,-0.895530,0.426563,0.126727,-0.400780,-0.385959,0.054212,-46.737770,13.982285,-7.076942,,,,,,,
1530640050.813809,-1.727393,-0.396924,0.396892,-0.570034,-0.885764,-2.063649,-0.910964,0.386583,0.143831,-0.102174,-0.167665,-0.317888,-46.986866,12.701859,-6.613419,,,,,,,
1530640050.833778,-1.730876,-0.355359,0.406897,0.429587,0.090148,-2.118137,-0.925530,0.347927,0.149437,0.200508,0.192387,0.061973,-47.245228,11.137627,-6.595451,,,,,,,
1530640050.853747,-1.725135,-0.325603,0.422458,0.456475,-0.156218,-1.293460,-0.936190,0.319880,0.145649,0.429049,-0.001628,-0.135090,-47.252636,9.564545,-6.484467,,,,,,,
1530640050.873715,-1.724475,-0.305457,0.438599,0.799173,-0.222329,-1.008392,-0.942465,0.300729,0.145988,0.240270,0.150000,-0.175254,-47.292866,8.465439,-6.632812,,,,,,,
1530640050.893684,-1.725624,-0.295122,0.466286,1.489546,-0.667458,-0.526096,-0.945317,0.290857,0.147542,0.362477,0.151313,-0.405401,-47.194649,7.777534,-6.494095,,,,,,,
1530640050.913653,-1.729082,-0.297042,0.507049,2.227759,-0.712152,-0.004627,-0.944247,0.292693,0.150722,0.434055,0.321702,-0.409954,-47.224850,7.401482,-6.060860,,,,,,,
1530640050.933622,-1.721060,-0.313974,0.559160,2.750951,-0.152439,0.764717,-0.940391,0.308841,0.142380,0.489036,0.420087,-0.314713,-47.244171,7.488152,-5.770470,,,,,,,
1530640050.953591,-1.710568,-0.347519,0.605478,1.964453,-0.456522,1.673283,-0.931045,0.340566,0.130988,0.568435,0.392817,0.035867,-47.236149,8.096252,-5.866730,,,,,,,
1530640050.973560,-1.724146,-0.389259,0.614724,0.023742,-0.950463,2.155354,-0.914328,0.379503,0.141321,0.347311,0.249602,0.457327,-46.931778,9.675308,-5.459312,,,,,,,
1530640050.993528,-1.749938,-0.435518,0.592228,-0.821424,-0.701966,2.657376,-0.892137,0.421880,0.161551,0.151780,0.167369,0.257959,-46.718487,11.796608,-4.276047,,,,,,,
1530640051.013497,-1.770591,-0.491667,0.564239,-0.547889,-0.300551,3.182716,-0.864005,0.472096,0.174958,-0.147287,0.110195,0.030319,-46.110302,14.416595,-3.782753,,,,,,,
1530640051.033466,-1.789935,-0.556517,0.541390,-0.168387,-0.480311,3.458214,-0.828788,0.528232,0.184584,-0.490578,-0.052737,-0.199934,-45.424286,17.439133,-3.310661,,,,,,,
1530640051.053435,-1.814132,-0.623127,0.521550,0.054689,-0.844097,3.374275,-0.788128,0.583577,0.195657,-0.628437,-0.116551,-0.240502,-44.442760,20.438469,-2.704590,,,,,,,
1530640051.073404,-1.843885,-0.684634,0.505232,0.177663,-1.049904,2.958896,-0.745938,0.632389,0.208927,-0.411945,0.014080,-0.079578,-43.322845,23.172844,-1.840599,,,,,,,
1530640051.093372,-1.873704,-0.738655,0.488689,0.189106,-0.871549,2.708338,-0.705707,0.673294,0.220551,-0.118497,0.020859,0.118972,-42.076900,25.464165,-1.072868,,,,,,,
1530640051.113341,-1.899013,-0.793404,0.475446,0.585218,-0.794415,2.869497,-0.663973,0.712745,0.226105,0.197238,-0.004737,-0.002075,-40.761082,27.540794,-0.568390,,,,,,,
1530640051.133310,-1.911928,-0.863343,0.472212,1.358802,-0.323314,3.670254,-0.612443,0.760020,0.217424,0.330735,-0.229044,-0.145402,-39.198277,29.936928,-0.584450,,,,,,,
1530640051.153279,-1.907470,-0.951166,0.481749,1.899259,-0.261575,4.135028,-0.548123,0.814093,0.191842,0.435712,-0.375052,-0.223382,-36.851444,32.539185,-1.507492,,,,,,,
1530640051.173248,-1.903282,-1.039927,0.504046,2.103584,-0.953379,3.914887,-0.478546,0.862367,0.165244,0.413330,-0.484239,-0.136253,-34.455009,35.398903,-2.380455,,,,,,,
1530640051.193217,-1.893665,-1.123736,0.540771,2.190394,-1.211500,3.563274,-0.409968,0.901722,0.137165,0.343714,-0.576237,-0.024128,-30.549501,38.363617,-3.524307,,,,,,,
1530640051.213185,-1.865365,-1.203046,0.597502,2.337683,-1.184858,3.375243,-0.344020,0.933138,0.104374,0.306361,-0.662188,-0.025135,-28.133003,39.928776,-4.526161,,,,,,,
1530640051.233154,-1.801944,-1.279121,0.690115,2.505628,-1.244614,3.228644,-0.279895,0.957764,0.065875,0.255969,-0.709900,-0.089678,-25.873905,41.183128,-5.811134,,,,,,,
1530640051.253123,-1.670137,-1.351583,0.853151,2.688256,-1.322716,3.339566,-0.216372,0.976069,0.021565,0.148135,-0.498072,-0.127828,-23.256340,41.859573,-7.510658,,,,,,,
1530640051.273092,-1.413758,-1.432158,1.126517,1.924947,-0.147666,4.582887,-0.136469,0.990405,-0.021609,0.286829,0.577237,0.002001,-19.959276,43.104870,-8.814850,,,,,,,
1530640051.293061,-0.995940,-1.518407,1.550191,-0.822913,-0.666649,4.254857,-0.043895,0.998628,-0.028437,-0.148656,2.178145,-0.355032,-16.513250,44.378654,-8.208580,,,,,,,
1530640051.313030,3.133036,-1.552405,-0.571832,-2.834245,-1.544900,0.930806,0.000156,0.999831,0.018191,-0.664111,2.533632,-0.135653,-15.543423,45.414871,-6.012238,,,,,,,
1530640051.332998,-3.045883,-1.514483,-0.480032,-1.026837,1.852176,-0.638101,-0.005372,0.998415,0.055956,-0.285552,0.401579,0.763563,-15.553049,45.439716,-5.129189,,,,,,,
1530640051.352967,-2.714591,-1.510564,-0.197617,0.430491,2.454949,-0.871828,-0.024902,0.998187,0.054730,-0.021164,-0.227648,-0.003689,-15.923489,45.356300,-5.966553,,,,,,,
1530640051.372936,-2.367189,-1.511339,0.115893,0.524353,1.178348,-0.648184,-0.041505,0.998233,0.042428,0.095384,-0.384311,-0.229211,-16.324162,45.193771,-6.759277,,,,,,,
1530640051.392905,-2.230890,-1.506397,0.248882,-0.155353,-0.376832,-0.331355,-0.050787,0.997927,0.039424,0.065756,-0.389818,-0.134379,-16.528362,44.897079,-6.918427,,,,,,,
1530640051.412874,-2.351170,-1.496947,0.143220,-0.772444,-0.772983,-0.005280,-0.052392,0.997274,0.051868,0.027917,-0.016729,0.057369,-16.838037,45.054195,-6.283630,,,,,,,
1530640051.432843,-2.491983,-1.484672,0.010136,-0.782613,-0.121289,-0.060269,-0.051999,0.996294,0.068456,-0.087680,0.130858,0.208231,-16.731464,45.027489,-5.399132,,,,,,,
1530640051.452811,-2.533196,-1.470405,-0.038254,-0.685070,0.577167,-0.337280,-0.057258,0.994965,0.082204,-0.144616,0.070694,0.245311,-16.878075,44.974396,-4.998177,,,,,,,
1530640051.472780,-2.530418,-1.453061,-0.048727,-0.807461,0.650121,-0.504952,-0.067382,0.993077,0.096168,-0.140123,0.033137,0.176080,-17.123886,45.022598,-4.084557,,,,,,,
1530640051.492749,-2.531642,-1.431698,-0.060009,-0.963070,0.446458,-0.578694,-0.079404,0.990341,0.113622,-0.140322,0.044784,0.108180,-17.550451,45.022331,-3.628571,,,,,,,
1530640051.512718,-2.529521,-1.409445,-0.066378,-0.918796,0.422348,-0.606244,-0.092288,0.987011,0.131464,-0.127316,0.106571,0.035910,-18.030506,44.986008,-3.067726,,,,,,,
1530640051.532687,-2.526504,-1.387419,-0.070241,-0.940782,0.298726,-0.607687,-0.105208,0.983234,0.148910,-0.081102,0.132413,0.056077,-18.349094,44.783295,-2.390091,,,,,,,
1530640051.552656,-2.528262,-1.364063,-0.076441,-1.020236,0.209526,-0.635309,-0.118136,0.978707,0.167834,-0.065992,0.096351,0.073530,-18.766533,44.683605,-2.036995,,,,,,,
1530640051.572624,-2.527669,-1.339780,-0.080684,-1.008404,0.289271,-0.673880,-0.131891,0.973434,0.187139,-0.086264,0.036942,0.030512,-19.116774,44.595634,-1.048500,,,,,,,
1530640051.592593,-2.518813,-1.316620,-0.078772,-0.881359,0.378795,-0.695295,-0.146657,0.967871,0.204225,-0.121654,0.035730,0.055587,-19.724607,44.330330,-0.453384,,,,,,,
1530640051.612562,-2.506793,-1.295470,-0.070173,-0.742589,-0.023956,-0.727835,-0.161207,0.962337,0.218885,-0.085528,0.107091,0.157336,-20.269594,44.413147,0.097824,,,,,,,
1530640051.632531,-2.513159,-1.276038,-0.061157,-0.691838,-1.203696,-0.620821,-0.170773,0.956872,0.234992,0.096630,0.056510,0.008996,-20.696201,44.120766,1.137718,,,,,,,
1530640051.652500,-2.540553,-1.261190,-0.056332,-0.471153,-1.657834,-0.409663,-0.172288,0.952454,0.251272,0.094163,-0.057068,-0.254309,-21.091930,44.265686,2.116447,,,,,,,
1530640051.672469,-2.560484,-1.251534,-0.051249,-0.327468,-0.862697,-0.302742,-0.172288,0.949467,0.262332,-0.042388,-0.161168,-0.223101,-21.246511,43.802254,2.687126,,,,,,,
1530640051.692438,-2.562849,-1.241002,-0.049208,-0.514104,0.089127,-0.329598,-0.177126,0.946109,0.271095,-0.138075,-0.113117,-0.000678,-21.379234,43.921349,3.325241,,,,,,,
1530640051.712406,-2.562943,-1.227108,-0.052693,-0.633689,0.096862,-0.325048,-0.184273,0.941518,0.282090,-0.089073,-0.015889,0.017836,-21.697216,43.763020,3.603394,,,,,,,
1530640051.732375,-2.567036,-1.215114,-0.053959,-0.411482,-0.282012,-0.302281,-0.189240,0.937409,0.292301,-0.043975,-0.018037,-0.061222,-21.854538,43.771358,4.057129,,,,,,,
1530640051.752344,-2.568820,-1.207984,-0.046683,-0.146169,-0.481942,-0.297446,-0.192336,0.934902,0.298248,-0.001862,-0.094540,-0.080276,-21.874472,43.602871,4.191559,,,,,,,
1530640051.772313,-2.570449,-1.203299,-0.038526,-0.122755,-0.427343,-0.212228,-0.194216,0.933229,0.302242,0.055925,-0.160723,-0.016857,-22.042006,43.284893,4.633972,,,,,,,
1530640051.792282,-2.576505,-1.199327,-0.037495,-0.178481,-0.305782,-0.068685,-0.194365,0.931795,0.306541,0.090422,-0.157427,0.010064,-21.951820,43.400459,4.843910,,,,,,,
1530640051.812251,-2.587014,-1.195648,-0.043547,-0.233824,-0.233584,0.029322,-0.192937,0.930453,0.311479,0.079412,-0.141925,0.053390,-21.762981,43.367119,4.950798,,,,,,,
1530640051.832219,-2.602845,-1.192160,-0.055268,-0.278718,-0.266308,0.134256,-0.189646,0.929170,0.317278,0.070536,-0.138642,0.085920,-21.755348,43.364471,5.128998,,,,,,,
1530640051.852188,-2.623397,-1.188756,-0.072107,-0.318056,-0.233629,0.199548,-0.184652,0.927906,0.323854,0.075322,-0.132755,0.124586,-21.453121,43.466064,5.611259,,,,,,,
1530640051.872157,-2.643552,-1.184757,-0.089707,-0.345147,-0.170537,0.176410,-0.179858,0.926408,0.330767,0.070513,-0.119493,0.146833,-21.244480,43.615433,5.885834,,,,,,,
1530640051.892126,-2.659757,-1.180002,-0.104438,-0.320460,-0.108234,0.105266,-0.176514,0.924607,0.337538,0.064149,-0.138688,0.156099,-21.053699,43.405777,6.346474,,,,,,,
1530640051.912095,-2.669420,-1.175957,-0.113931,-0.221427,-0.016234,0.046409,-0.174944,0.923058,0.342556,0.042223,-0.239190,0.066517,-20.757835,43.799931,6.336128,,,,,,,
1530640051.932064,-2.673798,-1.174283,-0.119194,-0.050705,0.046465,0.070777,-0.174139,0.922413,0.344697,0.017050,-0.349491,-0.016771,-20.567417,43.529610,6.413254,,,,,,,
1530640051.952033,-2.673401,-1.177919,-0.122783,0.284905,0.282878,0.189136,-0.172762,0.923811,0.341633,0.004915,-0.362318,0.136776,-20.427658,43.695980,6.028687,,,,,,,
1530640051.972001,-2.661376,-1.190658,-0.120380,0.748726,0.579108,0.271897,-0.171406,0.928613,0.329066,-0.039852,-0.240762,0.187718,-20.097809,43.692924,5.439629,,,,,,,
1530640051.991970,-2.639729,-1.208202,-0.111626,0.857864,0.699485,0.259450,-0.170624,0.934980,0.310946,-0.129928,-0.046995,0.174939,-19.798388,43.733234,4.549751,,,,,,,
1530640052.011939,-2.617821,-1.222492,-0.102577,0.570244,0.611896,0.168267,-0.170694,0.939953,0.295533,-0.263434,0.141483,0.181762,-19.569424,43.953491,3.460838,,,,,,,
1530640052.031908,-2.603405,-1.227336,-0.097676,0.058149,0.392727,-0.040876,-0.172601,0.941595,0.289129,-0.416343,0.164057,0.204936,-19.189276,43.844017,3.063736,,,,,,,
1530640052.051877,-2.596660,-1.224271,-0.096131,-0.145870,0.153603,-0.092703,-0.176042,0.940558,0.290425,-0.417097,0.019341,0.213497,-19.271244,43.971565,3.128349,,,,,,,
1530640052.071846,-2.599263,-1.225752,-0.094321,0.289279,-0.507725,0.058011,-0.174566,0.941060,0.289688,-0.228999,-0.083120,0.112031,-18.974152,43.895874,2.920128,,,,,,,
1530640052.091815,-2.595460,-1.241265,-0.074236,1.200894,-0.800119,0.153654,-0.168063,0.946194,0.276512,-0.015988,0.012012,0.030449,-18.905460,43.899849,2.525208,,,,,,,
1530640052.111783,-2.566357,-1.273479,-0.032168,1.946329,-0.377202,0.420609,-0.159367,0.956126,0.245793,0.157704,0.141927,0.009822,-18.544806,43.912510,1.329910,,,,,,,
1530640052.131752,-2.528006,-1.312708,0.010303,1.846525,-0.079890,0.692738,-0.146952,0.966880,0.208658,0.208918,0.275140,0.204321,-17.744686,43.782269,-0.406677,,,,,,,
1530640052.151721,-2.514713,-1.341334,0.029381,0.873622,-0.406384,0.540839,-0.133417,0.973789,0.184189,0.066477,0.474423,0.330978,-17.123341,43.998196,-1.389313,,,,,,,
1530640052.171690,-2.521546,-1.346336,0.027193,-0.087320,-0.008869,-0.067147,-0.129323,0.974914,0.181129,-0.113811,0.642105,0.493767,-16.913288,44.233238,-1.523010,,,,,,,
1530640052.191659,-2.500297,-1.344507,0.037786,0.182393,0.838066,-0.113392,-0.134209,0.974506,0.179771,0.214181,0.146420,0.074822,-16.808916,43.921925,-1.851418,,,,,,,
1530640052.211628,-2.441194,-1.356334,0.072838,1.007305,1.428597,0.176170,-0.137156,0.977091,0.162705,0.323710,-0.374796,-0.534272,-16.455072,43.986042,-2.770729,,,,,,,
1530640052.231597,-2.344715,-1.379859,0.137979,1.423951,1.670964,0.387524,-0.135710,0.981827,0.132630,0.305647,-0.601593,-0.566956,-15.918850,43.761192,-4.318153,,,,,,,
1530640052.251565,-2.231635,-1.404694,0.220319,1.260656,1.488202,0.484373,-0.130512,0.986237,0.101466,0.289661,-0.607437,-0.394435,-15.257357,43.484348,-5.870262,,,,,,,
1530640052.271534,-2.146537,-1.423538,0.279976,0.742560,1.178068,0.499188,-0.123051,0.989177,0.079872,0.200810,-0.414455,-0.182472,-14.475039,43.404106,-7.156555,,,,,,,
1530640052.291503,-2.101604,-1.437551,0.306274,0.407139,0.792974,0.490121,-0.114545,0.991136,0.067239,0.078718,0.105422,-0.239632,-13.963127,43.248852,-7.857491,,,,,,,
1530640052.311472,-2.087284,-1.446680,0.305474,0.144331,0.752339,0.312615,-0.107622,0.992307,0.061120,-0.132444,0.544283,-0.067269,-13.334057,43.336658,-8.192177,,,,,,,
1530640052.331441,-2.052608,-1.451180,0.324681,0.324790,0.748616,0.044275,-0.105719,0.992854,0.055282,-0.344751,0.530293,-0.067672,-12.982256,43.124767,-8.178574,,,,,,,
1530640052.351410,-1.942035,-1.455628,0.423531,0.797602,0.490874,-0.061230,-0.107056,0.993375,0.041676,-0.318832,0.018313,-0.156300,-12.724775,42.948879,-9.128517,,,,,,,
1530640052.371379,-1.770811,-1.460666,0.590281,1.028780,0.122642,0.018654,-0.107687,0.993942,0.021831,-0.230692,-0.212966,-0.139903,-12.434002,42.442871,-9.997505,,,,,,,
1530640052.391347,-1.591976,-1.464872,0.770856,0.947132,-0.146394,0.135786,-0.105672,0.994395,0.002238,-0.160975,-0.237926,-0.046687,-12.385746,42.434803,-10.843338,,,,,,,
1530640052.411316,-1.433513,-1.465548,0.934283,0.814852,-0.249371,0.027768,-0.104036,0.994466,-0.014373,-0.094328,-0.129720,-0.007325,-12.192801,41.825222,-11.798073,,,,,,,
1530640052.431285,-1.300633,-1.461050,1.069823,0.737358,0.002266,-0.120105,-0.105527,0.993984,-0.029224,-0.061999,-0.061229,0.016300,-12.089630,41.532269,-12.225784,,,,,,,
1530640052.451254,-1.184835,-1.453477,1.181752,0.719791,0.332622,-0.160389,-0.108416,0.993126,-0.044054,-0.024991,-0.034554,-0.000547,-12.116070,41.271015,-12.629578,,,,,,,
1530640052.471223,-1.080031,-1.444543,1.276820,0.713388,0.609660,-0.153593,-0.111037,0.992041,-0.059335,-0.043519,-0.038076,0.017022,-12.117046,40.792137,-13.330208,,,,,,,
1530640052.491192,-0.979967,-1.435060,1.361527,0.728576,0.857619,-0.093240,-0.112364,0.990802,-0.075369,-0.067095,-0.056460,0.042898,-11.683773,40.254257,-14.235031,,,,,,,
1530640052.511161,-0.882586,-1.425868,1.442170,0.723519,0.823765,0.013425,-0.111536,0.989516,-0.091720,-0.066000,-0.095443,0.024459,-11.197409,39.876034,-14.872200,,,,,,,
1530640052.531129,-0.790501,-1.417244,1.519665,0.731267,0.716120,0.094791,-0.108691,0.988234,-0.107587,-0.047773,-0.169127,0.047452,-10.824005,39.401360,-15.491211,,,,,,,
1530640052.551098,-0.693658,-1.406558,1.601599,0.926956,0.850408,0.141885,-0.104526,0.986543,-0.125707,-0.004269,-0.212816,0.124868,-10.227821,38.845078,-16.171562,,,,,,,
1530640052.571067,-0.581168,-1.391510,1.695013,1.155791,1.052793,0.237485,-0.097896,0.983971,-0.149041,0.025768,-0.087731,0.211297,-9.753550,38.680443,-17.026207,,,,,,,
1530640052.591036,-0.472708,-1.374911,1.785721,1.101344,0.847731,0.361109,-0.088614,0.980876,-0.173284,0.002203,0.091436,0.197698,-8.933664,37.933083,-17.957565,,,,,,,
1530640052.611005,-0.381753,-1.360745,1.865850,0.911524,0.517868,0.499594,-0.077677,0.978020,-0.193493,-0.038885,0.135612,0.216717,-8.219564,37.376877,-18.519493,,,,,,,
1530640052.630974,-0.294895,-1.349064,1.944935,0.792858,0.489272,0.649559,-0.063915,0.975518,-0.210419,-0.120899,0.021735,0.312195,-7.447033,36.747055,-19.157188,,,,,,,
1530640052.650943,-0.218719,-1.339102,2.012955,0.573395,0.472322,0.556903,-0.049823,0.973279,-0.224148,-0.242170,0.024219,0.330929,-6.743458,36.500076,-19.415489,,,,,,,
1530640052.670911,-0.177149,-1.334703,2.050641,0.120678,0.047219,0.272795,-0.041219,0.972259,-0.230238,-0.329799,0.119111,0.235030,-6.286837,35.927254,-19.501709,,,,,,,
1530640052.690880,-0.180378,-1.337831,2.055387,-0.263663,-0.621732,-0.031554,-0.041416,0.972986,-0.227111,-0.387326,0.183310,0.100234,-6.337837,35.702080,-19.229469,,,,,,,
1530640052.710849,-0.212892,-1.340615,2.032400,-0.034709,-0.199071,-0.341488,-0.048204,0.973625,-0.222995,-0.520186,0.261879,0.178470,-6.409832,35.471985,-19.106743,,,,,,,
1530640052.730818,-0.231310,-1.332134,2.000903,0.495952,0.986384,-0.504289,-0.054194,0.971655,-0.230099,-0.566076,0.310678,0.305813,-6.272867,35.088882,-19.315201,,,,,,,
1530640052.750787,-0.242798,-1.319714,1.963608,0.422459,1.378079,-0.632118,-0.059731,0.968644,-0.241158,-0.547615,0.396545,0.268868,-5.820358,34.430649,-19.803688,,,,,,,
1530640052.770756,-0.258791,-1.316848,1.909903,-0.440931,2.072341,-0.736044,-0.064290,0.967928,-0.242854,-0.615642,0.363096,0.627207,-5.130434,33.739731,-20.092499,,,,,,,
1530640052.790725,-0.333719,-1.343842,1.793581,-2.518365,1.468405,-1.102914,-0.073701,0.974356,-0.212588,-0.653288,0.301797,0.935519,-4.614756,34.151550,-18.949997,,,,,,,
1530640052.810693,-0.596549,-1.391582,1.521701,-3.589172,-0.564865,-1.552123,-0.100135,0.983984,-0.147457,-0.504662,0.223261,0.265362,-5.203426,34.896622,-16.852318,,,,,,,
1530640052.830662,-1.068390,-1.413160,1.073781,-3.300298,-1.973810,-1.834865,-0.137571,0.987601,-0.075586,-0.308947,0.135797,-0.215002,-6.389254,35.516907,-14.680550,,,,,,,
1530640052.850631,-1.511521,-1.391334,0.676098,-2.624475,-2.838349,-2.001546,-0.178172,0.983940,-0.010574,-0.147023,0.239647,-0.315491,-8.019606,35.817131,-12.709152,,,,,,,
1530640052.870600,-1.778561,-1.349496,0.467716,-2.004901,-3.223828,-1.840686,-0.214766,0.975613,0.045274,-0.024507,0.328129,-0.479524,-9.636972,35.947670,-11.292618,,,,,,,
1530640052.890569,-1.934814,-1.310974,0.367828,-1.495818,-2.687024,-1.269753,-0.240065,0.966435,0.091464,0.121474,0.348887,-0.485812,-10.953281,35.963234,-10.069794,,,,,,,
1530640052.910538,-2.027491,-1.287889,0.309073,-1.006158,-1.177533,-0.398405,-0.250530,0.960248,0.123095,0.263134,0.551898,-0.433383,-11.374376,36.265465,-9.343643,,,,,,,
1530640052.930506,-2.083504,-1.282324,0.251233,-0.871285,0.583308,0.379795,-0.247900,0.958680,0.139548,0.371221,0.658233,-0.345557,-11.084436,36.500748,-9.435966,,,,,,,
1530640052.950475,-2.166144,-1.268270,0.148992,-2.136274,0.604692,-0.098420,-0.246665,0.954587,0.167074,0.093864,0.535922,0.513423,-10.643976,37.167946,-8.597000,,,,,,,
1530640052.970444,-2.256415,-1.230238,0.050864,-2.312811,-0.105676,-0.808554,-0.258529,0.942568,0.211476,0.047988,0.220884,-0.147923,-10.811848,37.744843,-7.415504,,,,,,,
1530640052.990413,-2.304892,-1.194593,0.010674,-1.259989,-0.833871,-0.914967,-0.272759,0.930066,0.246116,0.224480,-0.059522,-0.761710,-11.560232,38.169922,-6.510773,,,,,,,
1530640053.010382,-2.328590,-1.171343,0.017277,-0.473843,-1.906729,-0.973819,-0.282483,0.921274,0.267303,0.167463,-0.236810,-0.764602,-12.261475,38.381073,-5.818253,,,,,,,
1530640053.030351,-2.358035,-1.149613,0.037896,-0.539529,-2.654076,-1.130957,-0.288555,0.912606,0.289620,0.045010,-0.330986,-0.462151,-13.186674,38.345741,-4.905769,,,,,,,
1530640053.050320,-2.399592,-1.123406,0.052449,-0.833655,-2.721756,-1.067748,-0.292340,0.901579,0.318882,0.080548,-0.408812,-0.375874,-14.192717,38.354851,-3.798027,,,,,,,
,,,,,,,,,,,,,,,,39.779030,-84.063277,290.746181,-1.000000,-1.000000,1530640053.000021,
1530640053.070289,-2.447333,-1.099338,0.054633,-0.858016,-2.311688,-0.662143,-0.290591,0.890907,0.349049,0.184802,-0.468223,-0.449177,-14.966877,38.302147,-2.996552,,,,,,,
1530640053.090257,-2.494278,-1.083565,0.047465,-0.609271,-1.890069,-0.183897,-0.282331,0.883632,0.373466,0.272611,-0.485302,-0.526374,-15.492731,38.596497,-2.369995,,,,,,,
1530640053.110226,-2.539306,-1.079036,0.035053,-0.186341,-1.600908,0.284298,-0.267498,0.881503,0.389089,0.370938,-0.478702,-0.603002,-15.447447,38.860222,-1.574211,,,,,,,
1530640053.130195,-2.583293,-1.088174,0.015330,0.332118,-1.129303,0.864525,-0.245853,0.885781,0.393626,0.500659,-0.522255,-0.633800,-15.019514,39.009781,-1.439720,,,,,,,
1530640053.150164,-2.624486,-1.112062,-0.016202,0.852770,-0.360612,1.425671,-0.218909,0.896614,0.384911,0.574713,-0.592094,-0.614571,-14.113785,39.486946,-1.837471,,,,,,,
1530640053.170133,-2.662731,-1.146970,-0.060031,1.193895,0.261792,1.758298,-0.189488,0.911522,0.364987,0.558995,-0.678887,-0.526974,-12.851746,39.743832,-2.984238,,,,,,,
1530640053.190102,-2.703663,-1.186090,-0.108335,1.483498,-0.074017,1.616616,-0.159143,0.926909,0.339865,0.505792,-0.704115,-0.212835,-11.598633,40.230453,-4.353691,,,,,,,
1530640053.210071,-2.758851,-1.223669,-0.147027,0.817459,-1.549646,1.284421,-0.127049,0.940354,0.315574,0.315525,-0.094514,0.975731,-10.566545,40.257347,-5.416763,,,,,,,
1530640053.230039,-2.819984,-1.212250,-0.188286,-1.151110,-0.077569,-0.139179,-0.110918,0.936408,0.332912,-0.765394,1.322061,2.656590,-10.357412,40.850334,-5.096863,,,,,,,
1530640053.250008,-2.729353,-1.203586,-0.136118,0.691773,3.039329,-1.421851,-0.143840,0.933332,0.328930,-0.675374,1.687609,0.488285,-10.484997,40.671658,-5.210838,,,,,,,
1530640053.269977,-2.568524,-1.209792,-0.030149,1.085770,2.746357,-1.377855,-0.191513,0.935543,0.296778,-0.221283,0.725758,0.015707,-11.101677,40.747124,-7.035233,,,,,,,
1530640053.289946,-2.487431,-1.207330,0.026067,0.209763,0.585555,-0.634750,-0.216325,0.934670,0.282116,0.187836,-0.267602,0.173358,-11.713202,40.756531,-7.871902,,,,,,,
1530640053.309915,-2.466383,-1.209100,0.041260,0.407074,0.342904,0.123414,-0.221181,0.935298,0.276210,0.235005,-0.521220,-0.165294,-11.887691,40.775932,-8.318810,,,,,,,
1530640053.329884,-2.456652,-1.230679,0.044835,1.199228,0.026299,0.852224,-0.211038,0.942716,0.258351,0.164652,-0.095609,-0.824544,-11.523132,40.982281,-9.021950,,,,,,,
1530640053.349853,-2.461830,-1.250449,0.039103,0.036246,0.067767,0.338506,-0.197942,0.949126,0.244896,-0.488322,0.898805,0.448051,-11.049551,41.292454,-9.835335,,,,,,,
1530640053.369821,-2.475990,-1.240248,0.025981,-0.504684,-0.420988,-0.314904,-0.200423,0.945864,0.255277,-0.405289,0.667310,-0.240903,-11.136816,41.536736,-9.298668,,,,,,,
1530640053.389790,-2.487037,-1.238660,0.028824,0.288226,-0.850002,0.067159,-0.198505,0.945348,0.258666,0.227878,-0.233068,-0.781310,-11.471806,41.509472,-9.203499,,,,,,,
1530640053.409759,-2.489436,-1.254288,0.037201,0.946383,-0.339819,0.489692,-0.188894,0.950328,0.247369,0.321615,-0.537074,-0.642754,-11.484644,41.794952,-9.758652,,,,,,,
1530640053.429728,-2.468697,-1.280538,0.052707,1.296176,0.572987,0.652141,-0.178369,0.958170,0.223807,0.308145,-0.507746,-0.488959,-11.124649,41.818607,-10.626228,,,,,,,
1530640053.449697,-2.426830,-1.309790,0.072695,1.284801,1.332966,0.742209,-0.169131,0.966131,0.194887,0.352969,-0.260900,-0.405504,-10.266449,41.579777,-11.624031,,,,,,,
1530640053.469666,-2.376142,-1.337139,0.088629,1.056016,1.866176,0.750451,-0.160415,0.972826,0.166946,0.364333,0.125502,-0.361602,-9.265837,41.667675,-13.122513,,,,,,,
1530640053.489635,-2.319426,-1.358416,0.106095,0.857772,1.830440,0.500023,-0.154418,0.977532,0.143461,0.255324,0.459342,-0.244443,-8.254429,41.383354,-14.062439,,,,,,,
1530640053.509603,-2.224999,-1.376479,0.173058,1.288106,1.094647,0.085283,-0.153219,0.981180,0.117497,0.025365,0.364996,0.099788,-7.605068,41.152985,-15.031189,,,,,,,
1530640053.529572,-2.082167,-1.388536,0.298856,1.280504,0.826593,-0.262135,-0.158053,0.983436,0.088693,0.047183,0.126793,-0.025033,-7.325827,40.713497,-16.054970,,,,,,,
1530640053.549541,-1.946700,-1.393534,0.422405,1.023059,0.468501,-0.188853,-0.164009,0.984330,0.064730,0.110802,-0.026444,-0.190584,-7.201439,40.645184,-17.268730,,,,,,,
1530640053.569510,-1.843953,-1.399888,0.520654,0.879778,0.085289,0.159188,-0.163757,0.985431,0.045878,0.095917,-0.156054,-0.185420,-7.238029,40.445679,-18.058807,,,,,,,
1530640053.589479,-1.750969,-1.410326,0.615655,0.930208,-0.193558,0.411836,-0.157180,0.987152,0.028630,0.016478,-0.245758,-0.170094,-6.898005,40.006763,-18.704956,,,,,,,
1530640053.609448,-1.625356,-1.422606,0.744118,1.155764,-0.050909,0.525520,-0.147410,0.989040,0.008051,-0.062535,-0.286586,-0.092218,-6.842806,39.809109,-19.354721,,,,,,,
1530640053.629417,-1.437726,-1.432122,0.928946,1.400174,0.210746,0.510153,-0.136987,0.990400,-0.018337,-0.125602,-0.300337,-0.061527,-6.133961,39.164360,-20.619133,,,,,,,
1530640053.649386,-1.212159,-1.434138,1.149590,1.462589,0.313868,0.440962,-0.127545,0.990677,-0.047810,-0.145404,-0.296555,-0.034542,-5.797586,38.780319,-21.870155,,,,,,,
1530640053.669354,-0.994703,-1.427966,1.359137,1.448560,0.517583,0.355811,-0.119352,0.989817,-0.077531,-0.182680,-0.289637,0.024659,-5.322817,37.950142,-23.236626,,,,,,,
1530640053.689323,-0.798443,-1.414519,1.539582,1.501269,1.037832,0.309227,-0.111469,0.987814,-0.108598,-0.237560,-0.237905,0.111406,-4.501873,37.589111,-24.247421,,,,,,,
1530640053.709292,-0.619820,-1.395132,1.690344,1.590046,1.642550,0.338157,-0.101508,0.984611,-0.142241,-0.276818,-0.137885,0.163313,-3.736267,37.143051,-25.263931,,,,,,,
1530640053.729261,-0.456539,-1.369763,1.814379,1.779562,2.229624,0.359459,-0.088023,0.979861,-0.179219,-0.278127,-0.031283,0.208318,-2.298502,36.064224,-26.616997,,,,,,,
1530640053.749230,-0.311678,-1.335807,1.907046,2.037088,2.882578,0.269268,-0.071396,0.972517,-0.221604,-0.248245,0.055254,0.331361,-0.451439,34.797630,-27.991104,,,,,,,
1530640053.769199,-0.197658,-1.300204,1.959970,1.685533,3.095359,0.166188,-0.052489,0.963613,-0.262089,-0.303971,0.256312,0.522221,1.362812,33.835793,-29.186607,,,,,,,
1530640053.789168,-0.130148,-1.286231,1.975415,0.006417,1.968223,0.091301,-0.036434,0.959784,-0.278357,-0.421635,0.482843,0.802420,2.561787,33.832626,-29.503456,,,,,,,
1530640053.809137,-0.120668,-1.304203,1.972327,-1.214664,-0.163991,0.069233,-0.031711,0.964674,-0.261521,-0.524609,0.314745,0.285554,2.605396,34.639175,-28.743568,,,,,,,
1530640053.829105,-0.144261,-1.323800,1.956424,-0.697914,-0.424258,-0.152158,-0.035147,0.969651,-0.241942,-0.631509,0.220962,0.276107,2.046070,35.275894,-28.106155,,,,,,,
1530640053.849074,-0.186729,-1.326646,1.920114,-0.039217,-0.574053,-0.551409,-0.044874,0.970343,-0.237518,-0.567171,0.286127,0.257523,1.316319,35.354652,-27.930534,,,,,,,
1530640053.869043,-0.265838,-1.327450,1.854218,-0.482427,-0.848941,-0.847837,-0.063299,0.970537,-0.232475,-0.535929,0.430387,0.442191,0.178558,35.590080,-27.408699,,,,,,,
1530640053.889012,-0.401486,-1.350030,1.728855,-2.259304,-0.757524,-1.052777,-0.085567,0.975730,-0.201549,-0.686406,0.490502,0.851650,-1.343643,36.638382,-26.001503,,,,,,,
1530640053.908981,-0.680934,-1.392636,1.462050,-3.570765,-1.035189,-1.225639,-0.111548,0.984171,-0.137679,-0.582574,0.167120,0.355284,-2.875561,38.511299,-23.394356,,,,,,,
1530640053.928950,-1.172141,-1.415873,0.988371,-3.772946,-1.541267,-1.624979,-0.142178,0.988023,-0.059886,-0.340138,0.225066,0.064067,-4.948395,40.165581,-20.644501,,,,,,,
1530640053.948919,-1.655740,-1.385953,0.545360,-3.195036,-2.889452,-2.247009,-0.183101,0.982965,0.015591,-0.324055,0.360510,-0.611660,-7.835670,41.163113,-17.427582,,,,,,,
1530640053.968888,-1.928516,-1.327001,0.334466,-2.612796,-3.512375,-2.388882,-0.226083,0.970429,0.084510,-0.167106,0.413559,-0.703636,-10.944868,41.546173,-14.594612,,,,,,,
1530640053.988856,-2.074476,-1.269481,0.247484,-2.033902,-2.774138,-1.896452,-0.259901,0.954947,0.143229,0.001173,0.623087,-0.606410,-13.700701,41.446846,-11.765854,,,,,,,
1530640054.008825,-2.150407,-1.230107,0.198892,-1.433260,-0.661778,-0.889642,-0.279546,0.942524,0.182995,0.186025,0.805904,-0.482677,-15.008335,41.452221,-9.961037,,,,,,,
1530640054.028794,-2.165190,-1.215867,0.160171,-0.529362,2.063428,0.078058,-0.287902,0.937671,0.194604,0.352294,0.843854,-0.275247,-14.904766,41.239632,-9.325523,,,,,,,
1530640054.048763,-2.134683,-1.215414,0.140968,-0.442959,1.916903,0.031134,-0.294063,0.937513,0.185959,0.370799,0.586962,0.438812,-14.179276,41.130054,-9.707024,,,,,,,
,,,,,,,,,,,,,,,,39.779025,-84.063268,290.469875,-1.000000,-1.000000,1530640054.000017,
1530640054.068732,-2.162800,-1.195676,0.101854,-1.384602,-0.397128,-0.690439,-0.304017,0.930464,0.204440,0.127244,0.214769,0.014173,-14.393759,40.701344,-8.790482,,,,,,,
1530640054.088701,-2.217959,-1.168360,0.064875,-1.201114,-1.424029,-0.661759,-0.312449,0.920110,0.236129,0.361110,-0.068440,-0.644058,-15.071306,40.628220,-7.742416,,,,,,,
1530640054.108670,-2.272334,-1.150714,0.047363,-0.566505,-2.342283,-0.402243,-0.311509,0.913055,0.263200,0.387177,-0.301071,-0.829606,-15.803154,40.531334,-6.483727,,,,,,,
1530640054.128639,-2.331603,-1.140440,0.046822,-0.296442,-3.344429,-0.445545,-0.302150,0.908817,0.287643,0.228511,-0.467579,-0.724594,-16.400013,40.303864,-4.929688,,,,,,,
1530640054.148608,-2.397031,-1.122962,0.051365,-0.735645,-3.479467,-0.851355,-0.293417,0.901387,0.318416,0.033834,-0.482930,-0.371074,-17.363930,39.760555,-3.638184,,,,,,,
1530640054.168577,-2.455002,-1.097133,0.050273,-1.068154,-2.478895,-0.737290,-0.289140,0.889903,0.352774,0.188310,-0.508006,-0.332708,-18.162094,39.397980,-1.869400,,,,,,,
1530640054.188546,-2.504729,-1.076206,0.034016,-0.980029,-1.480816,-0.122968,-0.282262,0.880163,0.381600,0.347250,-0.552404,-0.462884,-18.462036,39.319649,-0.663704,,,,,,,
1530640054.208515,-2.551416,-1.066787,0.004920,-0.624550,-0.935552,0.508961,-0.268747,0.875653,0.401228,0.417291,-0.579724,-0.561384,-18.150812,39.212540,0.291862,,,,,,,
1530640054.228484,-2.599425,-1.070895,-0.033783,-0.111475,-0.612015,1.110103,-0.247323,0.877630,0.410577,0.501046,-0.608557,-0.607049,-17.438290,39.161461,1.072006,,,,,,,
1530640054.248453,-2.647997,-1.089857,-0.082152,0.499741,-0.115745,1.631215,-0.219172,0.886561,0.407370,0.560465,-0.656779,-0.578986,-16.412727,39.705021,0.711159,,,,,,,
1530640054.268422,-2.691009,-1.122386,-0.135742,1.163808,0.364976,1.844314,-0.188788,0.901137,0.390241,0.553031,-0.721297,-0.454556,-15.149557,40.065834,-0.031677,,,,,,,
1530640054.288391,-2.723623,-1.165886,-0.174501,1.928681,-0.245045,1.424456,-0.159890,0.919138,0.359999,0.499276,-0.733713,-0.057036,-13.793211,40.262390,-1.213104,,,,,,,
1530640054.308360,-2.766359,-1.192357,-0.197661,-0.303555,-1.366169,0.506696,-0.135396,0.929243,0.343736,-0.032450,0.137072,2.088805,-13.181507,40.172653,-1.786583,,,,,,,
1530640054.328328,-2.759738,-1.165910,-0.195058,-0.891484,1.500452,-1.025204,-0.146779,0.919147,0.365516,-0.989788,1.645703,1.977196,-13.431982,39.489662,-1.076340,,,,,,,
1530640054.348297,-2.630967,-1.158912,-0.115869,0.936641,3.232491,-1.749250,-0.195641,0.916368,0.349246,-0.499092,1.490889,-0.163409,-14.325197,39.034485,-1.929794,,,,,,,
1530640054.368266,-2.488480,-1.156510,-0.025625,0.681702,2.544159,-1.332466,-0.244591,0.915404,0.319673,-0.185646,0.666643,0.191314,-14.863298,38.401604,-3.372505,,,,,,,
1530640054.388235,-2.423874,-1.152993,0.017510,0.379274,0.609693,-0.461732,-0.266834,0.913982,0.305638,0.212635,-0.491711,0.130687,-15.230946,37.689888,-3.998024,,,,,,,
1530640054.408204,-2.406138,-1.165071,0.032256,0.850056,-0.008212,0.591539,-0.264787,0.918816,0.292651,0.344423,-0.599816,-0.527758,-15.049940,37.647926,-5.106522,,,,,,,
1530640054.428173,-2.419893,-1.197990,0.027799,1.218101,-0.616544,1.382783,-0.240615,0.931309,0.273401,0.173004,0.209209,-0.906046,-14.235943,37.444168,-5.653641,,,,,,,
1530640054.448142,-2.453168,-1.215328,-0.004912,-0.205483,-0.013881,0.663160,-0.221094,0.937484,0.268745,-0.526145,1.346711,0.561074,-13.546577,37.606758,-6.043419,,,,,,,
1530640054.468111,-2.478564,-1.213992,-0.026465,-0.183462,-0.337144,0.156618,-0.214968,0.937018,0.275258,-0.042310,0.289087,-0.620992,-13.056190,37.742882,-5.598656,,,,,,,
1530640054.488080,-2.484003,-1.219653,-0.031224,0.398090,0.211232,0.327784,-0.210222,0.938980,0.272220,0.317110,-0.311920,-0.611926,-12.901224,37.980225,-5.668289,,,,,,,
1530640054.508048,-2.465365,-1.237545,-0.028879,0.907206,1.208048,0.625914,-0.204711,0.944984,0.255110,0.375075,-0.454688,-0.571394,-12.303434,37.527115,-6.666397,,,,,,,
1530640054.528017,-2.420131,-1.264117,-0.018176,1.232016,2.032691,0.767710,-0.199377,0.953341,0.226653,0.381735,-0.341967,-0.502517,-11.436764,37.753891,-7.694077,,,,,,,
1530640054.547986,-2.352589,-1.293876,0.003547,1.306141,2.487277,0.797157,-0.193993,0.961902,0.192599,0.385537,-0.125522,-0.441669,-10.189173,37.306610,-9.035286,,,,,,,
1530640054.567955,-2.271594,-1.321400,0.034441,1.172732,2.537701,0.695284,-0.188625,0.969062,0.159134,0.334637,0.189431,-0.378372,-8.941200,36.803520,-10.468361,,,,,,,
1530640054.587924,-2.170141,-1.346833,0.094165,1.552755,1.846538,0.533669,-0.183356,0.975025,0.125264,0.154333,0.381725,-0.220006,-7.950783,36.743858,-11.693497,,,,,,,
1530640054.607893,-2.007742,-1.372955,0.235703,2.031949,0.834554,0.306896,-0.178051,0.980493,0.083160,-0.037769,0.226858,-0.022216,-7.168060,36.256638,-13.281425,,,,,,,
1530640054.627862,-1.833589,-1.388591,0.407170,1.591926,-0.004283,0.147918,-0.174939,0.983447,0.047061,-0.030384,0.027311,-0.057788,-6.810507,35.747948,-14.661621,,,,,,,
1530640054.647831,-1.700031,-1.399062,0.548030,1.202086,-0.330321,0.381310,-0.169426,0.985290,0.022018,0.009147,-0.146499,-0.045670,-6.642153,35.346573,-15.486069,,,,,,,
1530640054.667800,-1.575675,-1.410963,0.681164,1.128153,-0.341573,0.575103,-0.159110,0.987254,0.000776,-0.075021,-0.255534,-0.015638,-6.364355,34.744858,-16.202568,,,,,,,
1530640054.687769,-1.413110,-1.420799,0.848645,1.347165,0.055702,0.584386,-0.147538,0.988771,-0.023459,-0.167006,-0.307848,0.005240,-5.975506,34.246056,-16.834259,,,,,,,
1530640054.707737,-1.193598,-1.423391,1.061140,1.531289,0.661208,0.494746,-0.136507,0.989155,-0.054079,-0.209639,-0.299077,0.067248,-5.434978,33.769676,-17.726479,,,,,,,
1530640054.727706,-0.984415,-1.416438,1.258606,1.416374,0.682382,0.311644,-0.128030,0.988110,-0.085054,-0.246192,-0.242795,0.038743,-4.826555,33.371025,-18.771019,,,,,,,
1530640054.747675,-0.817710,-1.404392,1.409810,1.282215,1.120813,0.292544,-0.120821,0.986187,-0.113255,-0.230208,-0.273449,0.156346,-4.040625,32.544228,-19.787590,,,,,,,
1530640054.767644,-0.649269,-1.390199,1.544398,1.338561,2.171880,0.429669,-0.108579,0.983737,-0.143045,-0.217288,-0.245928,0.313333,-3.142532,32.025055,-20.546600,,,,,,,
1530640054.787613,-0.487842,-1.370988,1.659834,1.431266,2.418424,0.371628,-0.093020,0.980105,-0.175304,-0.220640,-0.090304,0.246852,-1.575909,31.100815,-21.581589,,,,,,,
1530640054.807582,-0.361221,-1.347338,1.745528,1.432762,1.919746,0.329306,-0.078310,0.975137,-0.207281,-0.205229,-0.000604,0.246649,-0.285957,30.352707,-22.641151,,,,,,,
1530640054.827551,-0.269399,-1.326118,1.810700,1.070179,1.107673,0.446813,-0.064469,0.970215,-0.233488,-0.222122,0.087295,0.367307,0.892948,29.777977,-23.222099,,,,,,,
1530640054.847520,-0.208341,-1.315657,1.862334,0.408303,0.228876,0.489539,-0.052198,0.967628,-0.246904,-0.358432,0.269814,0.404817,1.944557,29.047203,-23.569633,,,,,,,
1530640054.867489,-0.183500,-1.316617,1.893201,-0.164934,-0.513889,0.332448,-0.045879,0.967870,-0.247211,-0.500767,0.343745,0.311375,2.155991,29.109917,-23.729309,,,,,,,
1530640054.887458,-0.187145,-1.322581,1.904788,-0.247768,-0.759392,0.079770,-0.045705,0.969352,-0.241367,-0.551813,0.228981,0.220020,1.953274,29.325157,-23.591667,,,,,,,
1530640054.907426,-0.215210,-1.322175,1.885014,0.099422,-0.220384,-0.458437,-0.052544,0.969253,-0.240373,-0.582267,0.312425,0.327546,1.886284,29.303734,-23.366150,,,,,,,
1530640054.927395,-0.273041,-1.318656,1.824020,-0.221913,0.233378,-0.929524,-0.067269,0.968381,-0.240218,-0.467750,0.350116,0.496962,1.574417,29.344246,-23.363670,,,,,,,
1530640054.947364,-0.374405,-1.333260,1.709891,-1.810713,0.500600,-1.184162,-0.086049,0.971921,-0.218989,-0.551203,0.491611,0.803340,1.447487,30.147499,-22.564796,,,,,,,
1530640054.967333,-0.606455,-1.371256,1.467433,-3.458155,0.107440,-1.561069,-0.112962,0.980158,-0.162850,-0.732467,0.373526,0.527321,0.718121,31.721245,-20.546890,,,,,,,
1530640054.987302,-1.043944,-1.400778,1.022720,-4.120303,-0.210026,-1.756143,-0.146227,0.985582,-0.085060,-0.489454,0.192839,0.353126,-0.370495,33.682663,-18.118263,,,,,,,
1530640055.007271,-1.557686,-1.382973,0.528443,-3.782797,-2.132272,-2.203663,-0.186672,0.982413,-0.002447,-0.247288,0.352853,-0.410165,-2.039011,35.146492,-15.694382,,,,,,,
1530640055.027240,-1.889250,-1.324000,0.252952,-3.120188,-3.539888,-2.536756,-0.231989,0.969700,0.076481,-0.214224,0.397808,-0.723911,-4.703861,36.425217,-13.453033,,,,,,,
1530640055.047209,-2.064705,-1.257366,0.143206,-2.478876,-3.244383,-2.357741,-0.271454,0.951281,0.146156,-0.031525,0.528638,-0.643409,-7.079796,37.015289,-10.934212,,,,,,,
1530640055.067178,-2.148755,-1.203130,0.099880,-1.657431,-1.319722,-1.675597,-0.301041,0.933169,0.196355,0.126435,0.779951,-0.489934,-8.618559,37.457954,-9.250282,,,,,,,
,,,,,,,,,,,,,,,,39.779018,-84.063254,290.451992,-1.000000,-1.000000,1530640055.000018,
1530640055.087147,-2.134259,-1.176677,0.100870,-0.094559,1.904672,-0.770750,-0.324616,0.923335,0.205087,0.328538,1.081792,-0.210626,-9.287968,37.680176,-9.024490,,,,,,,
1530640055.107116,-2.060377,-1.174542,0.122674,0.169611,2.539336,-0.132026,-0.340609,0.922513,0.181494,0.516879,0.848025,0.281824,-8.886459,37.678116,-9.483406,,,,,,,
1530640055.127084,-2.071836,-1.159278,0.090362,-1.495975,-0.017245,-0.545058,-0.350818,0.916515,0.192126,0.148807,0.332082,0.224484,-9.036104,38.060295,-8.654747,,,,,,,
1530640055.147052,-2.143849,-1.132500,0.031699,-1.670489,-1.373399,-0.458065,-0.356585,0.905476,0.230098,0.354998,-0.022404,-0.579265,-9.642710,38.591576,-7.043465,,,,,,,
1530640055.167021,-2.221765,-1.114268,-0.009349,-0.965145,-2.469926,-0.123586,-0.350669,0.897588,0.267116,0.401221,-0.267416,-0.890316,-10.080095,38.487846,-5.538795,,,,,,,
1530640055.186990,-2.299421,-1.105905,-0.027163,-0.404093,-3.394233,-0.102747,-0.334478,0.893870,0.298503,0.243963,-0.437907,-0.785869,-10.541136,38.690079,-4.418991,,,,,,,
1530640055.206959,-2.373051,-1.094369,-0.030132,-0.570064,-3.504578,-0.580379,-0.318760,0.888639,0.329692,0.009464,-0.508192,-0.401881,-11.409573,38.944946,-3.076302,,,,,,,
1530640055.226928,-2.427446,-1.071332,-0.025590,-0.866340,-2.511898,-0.922951,-0.313691,0.877839,0.361910,0.022645,-0.538911,-0.274386,-12.239529,38.911865,-1.651382,,,,,,,
1530640055.246897,-2.465406,-1.049649,-0.024324,-0.724908,-1.718669,-0.539917,-0.311571,0.867249,0.388312,0.282107,-0.566391,-0.474158,-12.754709,38.939453,-0.603836,,,,,,,
1530640055.266866,-2.503424,-1.040560,-0.031428,-0.300373,-1.552271,0.120729,-0.301271,0.862687,0.406189,0.398545,-0.578203,-0.643600,-12.852695,38.945969,0.248375,,,,,,,
1530640055.286835,-2.548045,-1.046961,-0.050436,0.166566,-1.293641,0.851471,-0.279757,0.865907,0.414636,0.502551,-0.612611,-0.654702,-12.399906,39.034943,0.647385,,,,,,,
1530640055.306804,-2.596375,-1.068729,-0.084448,0.648495,-0.672608,1.535267,-0.249563,0.876590,0.411450,0.568365,-0.662372,-0.633053,-11.400200,39.642719,0.460396,,,,,,,
1530640055.326772,-2.642659,-1.102945,-0.132946,1.070557,0.114657,1.969208,-0.215775,0.892539,0.395977,0.559663,-0.708167,-0.572811,-9.896103,39.991051,0.134201,,,,,,,
