timestamp(unix),attitude_roll(radians),attitude_pitch(radians),attitude_yaw(radians),rotation_rate_x(radians/s),rotation_rate_y(radians/s),rotation_rate_z(radians/s),gravity_x(G),gravity_y(G),gravity_z(G),user_acc_x(G),user_acc_y(G),user_acc_z(G),magnetic_field_x(microteslas),magnetic_field_y(microteslas),magnetic_field_z(microteslas),latitude(degree),longitude(degree),altitude(meter),speed(m/s),course(degree),timestamp(unix),User Mark
,,,,,,,,,,,,,,,,39.779390,-84.063968,294.089447,-1.000000,-1.000000,1530638338.719187,
1530638402.274271,0.087313,0.432430,0.002449,-0.185932,0.269597,0.696594,0.079175,-0.419079,-0.904491,-0.029172,0.014950,0.070354,7.766584,-9.970078,-23.977486,,,,,,,
,,,,,,,,,,,,,,,,39.779390,-84.063968,294.089447,-1.000000,-1.000000,1530638347.719187,
1530638402.294241,0.083925,0.428516,0.018975,-0.184198,0.169920,0.743549,0.076248,-0.415522,-0.906382,-0.025832,0.031382,0.024775,7.679422,-9.953278,-24.075256,,,,,,,
1530638402.314210,0.079134,0.425441,0.036454,-0.131063,0.136484,0.787043,0.072005,-0.412723,-0.908006,-0.056578,0.065692,-0.000578,7.778128,-9.987541,-24.037987,,,,,,,
,,,,,,,,,,,,,,,,39.779390,-84.063968,294.089447,-1.000000,-1.000000,1530638402.309439,
,,,,,,,,,,,,,,,,39.779390,-84.063968,294.089447,-1.000000,-1.000000,1530638402.318101,
1530638402.334180,0.074777,0.424693,0.054596,-0.018160,0.250975,0.827372,0.068071,-0.412041,-0.908619,-0.105943,0.083901,-0.003872,7.636511,-10.014557,-24.247795,,,,,,,
1530638402.354149,0.073298,0.428517,0.071761,0.211302,0.258249,0.722503,0.066611,-0.415522,-0.907141,-0.098929,0.125773,-0.067102,7.735060,-10.245903,-24.251625,,,,,,,
,,,,,,,,,,,,,,,,39.779390,-84.063968,294.089447,-1.000000,-1.000000,1530638402.357858,
1530638402.374118,0.070021,0.435895,0.084101,0.388191,0.012367,0.512355,0.063422,-0.422222,-0.904271,-0.141333,0.089153,-0.118266,7.641977,-10.401688,-24.044670,,,,,,,
,,,,,,,,,,,,,,,,39.779390,-84.063968,294.089447,-1.000000,-1.000000,1530638402.363150,
1530638402.394088,0.066791,0.445633,0.092213,0.608190,0.112152,0.279688,0.060223,-0.431029,-0.900326,-0.051342,0.079497,0.006222,7.568811,-10.593506,-24.209732,,,,,,,
1530638402.414057,0.075571,0.459080,0.092281,0.716063,0.809367,0.021973,0.067682,-0.443123,-0.893902,-0.058512,-0.035331,0.028363,7.819620,-10.867767,-23.959396,,,,,,,
1530638402.434027,0.095863,0.467321,0.101638,0.259503,1.387699,0.699397,0.085453,-0.450496,-0.888680,-0.032353,-0.160344,0.030693,8.151129,-11.134544,-23.810196,,,,,,,
1530638402.453996,0.107839,0.471022,0.121729,0.064527,0.797561,0.961785,0.095910,-0.453798,-0.885928,0.044410,-0.123000,-0.174954,8.621019,-11.271439,-23.631638,,,,,,,
1530638402.473965,0.108455,0.476053,0.140897,0.224390,0.335069,0.787446,0.096207,-0.458274,-0.883589,0.079864,0.051383,-0.251055,8.876902,-11.657310,-23.623161,,,,,,,
1530638402.493935,0.106443,0.482945,0.153084,0.289985,0.057979,0.466168,0.094091,-0.464389,-0.880619,0.022440,0.074634,-0.166851,8.695238,-11.830307,-23.118492,,,,,,,
1530638402.513904,0.099239,0.487326,0.161960,0.083855,-0.233050,0.417351,0.087543,-0.468265,-0.879241,0.025769,-0.019131,-0.006593,8.652559,-11.873474,-23.600029,,,,,,,
1530638402.533874,0.090507,0.486517,0.172193,-0.171279,-0.133860,0.452906,0.079896,-0.467550,-0.880349,-0.041780,-0.083583,0.090752,8.562845,-12.113785,-23.832375,,,,,,,
1530638402.553843,0.086089,0.483349,0.183053,-0.170477,0.117668,0.476757,0.076133,-0.464747,-0.882164,-0.032172,-0.014379,0.066063,8.489576,-11.904503,-23.909897,,,,,,,
1530638402.573812,0.085319,0.484065,0.194137,0.109367,0.257670,0.491707,0.075425,-0.465381,-0.881891,0.003463,-0.005352,-0.023093,8.502939,-11.940254,-23.560303,,,,,,,
1530638402.593782,0.086036,0.490511,0.203474,0.364950,0.229523,0.399328,0.075798,-0.471077,-0.878829,-0.022332,0.010078,-0.021470,8.474039,-12.253204,-23.636513,,,,,,,
1530638402.613751,0.086114,0.498428,0.210124,0.339665,0.116598,0.287968,0.075543,-0.478045,-0.875081,-0.037274,0.010562,0.036366,8.545904,-12.337471,-23.786896,,,,,,,
1530638402.633721,0.083990,0.503379,0.215069,0.135904,-0.026250,0.202091,0.073485,-0.482389,-0.872870,-0.047438,-0.015704,0.052298,8.586256,-12.606621,-23.694672,,,,,,,
1530638402.653690,0.081209,0.503718,0.219563,-0.038255,-0.011907,0.211563,0.071044,-0.482685,-0.872908,-0.026031,-0.030453,0.062635,8.513086,-12.522575,-23.532799,,,,,,,
1530638402.673659,0.079536,0.502963,0.225026,-0.010227,0.097145,0.244149,0.069613,-0.482024,-0.873388,-0.001116,-0.023897,0.019384,8.610125,-12.584198,-23.159698,,,,,,,
,,,,,,,,,,,,,,,,39.779210,-84.064369,292.996857,-1.000000,-1.000000,1530638402.639170,
1530638402.693629,0.079691,0.504889,0.230631,0.143961,0.184350,0.237531,0.069674,-0.483710,-0.872450,0.028425,-0.010293,-0.028184,8.465231,-12.508873,-23.800339,,,,,,,
1530638402.713598,0.080054,0.510286,0.235174,0.262970,0.112978,0.176598,0.069781,-0.488427,-0.869810,0.030256,0.014046,-0.049730,8.553720,-12.555107,-23.516159,,,,,,,
1530638402.733568,0.078782,0.516166,0.237982,0.205901,-0.021188,0.105375,0.068447,-0.493550,-0.867020,0.008091,0.020100,-0.008224,8.496817,-12.546600,-23.520775,,,,,,,
1530638402.753537,0.076656,0.519087,0.239863,0.068712,-0.070672,0.083954,0.066493,-0.496088,-0.865723,-0.016841,0.004007,0.038208,8.611792,-12.732239,-23.319031,,,,,,,
1530638402.773506,0.074992,0.519752,0.241485,0.035143,-0.033131,0.084493,0.065028,-0.496665,-0.865503,-0.013804,-0.003396,0.042017,8.631098,-12.863419,-23.469627,,,,,,,
1530638402.793476,0.074884,0.521087,0.242947,0.142125,0.033097,0.080433,0.064885,-0.497823,-0.864848,0.017619,-0.004741,0.000728,8.679068,-12.920708,-23.570297,,,,,,,
1530638402.813445,0.075575,0.524732,0.243702,0.230562,0.042197,0.037473,0.065345,-0.500981,-0.862988,0.022973,-0.000499,-0.009372,8.585447,-13.077606,-23.476913,,,,,,,
1530638402.833414,0.075451,0.529023,0.243852,0.185633,-0.031626,0.019263,0.065075,-0.504690,-0.860844,0.021411,-0.006052,0.006810,8.525225,-12.972229,-23.475647,,,,,,,
1530638402.853384,0.073191,0.531086,0.244995,0.025777,-0.089374,0.076768,0.063054,-0.506470,-0.859949,0.035411,-0.030288,0.047815,8.665785,-13.135513,-23.758118,,,,,,,
1530638402.873353,0.069999,0.530181,0.247776,-0.085911,-0.098625,0.142633,0.060340,-0.505689,-0.860603,0.032235,-0.035250,0.041801,8.584475,-13.094894,-23.508286,,,,,,,
1530638402.893323,0.067022,0.528577,0.251039,-0.069078,-0.074291,0.135017,0.057832,-0.504305,-0.861587,0.021651,-0.015837,0.010513,8.517096,-12.994865,-23.544235,,,,,,,
1530638402.913292,0.064987,0.528263,0.253530,0.000353,-0.044318,0.107460,0.056089,-0.504034,-0.861861,0.027392,-0.007212,-0.009584,8.530798,-12.930275,-23.316399,,,,,,,
1530638402.933261,0.063333,0.529695,0.255342,0.048762,-0.077312,0.087371,0.054618,-0.505270,-0.861231,0.032403,-0.005823,-0.015676,8.400320,-13.184296,-23.519310,,,,,,,
1530638402.953231,0.060941,0.531336,0.256634,0.021727,-0.135624,0.060413,0.052507,-0.506685,-0.860530,0.030669,-0.006956,-0.011616,8.398108,-13.143784,-23.670753,,,,,,,
1530638402.973200,0.057465,0.531339,0.257395,-0.045153,-0.191711,0.032812,0.049515,-0.506688,-0.860706,0.016007,-0.007121,0.003635,8.346125,-13.300598,-23.668350,,,,,,,
1530638402.993170,0.053871,0.529843,0.257544,-0.093166,-0.184882,0.005318,0.046462,-0.505398,-0.861635,0.006089,-0.014301,0.028703,8.335592,-13.102875,-23.773155,,,,,,,
1530638403.013139,0.051513,0.527742,0.257547,-0.101625,-0.114277,0.012223,0.044485,-0.503584,-0.862800,-0.000677,-0.010637,0.033958,8.279921,-13.091599,-23.825638,,,,,,,
1530638403.033108,0.050037,0.526617,0.257773,-0.026193,-0.090069,0.020159,0.043240,-0.502611,-0.863430,0.020328,-0.004957,-0.004306,8.333780,-13.040688,-23.702927,,,,,,,
1530638403.053078,0.047729,0.527226,0.257804,0.038958,-0.151806,0.005144,0.041232,-0.503138,-0.863222,0.030011,-0.003927,-0.018461,8.304396,-13.162354,-23.611145,,,,,,,
1530638403.073047,0.044682,0.528054,0.257671,0.005454,-0.160584,-0.001010,0.038583,-0.503853,-0.862927,0.005088,-0.002678,0.025540,8.130320,-13.316162,-23.781387,,,,,,,
1530638403.093017,0.042024,0.527918,0.257488,-0.038505,-0.128478,-0.012250,0.036292,-0.503736,-0.863095,-0.012534,-0.005984,0.038220,8.009787,-13.054161,-23.732780,,,,,,,
1530638403.112986,0.040596,0.527392,0.257140,-0.018657,-0.063406,-0.004600,0.035071,-0.503282,-0.863411,-0.000326,-0.004409,0.018028,7.969851,-12.924980,-23.977684,,,,,,,
1530638403.132955,0.040690,0.527677,0.256960,0.044156,-0.000583,0.006897,0.035146,-0.503527,-0.863264,0.004588,-0.007902,-0.007677,7.909098,-12.972885,-24.035645,,,,,,,
1530638403.152925,0.041064,0.529388,0.256565,0.093690,-0.015849,-0.022823,0.035433,-0.505005,-0.862389,0.003797,-0.003921,-0.006492,7.905504,-13.154434,-24.064011,,,,,,,
1530638403.172894,0.040573,0.531260,0.255625,0.064528,-0.062040,-0.046465,0.034971,-0.506620,-0.861460,0.000094,0.000425,0.001414,8.076044,-12.986565,-23.862114,,,,,,,
1530638403.192864,0.039055,0.531907,0.254750,0.003557,-0.116250,-0.026660,0.033651,-0.507178,-0.861184,0.014903,-0.009988,-0.005103,7.987452,-13.062164,-23.815247,,,,,,,
1530638403.212833,0.036526,0.531431,0.254473,-0.035392,-0.139548,-0.008024,0.031481,-0.506768,-0.861508,0.013730,-0.012306,0.002072,7.885004,-13.218582,-24.050125,,,,,,,
1530638403.232802,0.034442,0.530588,0.254064,-0.039446,-0.106303,-0.026157,0.029700,-0.506041,-0.861998,0.001824,-0.002062,0.016051,7.972849,-13.080002,-23.968033,,,,,,,
1530638403.252772,0.033283,0.530358,0.253023,0.017434,-0.076297,-0.057895,0.028705,-0.505842,-0.862148,0.003018,0.009688,-0.007893,7.809492,-13.051361,-24.059578,,,,,,,
1530638403.272741,0.033214,0.531797,0.251152,0.101546,-0.047430,-0.085618,0.028622,-0.507083,-0.861422,0.010975,0.011386,-0.015226,7.815611,-13.461700,-24.099655,,,,,,,
1530638403.292711,0.033989,0.534253,0.248803,0.121518,-0.018690,-0.092164,0.029247,-0.509198,-0.860152,0.006412,0.002881,0.005599,7.840002,-13.322624,-24.005005,,,,,,,
1530638403.312680,0.035306,0.536213,0.246661,0.080537,0.021001,-0.082907,0.030345,-0.510884,-0.859114,0.004308,-0.004558,0.019377,7.908934,-13.200447,-23.988770,,,,,,,
1530638403.332649,0.037188,0.537323,0.244828,0.060522,0.059575,-0.072801,0.031940,-0.511838,-0.858488,0.006207,-0.006289,0.009443,7.911978,-13.174217,-24.043732,,,,,,,
1530638403.352619,0.039320,0.538531,0.243132,0.096130,0.057312,-0.066716,0.033746,-0.512876,-0.857799,0.023810,0.002011,-0.012760,7.892588,-13.238441,-23.979149,,,,,,,
1530638403.372588,0.040870,0.540959,0.241552,0.142232,0.010894,-0.060964,0.035024,-0.514958,-0.856499,0.037287,0.000752,-0.023887,8.076975,-13.279671,-23.834991,,,,,,,
1530638403.392558,0.040922,0.543255,0.239988,0.081447,-0.059717,-0.063892,0.035020,-0.516925,-0.855314,0.012496,-0.005810,0.013166,7.868963,-13.147354,-23.952263,,,,,,,
1530638403.412527,0.040110,0.543489,0.238660,-0.029850,-0.077462,-0.046616,0.034321,-0.517125,-0.855221,0.003597,-0.011928,0.037488,7.953138,-13.278732,-24.010529,,,,,,,
1530638403.432496,0.039357,0.542305,0.238045,-0.054276,-0.047905,-0.009542,0.033702,-0.516111,-0.855858,0.005437,-0.015658,0.018700,7.971285,-13.284172,-23.998215,,,,,,,
1530638403.452466,0.039228,0.542028,0.238010,0.030486,-0.008336,0.011314,0.033596,-0.515875,-0.856005,0.003727,-0.000269,-0.018156,7.945829,-13.341087,-24.001167,,,,,,,
1530638403.472435,0.039631,0.543884,0.237817,0.114549,0.014966,-0.009960,0.033904,-0.517464,-0.855033,-0.003707,0.008690,-0.019890,7.840357,-13.196915,-23.798218,,,,,,,
1530638403.492405,0.040438,0.546392,0.236996,0.102192,0.017370,-0.037858,0.034541,-0.519608,-0.853706,-0.020808,0.008652,0.003975,7.884344,-13.084290,-24.107010,,,,,,,
1530638403.512374,0.041309,0.548105,0.235963,0.061247,0.009617,-0.032069,0.035247,-0.521071,-0.852785,-0.007202,-0.003023,0.002596,7.701239,-13.228340,-23.751617,,,,,,,
1530638403.532344,0.041071,0.548988,0.235684,0.037897,-0.039194,0.003537,0.035026,-0.521824,-0.852334,0.005028,-0.014889,-0.012458,7.986570,-13.550423,-23.832443,,,,,,,
1530638403.552313,0.039593,0.549079,0.236164,0.003069,-0.074704,0.031779,0.033765,-0.521902,-0.852337,-0.003949,-0.014017,0.007122,7.935396,-13.547905,-23.752899,,,,,,,
1530638403.572282,0.037219,0.548564,0.237024,-0.035694,-0.098949,0.027762,0.031750,-0.521463,-0.852683,-0.022275,-0.000083,0.012198,7.930876,-13.717415,-23.737541,,,,,,,
1530638403.592252,0.034780,0.547495,0.237392,-0.063781,-0.107579,-0.000023,0.029690,-0.520550,-0.853315,-0.030591,0.008846,0.003858,7.883585,-13.535667,-23.876610,,,,,,,
1530638403.612221,0.033558,0.546369,0.237070,-0.047932,-0.045654,-0.016070,0.028667,-0.519588,-0.853936,-0.029339,0.006191,0.005532,7.700373,-13.455978,-23.952209,,,,,,,
1530638403.632191,0.033296,0.546471,0.236933,0.021101,-0.019327,0.004887,0.028442,-0.519676,-0.853890,-0.005263,-0.000359,-0.020027,7.793863,-13.511284,-23.622208,,,,,,,
1530638403.652160,0.032238,0.547363,0.237212,0.036807,-0.053581,0.008870,0.027523,-0.520437,-0.853456,-0.010250,-0.000345,-0.026610,7.725821,-13.438721,-23.701843,,,,,,,
1530638403.672130,0.030194,0.547601,0.237307,-0.005999,-0.117447,-0.012549,0.025775,-0.520640,-0.853387,-0.018374,0.005275,-0.010230,7.735685,-13.472488,-23.944206,,,,,,,
1530638403.692099,0.027552,0.546847,0.236634,-0.046613,-0.143691,-0.046755,0.023531,-0.519997,-0.853844,-0.022723,0.004540,0.004540,7.442549,-13.466049,-24.037117,,,,,,,
1530638403.712068,0.025445,0.545812,0.235476,-0.040293,-0.121584,-0.051035,0.021746,-0.519113,-0.854429,-0.018694,-0.001166,0.006147,7.580267,-13.435402,-23.855804,,,,,,,
1530638403.732038,0.024069,0.545354,0.234646,-0.000672,-0.067691,-0.024233,0.020576,-0.518721,-0.854696,-0.006995,-0.013308,0.006430,7.428354,-13.315887,-24.032089,,,,,,,
1530638403.752007,0.023058,0.545805,0.234617,0.037879,-0.043624,0.005670,0.019706,-0.519106,-0.854483,-0.001746,-0.017836,-0.000177,7.545572,-13.469177,-24.078217,,,,,,,
1530638403.771977,0.021573,0.546516,0.235127,0.029344,-0.064722,0.023993,0.018429,-0.519714,-0.854142,0.001423,-0.012970,-0.001800,7.505308,-13.439949,-24.269623,,,,,,,
1530638403.791946,0.019197,0.546773,0.235602,0.001157,-0.118709,0.010017,0.016397,-0.519933,-0.854050,-0.008630,-0.004176,-0.001511,7.546972,-13.516060,-24.212906,,,,,,,
1530638403.811916,0.016662,0.546542,0.235420,-0.021668,-0.131740,-0.020004,0.014234,-0.519736,-0.854208,-0.018354,0.001395,0.008032,7.294092,-13.451401,-24.139168,,,,,,,
1530638403.831885,0.014836,0.546200,0.234922,-0.018558,-0.088712,-0.016595,0.012677,-0.519444,-0.854410,-0.015561,-0.007930,0.009272,7.234957,-13.407417,-24.209427,,,,,,,
1530638403.851855,0.013646,0.546414,0.235045,0.025207,-0.045903,0.016580,0.011659,-0.519627,-0.854314,-0.000840,-0.015270,-0.013728,7.211458,-13.431023,-24.238701,,,,,,,
1530638403.871824,0.012393,0.547629,0.235445,0.073495,-0.055813,0.010623,0.010581,-0.520665,-0.853696,-0.006140,0.000218,-0.024921,7.218370,-13.381081,-24.173256,,,,,,,
1530638403.891793,0.011126,0.549119,0.235149,0.070672,-0.078726,-0.028282,0.009490,-0.521936,-0.852932,-0.018966,0.012094,-0.008290,7.287119,-13.443909,-24.166885,,,,,,,
1530638403.911763,0.009815,0.550480,0.234158,0.060371,-0.088501,-0.050870,0.008365,-0.523096,-0.852233,-0.021289,0.006693,0.000853,7.183744,-13.497284,-24.255951,,,,,,,
1530638403.931732,0.008780,0.551624,0.233056,0.058234,-0.071972,-0.046454,0.007477,-0.524071,-0.851641,-0.017594,-0.001411,0.007281,7.292532,-13.562119,-24.283485,,,,,,,
1530638403.951702,0.008265,0.552632,0.232015,0.057161,-0.045493,-0.044157,0.007034,-0.524929,-0.851117,-0.012863,-0.005481,0.009701,7.029795,-13.477692,-24.289177,,,,,,,
1530638403.971671,0.007688,0.553364,0.231015,0.034090,-0.054319,-0.043955,0.006540,-0.525552,-0.850736,-0.006922,-0.008124,-0.004153,7.123293,-13.424187,-24.135132,,,,,,,
1530638403.991641,0.006769,0.553672,0.230356,0.012933,-0.057782,-0.021094,0.005757,-0.525814,-0.850580,-0.002263,-0.013050,-0.008917,6.986078,-13.337509,-24.257225,,,,,,,
1530638404.011610,0.005378,0.554059,0.230219,0.026445,-0.073344,-0.006217,0.004574,-0.526144,-0.850383,-0.004909,-0.010004,-0.010670,7.091799,-13.630432,-24.248726,,,,,,,
1530638404.031580,0.004032,0.554717,0.229952,0.031811,-0.064410,-0.021329,0.003428,-0.526703,-0.850043,-0.015757,0.000564,-0.001276,7.013987,-13.482719,-24.359291,,,,,,,
1530638404.051549,0.003518,0.555414,0.228994,0.035176,-0.035515,-0.049273,0.002989,-0.527295,-0.849677,-0.020872,0.005093,0.005500,7.031359,-13.507568,-24.174019,,,,,,,
1530638404.071519,0.003896,0.556550,0.227873,0.069699,-0.002475,-0.039772,0.003308,-0.528260,-0.849076,-0.003232,-0.007568,0.000047,6.971853,-13.512978,-24.227325,,,,,,,
1530638404.091488,0.003993,0.558170,0.227305,0.081071,-0.019177,-0.019484,0.003387,-0.529634,-0.848219,0.001222,-0.012373,-0.009935,7.099142,-13.632713,-24.018066,,,,,,,
1530638404.111457,0.003655,0.559308,0.226720,0.041362,-0.030087,-0.036369,0.003098,-0.530600,-0.847617,-0.009873,-0.002146,0.008384,6.930586,-13.676422,-24.232201,,,,,,,
1530638404.131427,0.003103,0.559595,0.226253,0.006545,-0.039088,-0.010155,0.002630,-0.530843,-0.847466,0.002879,-0.008449,0.004876,6.986071,-13.655563,-24.090294,,,,,,,
1530638404.151396,0.001764,0.559538,0.226514,-0.008343,-0.063548,0.015768,0.001495,-0.530795,-0.847499,-0.003860,-0.014325,0.003444,6.904837,-13.721321,-24.289345,,,,,,,
1530638404.171366,0.000702,0.559191,0.226707,-0.021869,-0.035851,0.002026,0.000595,-0.530501,-0.847684,-0.020096,-0.000291,0.015729,6.952288,-13.612892,-24.297523,,,,,,,
1530638404.191335,0.000499,0.559061,0.226599,0.002297,-0.001592,-0.004537,0.000423,-0.530391,-0.847753,-0.008999,-0.004247,0.001058,6.857603,-13.538841,-24.374031,,,,,,,
1530638404.211305,0.000401,0.559484,0.226783,0.021006,0.000469,0.015763,0.000340,-0.530749,-0.847529,-0.007817,-0.009488,-0.006429,6.960703,-13.661659,-24.395531,,,,,,,
1530638404.231274,0.000335,0.559962,0.227086,0.016882,0.001634,0.007187,0.000284,-0.531154,-0.847275,-0.016824,-0.001530,-0.002700,6.886168,-13.634125,-24.230019,,,,,,,
1530638404.251244,0.000130,0.560438,0.227055,0.024357,-0.008191,-0.009120,0.000110,-0.531557,-0.847022,-0.013736,0.003145,-0.005959,6.861071,-13.598068,-24.151596,,,,,,,
1530638404.271213,-0.000417,0.560904,0.226977,0.023270,-0.035825,-0.003849,-0.000353,-0.531952,-0.846774,-0.008192,-0.003403,-0.002133,6.980860,-13.718529,-24.111176,,,,,,,
1530638404.291183,-0.001099,0.561195,0.226779,0.006569,-0.030234,-0.013349,-0.000930,-0.532199,-0.846619,-0.018784,-0.001874,0.014405,6.832006,-13.465942,-24.267921,,,,,,,
1530638404.311152,-0.001228,0.561196,0.226539,0.000243,-0.000450,-0.009903,-0.001040,-0.532199,-0.846619,-0.014311,-0.006543,0.019241,6.755396,-13.582176,-23.989952,,,,,,,
1530638404.331122,-0.001311,0.561131,0.226511,-0.000896,-0.000524,0.000890,-0.001110,-0.532144,-0.846653,-0.008473,-0.009176,0.012775,6.782557,-13.526695,-24.173813,,,,,,,
1530638404.351091,-0.001341,0.560887,0.226563,-0.019755,0.002807,-0.001046,-0.001135,-0.531937,-0.846783,-0.009622,-0.003844,0.012219,6.677378,-13.608795,-24.360687,,,,,,,
1530638404.371061,-0.001413,0.560333,0.226561,-0.030222,-0.001592,-0.003110,-0.001197,-0.531468,-0.847077,-0.011163,-0.003642,-0.000609,6.691980,-13.473724,-24.279312,,,,,,,
1530638404.391030,-0.001728,0.560151,0.226533,-0.003973,-0.015927,-0.006694,-0.001464,-0.531314,-0.847174,-0.008271,-0.004392,-0.010904,6.797464,-13.381332,-24.368568,,,,,,,
1530638404.411000,-0.002020,0.560536,0.226344,0.018076,-0.018117,-0.010178,-0.001710,-0.531640,-0.846969,-0.011595,-0.004600,-0.002931,6.824831,-13.487556,-24.128311,,,,,,,
1530638404.430969,-0.002445,0.560609,0.226285,-0.013483,-0.019295,0.002016,-0.002071,-0.531702,-0.846929,-0.010197,-0.011938,0.014791,6.831888,-13.440163,-24.454887,,,,,,,
1530638404.450939,-0.002973,0.559944,0.226494,-0.043970,-0.017138,0.010977,-0.002519,-0.531139,-0.847281,-0.017775,-0.012089,0.021338,6.852751,-13.378593,-24.429214,,,,,,,
1530638404.470908,-0.003309,0.559036,0.226740,-0.040810,-0.001670,0.008859,-0.002805,-0.530369,-0.847762,-0.012713,-0.006847,0.012542,6.783781,-13.439705,-24.182312,,,,,,,
1530638404.490878,-0.003587,0.558273,0.227232,-0.036754,-0.000687,0.026081,-0.003043,-0.529722,-0.848166,-0.001962,-0.011171,0.000326,6.647863,-13.272301,-24.292213,,,,,,,
1530638404.510847,-0.004272,0.557549,0.227902,-0.050382,-0.022761,0.026120,-0.003625,-0.529108,-0.848547,-0.009330,-0.009359,-0.003352,6.772112,-13.494186,-24.149132,,,,,,,
1530638404.530817,-0.005259,0.556524,0.228347,-0.059687,-0.036997,0.009970,-0.004465,-0.528238,-0.849085,-0.018866,-0.000037,-0.000570,6.678019,-13.314812,-24.159599,,,,,,,
1530638404.550786,-0.006077,0.555624,0.228526,-0.042857,-0.024814,0.003379,-0.005163,-0.527473,-0.849556,-0.012950,-0.004189,-0.003212,6.750387,-13.360878,-24.231400,,,,,,,
1530638404.570755,-0.006405,0.555002,0.228633,-0.032375,-0.004946,0.003362,-0.005443,-0.526945,-0.849882,-0.016377,-0.010088,0.003782,6.692728,-13.321564,-24.279671,,,,,,,
1530638404.590724,-0.006617,0.554437,0.228792,-0.031360,-0.009392,0.007644,-0.005626,-0.526464,-0.850179,-0.018818,-0.006205,0.005223,6.732817,-13.257484,-24.262238,,,,,,,
1530638404.610694,-0.007000,0.553769,0.228691,-0.041652,-0.020264,-0.016027,-0.005954,-0.525897,-0.850528,-0.019330,-0.004010,0.002703,6.734983,-13.253494,-24.090515,,,,,,,
1530638404.630663,-0.007092,0.552748,0.228274,-0.055272,-0.005895,-0.017969,-0.006036,-0.525028,-0.851063,-0.010734,-0.011333,0.004430,6.721609,-13.132347,-24.347969,,,,,,,
1530638404.650633,-0.007503,0.551839,0.228313,-0.046076,-0.019353,0.012066,-0.006389,-0.524254,-0.851538,0.001537,-0.022102,-0.011743,6.560255,-13.200706,-24.356888,,,,,,,
1530638404.670602,-0.008197,0.550868,0.228800,-0.057664,-0.011668,0.018702,-0.006984,-0.523427,-0.852042,-0.016469,-0.017528,-0.002740,6.652010,-13.173111,-24.204247,,,,,,,
1530638404.690573,-0.008545,0.549801,0.228914,-0.050123,-0.013706,-0.006199,-0.007286,-0.522517,-0.852598,-0.015465,-0.003560,-0.007785,6.660212,-13.449196,-24.203697,,,,,,,
1530638404.710541,-0.009186,0.549175,0.228813,-0.029158,-0.042427,-0.004403,-0.007835,-0.521984,-0.852919,0.002799,-0.010075,-0.020249,6.746851,-13.354919,-24.364151,,,,,,,
1530638404.730511,-0.010033,0.548577,0.228833,-0.040765,-0.041380,0.004355,-0.008561,-0.521473,-0.853225,-0.009216,-0.017223,-0.004975,6.633440,-13.062393,-24.355759,,,,,,,
1530638404.750480,-0.010806,0.547966,0.228963,-0.027152,-0.030359,0.006418,-0.009223,-0.520952,-0.853536,-0.012993,-0.013045,-0.003184,6.625216,-13.286537,-24.284309,,,,,,,
1530638404.770450,-0.011448,0.547973,0.229262,0.013700,-0.011641,0.011464,-0.009771,-0.520958,-0.853526,-0.007944,-0.009971,-0.011144,6.538576,-13.211914,-24.190361,,,,,,,
1530638404.790419,-0.011540,0.548452,0.229572,0.027297,0.004884,0.015717,-0.009847,-0.521367,-0.853276,-0.010890,-0.011256,-0.004192,6.578650,-13.382011,-24.528397,,,,,,,
1530638404.810389,-0.011736,0.548853,0.230199,0.010347,0.008058,0.036401,-0.010012,-0.521709,-0.853065,-0.006300,-0.016758,0.007072,6.572016,-13.118996,-24.146889,,,,,,,
1530638404.830358,-0.012698,0.548811,0.231526,-0.011887,-0.027447,0.063432,-0.010833,-0.521673,-0.853077,-0.004105,-0.011668,-0.007076,6.596945,-13.302788,-24.188385,,,,,,,
1530638404.850328,-0.014228,0.548197,0.232970,-0.040129,-0.040627,0.055042,-0.012142,-0.521149,-0.853379,-0.017109,0.001313,0.000505,6.516409,-13.270508,-24.299774,,,,,,,
1530638404.870297,-0.015585,0.547400,0.233825,-0.036728,-0.041515,0.023724,-0.013307,-0.520469,-0.853777,-0.024611,0.012107,-0.008863,6.537462,-13.180435,-24.295631,,,,,,,
1530638404.890267,-0.016179,0.547258,0.233998,0.005399,-0.017083,0.000741,-0.013816,-0.520348,-0.853843,-0.017709,0.011299,-0.015786,6.508776,-13.105026,-24.399437,,,,,,,
1530638404.910236,-0.016172,0.548070,0.233922,0.051591,0.006132,-0.006112,-0.013803,-0.521041,-0.853420,-0.007102,0.006789,-0.014897,6.474081,-13.262672,-24.392227,,,,,,,
1530638404.930206,-0.016042,0.549129,0.233797,0.043221,0.003940,-0.008187,-0.013683,-0.521945,-0.852870,-0.006718,-0.000547,0.001536,6.523066,-13.354431,-24.416496,,,,,,,
1530638404.950175,-0.016416,0.549320,0.233791,-0.004004,-0.019259,-0.003484,-0.014000,-0.522108,-0.852765,-0.008186,-0.008105,0.012173,6.447592,-13.161087,-24.511932,,,,,,,
1530638404.970145,-0.017241,0.548611,0.234005,-0.038732,-0.037016,0.011900,-0.014710,-0.521503,-0.853123,-0.007553,-0.010541,0.007481,6.516024,-13.262695,-24.147202,,,,,,,
1530638404.990114,-0.018203,0.547683,0.234224,-0.039708,-0.038061,0.003281,-0.015540,-0.520711,-0.853592,-0.014474,-0.001338,-0.003342,6.529905,-13.130707,-24.468201,,,,,,,
1530638405.010084,-0.018583,0.547127,0.233980,-0.018583,-0.014750,-0.016250,-0.015869,-0.520236,-0.853875,-0.015167,0.002383,-0.007087,6.428602,-13.049217,-24.188568,,,,,,,
1530638405.030053,-0.018397,0.547333,0.233385,0.022421,0.000783,-0.029554,-0.015709,-0.520412,-0.853771,-0.009651,0.001277,-0.013462,6.546015,-13.151192,-24.147171,,,,,,,
1530638405.050023,-0.018061,0.548304,0.232956,0.049582,0.009518,-0.016857,-0.015413,-0.521241,-0.853270,0.000718,-0.010116,-0.009446,6.519426,-13.189102,-24.422867,,,,,,,
1530638405.069992,-0.017808,0.548977,0.232781,0.015942,0.009459,-0.006792,-0.015190,-0.521815,-0.852924,-0.012993,-0.014867,0.013950,6.545061,-13.283600,-24.277084,,,,,,,
1530638405.089962,-0.017951,0.548669,0.232784,-0.028145,-0.010436,-0.001027,-0.015315,-0.521552,-0.853082,-0.011616,-0.012307,0.005075,6.564054,-13.378067,-24.413956,,,,,,,
1530638405.109931,-0.018284,0.547997,0.232761,-0.027080,-0.010422,-0.003196,-0.015606,-0.520979,-0.853427,-0.010853,-0.004519,-0.008038,6.469336,-13.167793,-24.348297,,,,,,,
1530638405.129901,-0.018436,0.547795,0.232784,0.004322,-0.008274,0.004030,-0.015738,-0.520806,-0.853530,-0.003900,-0.000907,-0.021851,6.557783,-13.378693,-24.160591,,,,,,,
1530638405.149870,-0.018836,0.548365,0.232881,0.031625,-0.014874,-0.000609,-0.016073,-0.521293,-0.853227,-0.005167,-0.001092,-0.022399,6.573034,-13.374474,-24.087212,,,,,,,
1530638405.169840,-0.019256,0.549146,0.232815,0.032729,-0.021453,-0.007122,-0.016424,-0.521959,-0.852813,-0.007349,-0.003340,-0.004121,6.542768,-13.327606,-24.316628,,,,,,,
1530638405.189809,-0.019660,0.549615,0.232795,0.017992,-0.013767,-0.000457,-0.016763,-0.522359,-0.852561,-0.009772,-0.007212,0.012763,6.715090,-13.344803,-24.287415,,,,,,,
1530638405.209780,-0.019799,0.549649,0.232938,-0.004099,0.004952,0.007418,-0.016882,-0.522388,-0.852541,-0.011042,-0.006604,0.018999,6.626520,-13.516083,-24.369171,,,,,,,
1530638405.229749,-0.020018,0.549336,0.233448,-0.014777,-0.005144,0.031211,-0.017072,-0.522121,-0.852701,0.008924,-0.008992,-0.001410,6.460905,-13.207008,-24.371117,,,,,,,
1530638405.249718,-0.021168,0.548772,0.234428,-0.033750,-0.042761,0.044176,-0.018059,-0.521640,-0.852975,0.003105,-0.006222,-0.009117,6.658514,-13.323517,-24.162453,,,,,,,
1530638405.269688,-0.022755,0.547867,0.235219,-0.052464,-0.064700,0.024856,-0.019423,-0.520868,-0.853416,-0.009736,0.005960,-0.009102,6.394148,-13.425362,-24.368332,,,,,,,
1530638405.289657,-0.024046,0.547237,0.235486,-0.023994,-0.046910,0.005225,-0.020532,-0.520330,-0.853719,-0.007284,0.007863,-0.014217,6.547964,-13.265327,-24.416275,,,,,,,
1530638405.309627,-0.024736,0.547368,0.235638,0.015798,-0.020471,0.011396,-0.021120,-0.520442,-0.853636,-0.002195,-0.002370,-0.007143,6.550539,-13.305412,-24.317673,,,,,,,
1530638405.329596,-0.024953,0.547806,0.236058,0.019897,0.010362,0.022286,-0.021299,-0.520816,-0.853403,-0.000063,-0.004163,0.004755,6.558313,-13.517693,-24.407303,,,,,,,
1530638405.349566,-0.025181,0.548064,0.236459,0.008491,-0.008298,0.007222,-0.021491,-0.521036,-0.853264,-0.004418,0.006418,0.000466,6.566301,-13.484673,-24.111801,,,,,,,
1530638405.369535,-0.025407,0.548021,0.236291,0.000267,-0.015880,-0.013223,-0.021684,-0.520999,-0.853282,-0.000929,0.010593,0.001048,6.387583,-13.307175,-24.358574,,,,,,,
1530638405.389505,-0.025498,0.548036,0.235792,0.005566,-0.015838,-0.019746,-0.021762,-0.521012,-0.853272,-0.000226,0.000351,0.002228,6.387980,-13.333015,-24.533691,,,,,,,
1530638405.409474,-0.025751,0.548151,0.235730,0.004268,-0.013838,0.010471,-0.021975,-0.521110,-0.853207,0.009326,-0.010354,0.005566,6.510084,-13.398262,-24.356956,,,,,,,
1530638405.429444,-0.026427,0.548210,0.236223,-0.000003,-0.022735,0.020182,-0.022552,-0.521160,-0.853161,0.001647,-0.005222,0.005825,6.375231,-13.151352,-24.445511,,,,,,,
1530638405.449413,-0.026991,0.547759,0.236616,-0.031457,-0.014993,0.019479,-0.023039,-0.520775,-0.853383,-0.003389,-0.001152,0.022084,6.421591,-13.452385,-24.300972,,,,,,,
1530638405.469383,-0.027503,0.546737,0.237129,-0.059855,-0.011740,0.029500,-0.023491,-0.519903,-0.853902,-0.005836,-0.009150,0.024450,6.390017,-13.415344,-24.377815,,,,,,,
1530638405.489352,-0.027810,0.545237,0.238084,-0.087315,0.020122,0.052597,-0.023774,-0.518620,-0.854674,-0.006652,-0.009303,0.029067,6.402750,-13.182274,-24.535484,,,,,,,
1530638405.509322,-0.028253,0.543165,0.239671,-0.114826,0.011089,0.083045,-0.024184,-0.516848,-0.855735,0.004012,-0.003324,0.011085,6.340170,-12.990204,-24.430901,,,,,,,
1530638405.529291,-0.029268,0.540865,0.241662,-0.119053,-0.007705,0.087312,-0.025087,-0.514877,-0.856897,0.003145,0.000626,-0.014289,6.534155,-13.282623,-24.391785,,,,,,,
1530638405.549261,-0.030600,0.538528,0.243241,-0.123004,-0.032892,0.058113,-0.026265,-0.512873,-0.858062,-0.014018,0.008158,-0.012451,6.408102,-13.319382,-24.267540,,,,,,,
1530638405.569230,-0.031534,0.536189,0.244091,-0.121776,-0.017281,0.035525,-0.027104,-0.510864,-0.859234,-0.010631,0.001907,-0.010013,6.341497,-13.079948,-24.274849,,,,,,,
1530638405.589200,-0.032222,0.534129,0.245037,-0.096747,-0.004161,0.052581,-0.027729,-0.509091,-0.860266,0.001622,-0.006411,-0.017435,6.229116,-12.956528,-24.163536,,,,,,,
1530638405.609170,-0.032626,0.532546,0.246240,-0.073725,0.014563,0.057816,-0.028103,-0.507728,-0.861059,0.004070,-0.005440,-0.010722,6.273703,-12.993652,-24.356194,,,,,,,
1530638405.629139,-0.033290,0.530851,0.247587,-0.090526,-0.007533,0.061124,-0.028704,-0.506267,-0.861899,0.002703,-0.009388,-0.004541,6.331728,-13.052330,-24.460190,,,,,,,
1530638405.649109,-0.034549,0.528515,0.249053,-0.126239,-0.030758,0.068943,-0.029829,-0.504252,-0.863041,-0.004747,-0.012884,0.001591,6.210077,-12.979515,-24.440216,,,,,,,
1530638405.669078,-0.035681,0.525752,0.250543,-0.137788,-0.010893,0.070243,-0.030856,-0.501864,-0.864396,-0.005506,-0.012495,0.000733,6.171083,-12.983185,-24.480888,,,,,,,
1530638405.689048,-0.036309,0.523105,0.252226,-0.125352,0.023205,0.087529,-0.031447,-0.499572,-0.865701,-0.001070,-0.015076,-0.005545,6.217455,-12.946320,-24.520393,,,,,,,
1530638405.709017,-0.036784,0.521067,0.254317,-0.089783,0.027537,0.097958,-0.031895,-0.497806,-0.866702,-0.002834,-0.011166,-0.028730,6.287706,-12.832939,-24.442101,,,,,,,
1530638405.728987,-0.037257,0.519787,0.256238,-0.049761,0.021044,0.077009,-0.032329,-0.496696,-0.867323,-0.014714,0.003760,-0.031756,6.282740,-12.768295,-24.361031,,,,,,,
1530638405.748956,-0.037262,0.519543,0.257280,0.009353,0.036812,0.029000,-0.032338,-0.496484,-0.867444,-0.020946,0.012261,-0.022022,6.234144,-12.738815,-24.331726,,,,,,,
1530638405.768926,-0.036193,0.520435,0.257767,0.056603,0.084327,0.020093,-0.031394,-0.497258,-0.867035,-0.013024,-0.005092,-0.004502,6.132254,-12.810059,-24.419388,,,,,,,
1530638405.788895,-0.034611,0.521600,0.258773,0.056324,0.110589,0.053657,-0.030002,-0.498268,-0.866504,-0.003109,-0.020271,0.006488,6.184580,-12.902954,-24.572685,,,,,,,
1530638405.808865,-0.033544,0.522332,0.260353,0.034185,0.077374,0.068831,-0.029066,-0.498902,-0.866171,-0.002001,-0.009993,-0.002039,6.292028,-12.869812,-24.399155,,,,,,,
1530638405.828835,-0.033469,0.522373,0.261829,-0.003462,0.027792,0.057129,-0.029000,-0.498938,-0.866152,0.000817,0.002707,-0.005903,6.297884,-12.781364,-24.430107,,,,,,,
1530638405.848804,-0.034200,0.522015,0.262918,-0.020100,-0.020663,0.040893,-0.029639,-0.498628,-0.866309,-0.004388,0.002900,-0.007577,6.386919,-12.783226,-24.395569,,,,,,,
1530638405.868774,-0.034919,0.521795,0.263767,-0.003252,0.000366,0.032190,-0.030266,-0.498437,-0.866397,-0.011497,0.000802,0.002750,6.351511,-12.612122,-24.517715,,,,,,,
1530638405.888743,-0.034465,0.522419,0.264451,0.050254,0.062199,0.027604,-0.029862,-0.498978,-0.866100,-0.010238,0.004563,0.009319,6.376036,-12.750595,-24.484024,,,,,,,
1530638405.908713,-0.033319,0.523777,0.265203,0.070125,0.080915,0.033956,-0.028847,-0.500154,-0.865456,0.003227,-0.004454,0.016060,6.320192,-12.820511,-24.470505,,,,,,,
1530638405.928682,-0.032092,0.524398,0.266071,0.009251,0.083101,0.040005,-0.027775,-0.500692,-0.865180,-0.003811,-0.005900,0.032065,6.455854,-12.905075,-24.651321,,,,,,,
1530638405.948652,-0.031150,0.523962,0.266932,-0.033696,0.062175,0.034975,-0.026966,-0.500315,-0.865424,0.000645,-0.004400,0.017294,6.371641,-12.831871,-24.692490,,,,,,,
1530638405.968621,-0.030564,0.523010,0.267592,-0.052475,0.044600,0.023222,-0.026474,-0.499490,-0.865915,-0.004257,-0.000845,0.002008,6.455271,-12.942230,-24.809204,,,,,,,
1530638405.988591,-0.029900,0.521970,0.267954,-0.048217,0.044651,0.015631,-0.025914,-0.498589,-0.866451,-0.001292,-0.000649,-0.001667,6.311113,-12.857002,-24.425659,,,,,,,
1530638406.008560,-0.028992,0.521502,0.268196,-0.015665,0.059030,0.009959,-0.025135,-0.498183,-0.866708,-0.003109,-0.006776,-0.006355,6.480772,-12.982681,-24.600891,,,,,,,
1530638406.028530,-0.027596,0.521557,0.268514,0.004210,0.083274,0.015254,-0.023924,-0.498231,-0.866714,-0.002962,-0.010894,0.001617,6.440542,-12.946030,-24.372780,,,,,,,
1530638406.048500,-0.026243,0.521546,0.269126,-0.006410,0.077646,0.031515,-0.022751,-0.498221,-0.866751,0.003922,-0.012719,0.001883,6.503168,-12.923561,-24.487793,,,,,,,
1530638406.068469,-0.025601,0.521111,0.270144,-0.027515,0.046622,0.048852,-0.022201,-0.497844,-0.866982,0.009048,-0.013539,-0.001868,6.543112,-12.913910,-24.372841,,,,,,,
1530638406.088439,-0.025776,0.520172,0.271330,-0.055835,0.012403,0.050063,-0.022364,-0.497030,-0.867445,-0.005223,-0.007426,0.008726,6.472063,-12.775146,-24.427017,,,,,,,
1530638406.108408,-0.025827,0.518889,0.272292,-0.065182,0.029046,0.038378,-0.022425,-0.495916,-0.868081,-0.015143,0.002950,0.016534,6.403879,-12.659149,-24.462860,,,,,,,
1530638406.128378,-0.025192,0.517973,0.272900,-0.035699,0.060050,0.023118,-0.021885,-0.495120,-0.868549,0.004490,0.014056,0.007709,6.534994,-12.683693,-24.418739,,,,,,,
1530638406.148347,-0.023985,0.517526,0.273342,-0.026255,0.073302,0.022002,-0.020842,-0.494732,-0.868796,0.012664,0.009853,0.016135,6.596334,-12.765862,-24.269722,,,,,,,
1530638406.168317,-0.022740,0.516644,0.273753,-0.062917,0.071141,0.016989,-0.019770,-0.493965,-0.869257,0.010600,0.002983,0.032679,6.505999,-12.713005,-24.617599,,,,,,,
1530638406.188286,-0.021629,0.514585,0.274137,-0.133207,0.068928,0.020968,-0.018827,-0.492173,-0.870294,0.010114,-0.007003,0.036477,6.619680,-12.584084,-24.706482,,,,,,,
1530638406.208256,-0.020507,0.511150,0.275063,-0.188055,0.083032,0.059365,-0.017885,-0.489180,-0.871999,0.006502,-0.016328,0.017568,6.582548,-12.626953,-24.710320,,,,,,,
1530638406.228225,-0.019637,0.507359,0.276592,-0.187116,0.075207,0.073343,-0.017162,-0.485871,-0.873862,0.001064,-0.011276,-0.018594,6.600016,-12.642776,-24.637001,,,,,,,
1530638406.248195,-0.018840,0.503908,0.278133,-0.165101,0.069675,0.074158,-0.016497,-0.482852,-0.875547,-0.003583,-0.007657,-0.039523,6.674444,-12.444359,-24.277519,,,,,,,
1530638406.268165,-0.018613,0.501204,0.279526,-0.127215,0.031134,0.058467,-0.016323,-0.480482,-0.876853,-0.014256,-0.011660,-0.054025,6.636003,-12.648804,-24.593323,,,,,,,
1530638406.288134,-0.018474,0.499389,0.280701,-0.077882,0.042198,0.052601,-0.016217,-0.478889,-0.877725,-0.019565,-0.013786,-0.042929,6.548185,-12.441437,-24.573593,,,,,,,
1530638406.308104,-0.018165,0.498464,0.282129,-0.029828,0.050861,0.074776,-0.015953,-0.478077,-0.878173,-0.014015,-0.023266,-0.038026,6.682695,-12.411758,-24.668625,,,,,,,
1530638406.328073,-0.018163,0.498146,0.284033,-0.012081,0.043053,0.085342,-0.015955,-0.477798,-0.878325,-0.023733,-0.020356,-0.031526,6.746450,-12.327156,-24.596802,,,,,,,
1530638406.348043,-0.018547,0.497684,0.285819,-0.026651,0.012237,0.072407,-0.016296,-0.477392,-0.878539,-0.035385,-0.008753,-0.021607,6.750303,-12.511925,-24.729012,,,,,,,
1530638406.368012,-0.019059,0.497128,0.287094,-0.025418,0.010187,0.049732,-0.016751,-0.476903,-0.878796,-0.030307,-0.003093,-0.021442,6.625002,-12.418320,-24.758469,,,,,,,
1530638406.387982,-0.019192,0.497108,0.288125,0.017614,0.022348,0.045019,-0.016868,-0.476885,-0.878804,-0.019646,-0.003004,-0.034465,6.565290,-12.278648,-24.668930,,,,,,,
1530638406.407951,-0.019519,0.498127,0.289164,0.070092,-0.001921,0.040028,-0.017146,-0.477781,-0.878312,-0.010244,0.001920,-0.044555,6.609865,-12.548950,-24.419571,,,,,,,
1530638406.427921,-0.020211,0.499584,0.289774,0.067170,-0.026019,0.012978,-0.017739,-0.479060,-0.877603,-0.008994,0.003825,-0.013984,6.428370,-12.403656,-24.524368,,,,,,,
1530638406.447890,-0.020924,0.500588,0.289871,0.044239,-0.028101,-0.004044,-0.018355,-0.479941,-0.877109,-0.014467,0.002402,0.014606,6.454676,-12.436409,-24.759628,,,,,,,
1530638406.467860,-0.021039,0.501671,0.289859,0.069366,0.011602,0.000196,-0.018445,-0.480891,-0.876586,0.001950,-0.000905,0.025634,6.650366,-12.593910,-24.425453,,,,,,,
1530638406.487830,-0.020163,0.503208,0.290033,0.087107,0.073356,0.008929,-0.017662,-0.482239,-0.875862,0.009606,0.002106,0.042610,6.719893,-12.624054,-24.469040,,,,,,,
1530638406.507799,-0.018645,0.504580,0.290441,0.055532,0.090937,0.022288,-0.016320,-0.483439,-0.875226,0.024636,0.009624,0.055951,6.628859,-12.608047,-24.509659,,,,,,,
1530638406.527769,-0.017582,0.504683,0.291227,-0.025334,0.063254,0.038125,-0.015389,-0.483530,-0.875192,0.029046,0.010141,0.065943,6.668253,-12.632591,-24.308601,,,,,,,
1530638406.547738,-0.016711,0.503393,0.292080,-0.082974,0.072138,0.033388,-0.014637,-0.482400,-0.875829,0.022892,0.011712,0.075673,6.771700,-12.628174,-24.529694,,,,,,,
1530638406.567709,-0.015030,0.501119,0.292731,-0.140678,0.124028,0.035330,-0.013181,-0.480407,-0.876946,0.021543,-0.004761,0.080087,6.695879,-12.627510,-24.438301,,,,,,,
1530638406.587678,-0.012733,0.497553,0.294590,-0.200094,0.169831,0.119234,-0.011189,-0.477277,-0.878682,0.027058,-0.032748,0.036869,6.939871,-12.442085,-24.603592,,,,,,,
1530638406.607649,-0.011528,0.493215,0.298172,-0.225735,0.115337,0.178563,-0.010154,-0.473460,-0.880757,0.013389,-0.035283,-0.027843,6.750704,-12.232574,-24.734299,,,,,,,
1530638406.627618,-0.012003,0.488577,0.301966,-0.241281,0.039315,0.157869,-0.010598,-0.469370,-0.882938,-0.016334,-0.013601,-0.057217,6.703547,-12.009987,-24.640930,,,,,,,
1530638406.647588,-0.012996,0.484244,0.304939,-0.202180,0.010850,0.121725,-0.011501,-0.465539,-0.884952,-0.037907,-0.002845,-0.065548,6.746016,-12.038750,-24.705246,,,,,,,
1530638406.667557,-0.013517,0.481752,0.307111,-0.093937,0.036406,0.092650,-0.011978,-0.463332,-0.886104,-0.030349,0.000182,-0.044972,6.707628,-12.296982,-24.553787,,,,,,,
1530638406.687526,-0.012942,0.481236,0.309062,-0.003695,0.083903,0.084366,-0.011472,-0.462875,-0.886349,-0.012347,0.010773,-0.011615,6.890745,-12.244270,-24.592354,,,,,,,
1530638406.707496,-0.011578,0.481419,0.310699,0.011140,0.113838,0.064941,-0.010261,-0.463037,-0.886279,-0.004219,0.029519,0.034747,6.694567,-12.078026,-24.454735,,,,,,,
1530638406.727465,-0.009792,0.481601,0.311570,0.020971,0.120795,0.016334,-0.008678,-0.463199,-0.886212,-0.018116,0.058963,0.076260,6.807096,-12.079895,-24.598991,,,,,,,
1530638406.747436,-0.006372,0.482471,0.310744,0.070977,0.193152,-0.073364,-0.005645,-0.463970,-0.885833,-0.004304,0.093197,0.138915,6.738222,-11.896294,-24.485847,,,,,,,
1530638406.767405,0.000095,0.484959,0.308369,0.166800,0.327057,-0.125514,0.000084,-0.466172,-0.884694,0.075233,0.160920,0.217915,7.090590,-12.272751,-24.513451,,,,,,,
1530638406.787374,0.011513,0.490094,0.304353,0.319620,0.578284,-0.225152,0.010157,-0.470709,-0.882230,0.129796,0.258245,0.328351,7.311514,-12.210487,-24.200478,,,,,,,
1530638406.807343,0.031179,0.498132,0.296129,0.456623,0.931917,-0.446010,0.027386,-0.477786,-0.878049,0.144184,0.317339,0.467481,7.746443,-12.486046,-24.001030,,,,,,,
1530638406.827313,0.061943,0.506442,0.281637,0.411480,1.322314,-0.706804,0.054133,-0.485069,-0.872799,0.186941,0.326148,0.567303,8.337584,-12.739052,-23.638557,,,,,,,
1530638406.847282,0.102494,0.511824,0.263207,0.297951,1.760232,-0.812408,0.089204,-0.489768,-0.867277,0.182815,0.363593,0.501585,9.133772,-12.718346,-23.134476,,,,,,,
1530638406.867253,0.151751,0.516758,0.243015,0.449305,2.012214,-0.861342,0.131431,-0.494064,-0.859434,0.099862,0.455566,0.385542,9.905161,-12.552277,-22.592033,,,,,,,
1530638406.887222,0.195494,0.530297,0.217328,1.157988,1.329039,-1.076040,0.167572,-0.505790,-0.846225,0.007737,0.601905,0.210299,10.799860,-12.892746,-22.020737,,,,,,,
1530638406.907192,0.238352,0.555981,0.179381,1.818987,1.035880,-1.496494,0.200541,-0.527777,-0.825370,0.129675,0.651617,0.293235,11.302263,-13.261497,-21.250748,,,,,,,
1530638406.927161,0.312080,0.560681,0.127376,-0.348300,3.573685,-2.496525,0.260029,-0.531763,-0.805985,0.197323,0.647776,0.705796,12.668161,-12.974380,-20.474327,,,,,,,
1530638406.947130,0.411745,0.519403,0.069355,-1.121663,2.921697,-3.319726,0.347428,-0.496362,-0.795562,0.138717,0.698556,0.217620,14.140196,-12.146233,-19.812592,,,,,,,
1530638406.967101,0.483317,0.469923,0.011398,-1.179858,2.121689,-3.365026,0.414345,-0.452817,-0.789477,0.075569,0.644376,0.271136,15.417757,-11.041809,-19.324013,,,,,,,
1530638406.987070,0.562400,0.411046,-0.044196,-1.320004,3.244073,-3.953463,0.488802,-0.399569,-0.775511,-0.203097,0.797976,0.498976,16.718866,-9.781548,-18.168129,,,,,,,
1530638407.007040,0.670175,0.338069,-0.108666,-1.216266,4.882071,-4.884984,0.585965,-0.331666,-0.739352,-0.166806,0.834885,0.542514,18.363176,-8.154610,-17.118385,,,,,,,
1530638407.027009,0.808445,0.250451,-0.174657,-1.014400,6.489173,-5.503853,0.700650,-0.247841,-0.669077,0.133350,0.753807,0.305094,20.185919,-6.320686,-14.763191,,,,,,,
1530638407.046978,0.957917,0.153126,-0.238312,-0.459009,6.856781,-5.849893,0.808423,-0.152528,-0.568495,0.507540,0.716264,-0.196215,21.660513,-4.494453,-12.332870,,,,,,,
1530638407.066947,1.090101,0.049720,-0.298358,0.070567,5.858066,-6.082530,0.885578,-0.049700,-0.461824,0.572003,0.640810,-0.592467,22.325174,-2.245728,-9.720535,,,,,,,
1530638407.086917,1.190882,-0.061793,-0.357299,0.545389,4.659124,-6.411539,0.926923,0.061753,-0.370133,0.517535,0.432372,-0.644240,22.700167,0.190804,-7.505295,,,,,,,
1530638407.106887,1.270890,-0.176878,-0.415250,0.948592,4.231254,-6.335937,0.940458,0.175957,-0.290821,0.740649,0.118232,-0.529461,22.432978,2.637985,-5.673866,,,,,,,
1530638407.126857,1.341798,-0.287992,-0.473724,1.558643,4.255757,-5.917387,0.933785,0.284028,-0.217653,1.091377,-0.068742,-0.552657,21.857149,5.115135,-4.389999,,,,,,,
1530638407.146826,1.400573,-0.386015,-0.541590,2.553719,3.872398,-5.123112,0.913027,0.376500,-0.156937,1.312666,-0.218693,-0.677124,21.137766,7.363510,-3.288628,,,,,,,
1530638407.166795,1.433974,-0.466401,-0.623551,3.350474,3.064133,-4.174547,0.884844,0.449675,-0.121828,1.303632,-0.308104,-0.540877,20.356699,8.636559,-3.024399,,,,,,,
1530638407.186764,1.443229,-0.525093,-0.716120,3.768645,2.520283,-2.972600,0.858246,0.501293,-0.110082,1.326263,-0.571499,-0.233119,19.528517,9.754021,-2.825371,,,,,,,
1530638407.206734,1.444894,-0.558230,-0.807955,3.576273,2.451429,-1.627044,0.841480,0.529685,-0.106507,1.312298,-0.849678,0.177720,19.181376,10.330147,-2.966743,,,,,,,
1530638407.226703,1.451054,-0.564882,-0.884613,2.850340,2.263893,-0.174986,0.838603,0.535316,-0.100899,1.243612,-1.026649,0.491509,19.175814,10.736099,-3.075203,,,,,,,
1530638407.246674,1.465142,-0.548663,-0.917119,0.350088,0.971317,1.044759,0.848464,0.521547,-0.089979,1.105073,-1.038927,1.172254,19.311449,10.874527,-3.039330,,,,,,,
1530638407.266644,1.486853,-0.525194,-0.890382,-1.486585,0.334882,1.375127,0.862180,0.501381,-0.072545,0.691898,-0.827141,0.897313,19.708830,10.314743,-2.511147,,,,,,,
1530638407.286613,1.512339,-0.494249,-0.849975,-1.685135,0.191756,1.807961,0.878821,0.474371,-0.051432,0.602319,-0.450765,0.480922,19.961149,9.821793,-1.866531,,,,,,,
1530638407.306582,1.531274,-0.453919,-0.805568,-2.083852,-0.239157,2.361264,0.898033,0.438491,-0.035511,0.362617,-0.387786,0.530811,20.486513,9.222145,-1.623055,,,,,,,
1530638407.326551,1.557556,-0.399900,-0.756463,-2.070021,0.887163,2.952183,0.921019,0.389327,-0.012195,0.416628,-0.739851,0.440799,21.038301,8.122635,-0.848511,,,,,,,
1530638407.346522,1.603458,-0.332375,-0.723783,-1.307061,2.035854,3.624747,0.944766,0.326289,0.030868,0.351087,-0.364863,0.074890,21.542765,6.516945,0.416992,,,,,,,
1530638407.366491,1.661819,-0.256776,-0.718125,0.140784,3.133877,3.769909,0.963209,0.253963,0.087917,0.160387,-0.142162,-0.533352,21.995070,4.894890,1.752419,,,,,,,
1530638407.386461,1.704109,-0.193152,-0.742929,0.982208,1.557987,2.859238,0.972696,0.191953,0.130446,-0.100030,0.340243,-0.586715,22.031977,3.878044,2.552177,,,,,,,
1530638407.406430,1.709010,-0.157316,-0.768041,1.065454,0.166980,1.429073,0.978233,0.156668,0.136073,-0.213996,0.258936,-0.314295,22.072432,3.538406,3.054298,,,,,,,
1530638407.426399,1.707610,-0.145794,-0.797924,1.542362,0.269803,0.425772,0.980145,0.145278,0.134940,-0.241238,0.281632,-0.333472,22.027887,3.326675,3.116707,,,,,,,
1530638407.446368,1.721606,-0.154251,-0.828479,1.540197,1.406368,-0.623519,0.976911,0.153640,0.148455,-0.563520,0.483384,-0.086184,21.901133,3.531464,3.375427,,,,,,,
1530638407.466338,1.754349,-0.186906,-0.849544,1.134558,1.908000,-1.946594,0.966078,0.185819,0.179345,-0.678816,0.432711,-0.008905,21.261290,4.587517,4.012840,,,,,,,
1530638407.486308,1.788754,-0.247570,-0.857048,0.899403,1.634574,-3.581526,0.946573,0.245049,0.209643,-0.614343,0.664512,-0.118640,20.525362,5.738266,4.662720,,,,,,,
1530638407.506278,1.811720,-0.347119,-0.849497,0.751391,0.604035,-5.724702,0.913197,0.340190,0.224369,-0.859883,0.589406,-0.268345,19.502607,7.483482,5.070908,,,,,,,
1530638407.526247,1.817525,-0.482965,-0.830064,0.815084,-0.455631,-7.337491,0.858802,0.464407,0.216298,-0.767814,0.380198,-0.413960,17.847906,10.013924,4.831558,,,,,,,
1530638407.546216,1.821146,-0.634811,-0.804165,0.770038,-0.380032,-7.731390,0.780083,0.593025,0.199479,-0.515389,0.172218,-0.292023,15.516466,12.585197,4.689468,,,,,,,
1530638407.566186,1.845398,-0.793600,-0.767724,0.723275,0.269807,-8.314470,0.675009,0.712882,0.190163,-0.289312,0.046670,-0.125328,12.630651,14.989281,4.722496,,,,,,,
1530638407.586155,1.896954,-0.969521,-0.712842,1.178167,0.152927,-9.313205,0.535872,0.824615,0.181252,-0.051512,0.047074,-0.083260,9.134848,16.670784,4.390228,,,,,,,
1530638407.606125,1.929492,-1.170656,-0.641287,2.134322,-2.397995,-10.509135,0.364755,0.921006,0.136752,0.416952,0.265639,-0.161212,5.284571,17.989166,3.973824,,,,,,,
1530638407.626094,2.051523,-1.397742,-0.461265,2.230696,-2.457882,-11.910373,0.152675,0.985063,0.079625,0.553151,0.193144,0.010340,0.731108,18.558846,3.067383,,,,,,,
1530638407.646064,-2.009139,-1.470094,1.814323,1.402108,-2.394765,-12.537561,-0.091028,0.994934,0.042670,0.706964,0.224961,0.027948,-4.069700,17.993843,2.932808,,,,,,,
1530638407.666033,-1.681909,-1.226212,2.189150,0.291958,-1.634662,-12.732373,-0.335723,0.941216,0.037457,0.692214,0.401741,0.240512,-8.477995,16.052773,3.121155,,,,,,,
1530638407.686003,-1.660572,-1.007380,2.208375,-1.584575,1.832876,-8.513127,-0.531927,0.845435,0.047883,0.649816,1.300118,0.565261,-11.896534,13.100365,3.701004,,,,,,,
1530638407.705972,-1.628637,-0.985035,2.090593,-4.460533,9.007205,3.598159,-0.551910,0.833291,0.031959,1.184036,0.240729,1.001275,-13.577221,11.958702,2.987839,,,,,,,
1530638407.725942,-1.598137,-1.104540,1.881325,-4.879542,10.852304,6.585013,-0.449377,0.893258,0.012289,0.404150,0.806953,0.257593,-13.201651,12.948311,1.440323,,,,,,,
1530638407.745911,-1.578580,-1.211176,1.711721,-2.308199,6.852084,4.493421,-0.351908,0.936031,0.002739,-0.145589,0.541325,-0.546105,-12.218025,14.450760,-0.077675,,,,,,,
1530638407.765881,-1.565431,-1.272129,1.651028,-0.337597,1.787609,2.282310,-0.294242,0.955730,-0.001579,-0.424004,0.201238,-0.925667,-11.359449,15.151070,-1.087799,,,,,,,
1530638407.785850,-1.533298,-1.297052,1.693203,1.073664,-1.603235,0.722642,-0.270147,0.962766,-0.010135,-0.269831,0.003345,-0.882871,-11.065258,15.543327,-1.117943,,,,,,,
1530638407.805820,-1.475793,-1.296665,1.817410,1.935076,-3.829397,-0.179513,-0.269491,0.962661,-0.025680,-0.169459,-0.103728,-0.661713,-11.014458,15.631638,-1.124298,,,,,,,
1530638407.825790,-1.421535,-1.288342,1.960425,1.924264,-4.072361,-0.004769,-0.275615,0.960374,-0.041447,-0.092351,-0.068834,-0.306163,-10.989912,15.587334,-0.947548,,,,,,,
1530638407.845759,-1.378666,-1.299191,2.071997,1.070953,-2.582242,1.337022,-0.263342,0.963341,-0.051228,-0.075555,-0.106332,-0.026210,-10.779375,15.627892,-0.741081,,,,,,,
1530638407.865729,-1.327552,-1.327614,2.158800,0.718443,-1.185140,1.579402,-0.233704,0.970577,-0.057995,-0.294403,-0.113368,-0.060550,-10.106216,16.185028,-0.395653,,,,,,,
1530638407.885698,-1.253371,-1.344001,2.249437,0.830178,-0.473821,0.718821,-0.213622,0.974392,-0.070182,-0.398194,-0.056698,-0.115410,-9.658607,16.565186,-0.354828,,,,,,,
1530638407.905668,-1.191075,-1.340308,2.318443,0.730063,-0.129228,-0.258827,-0.212180,0.973555,-0.084679,-0.312997,-0.006056,-0.057625,-9.478743,16.591873,-0.930145,,,,,,,
1530638407.925637,-1.173761,-1.324380,2.333858,0.282818,0.292285,-0.849528,-0.224955,0.969793,-0.094324,-0.153875,0.028880,0.057917,-9.594187,16.515633,-1.049782,,,,,,,
1530638407.945607,-1.218632,-1.312444,2.274584,-1.029136,0.774253,-0.723204,-0.239808,0.966812,-0.088125,0.190980,0.063934,0.672690,-9.951439,16.565544,-0.849838,,,,,,,
1530638407.965576,-1.332603,-1.311394,2.142645,-1.785077,0.538774,-0.477927,-0.249261,0.966543,-0.060521,0.269280,0.122385,0.535252,-10.077057,16.338669,-0.589470,,,,,,,
1530638407.985546,-1.454323,-1.307247,2.012215,-1.418443,0.026897,-0.544697,-0.258744,0.965472,-0.030274,0.122117,0.133528,0.065750,-10.354963,16.226517,0.052872,,,,,,,
1530638408.005515,-1.531090,-1.297411,1.936753,-0.697962,-0.293485,-0.543143,-0.269780,0.962862,-0.010717,0.066334,0.080503,-0.193674,-10.439795,15.933807,0.356659,,,,,,,
1530638408.025485,-1.564706,-1.290103,1.908413,-0.222115,-0.308882,-0.254929,-0.277017,0.960864,-0.001687,0.092507,-0.026232,-0.203376,-10.624226,15.778824,0.673546,,,,,,,
1530638408.045454,-1.572198,-1.288639,1.906245,0.072495,-0.252293,0.008595,-0.278427,0.960457,0.000390,0.093994,-0.046425,-0.183938,-10.585472,15.500496,0.836922,,,,,,,
1530638408.065424,-1.561883,-1.289456,1.921837,0.301921,-0.232690,0.036441,-0.277631,0.960684,-0.002475,0.085813,-0.028937,-0.135022,-10.597326,15.636688,0.653297,,,,,,,
1530638408.085394,-1.537671,-1.289498,1.952804,0.495176,-0.326345,0.001569,-0.277450,0.960696,-0.009194,0.132827,0.011777,0.018746,-10.471340,15.570778,0.520950,,,,,,,
1530638408.105363,-1.514658,-1.289689,1.986804,0.396139,-0.590588,0.064986,-0.276981,0.960749,-0.015566,0.194828,0.039724,0.277254,-10.572481,15.693649,0.614609,,,,,,,
1530638408.125333,-1.520877,-1.292534,1.994378,-0.114561,-0.676330,0.196208,-0.274342,0.961534,-0.013706,0.193852,0.030272,0.359119,-10.372225,15.808121,1.011810,,,,,,,
1530638408.145302,-1.560523,-1.296841,1.963832,-0.566496,-0.382456,0.184108,-0.270527,0.962708,-0.002779,0.108341,0.023940,0.204546,-10.404837,15.831078,1.406639,,,,,,,
1530638408.165272,-1.607873,-1.298549,1.916853,-0.627240,0.072305,0.034881,-0.268711,0.963169,0.009967,0.037907,0.017010,0.018124,-10.421989,15.713112,1.319077,,,,,,,
1530638408.185241,-1.637384,-1.297500,1.877979,-0.455793,0.577265,-0.041089,-0.269308,0.962886,0.017959,0.032614,0.024846,-0.033096,-10.507183,15.580032,1.350410,,,,,,,
1530638408.205211,-1.649511,-1.296695,1.851254,-0.324141,0.673978,0.015132,-0.269843,0.962669,0.021285,0.051185,0.032098,-0.036803,-10.599461,15.592941,1.381393,,,,,,,
1530638408.225180,-1.663112,-1.297502,1.827216,-0.332099,0.323453,0.099811,-0.268756,0.962887,0.024881,0.052722,0.036152,-0.024622,-10.710657,15.682472,1.438515,,,,,,,
1530638408.245150,-1.690065,-1.299821,1.798743,-0.393543,-0.150715,0.187696,-0.265770,0.963510,0.031849,0.023643,0.040900,0.002010,-10.749655,15.848503,1.586281,,,,,,,
1530638408.265119,-1.729216,-1.303420,1.765557,-0.416132,-0.457029,0.265195,-0.260893,0.964467,0.041680,-0.016390,0.041255,0.032325,-10.544353,15.736710,1.750824,,,,,,,
1530638408.285089,-1.773099,-1.307498,1.730626,-0.424668,-0.511251,0.284436,-0.254958,0.965537,0.052294,-0.053147,0.053171,0.072355,-10.527462,15.469215,2.182701,,,,,,,
1530638408.305059,-1.820486,-1.311073,1.690645,-0.512776,-0.394202,0.283781,-0.248848,0.966461,0.063459,-0.051536,0.057678,0.115603,-10.293392,15.465271,2.288612,,,,,,,
1530638408.325028,-1.879375,-1.313404,1.637073,-0.711247,-0.352412,0.316295,-0.242536,0.967057,0.077311,-0.013736,0.049316,0.125219,-10.238585,15.564079,2.579216,,,,,,,
1530638408.344998,-1.959574,-1.314415,1.562249,-0.985755,-0.441341,0.418024,-0.234658,0.967314,0.096122,0.032723,0.065691,0.135781,-10.069437,15.666969,3.240700,,,,,,,
1530638408.364967,-2.068124,-1.313875,1.461537,-1.271364,-0.633462,0.597018,-0.223322,0.967177,0.121227,0.074030,0.124376,0.166981,-9.714367,15.361855,3.576256,,,,,,,
1530638408.384937,-2.197982,-1.310805,1.341019,-1.434056,-0.646570,0.744290,-0.208147,0.966392,0.150868,0.073915,0.165184,0.208996,-9.499968,15.151794,4.051918,,,,,,,
1530638408.404906,-2.325812,-1.305407,1.217269,-1.350954,-0.218875,0.830668,-0.191012,0.964990,0.179744,0.067934,0.092199,0.128469,-9.196110,15.176552,4.716957,,,,,,,
1530638408.424876,-2.422820,-1.298414,1.112043,-1.150830,0.506100,0.704762,-0.177143,0.963133,0.202473,-0.018581,0.082125,0.025921,-9.045593,15.160446,5.012360,,,,,,,
1530638408.444845,-2.479202,-1.288948,1.034371,-0.971173,1.099904,0.391865,-0.171051,0.960543,0.219313,-0.104065,-0.040804,-0.167936,-9.089922,15.212952,5.448715,,,,,,,
1530638408.464815,-2.505968,-1.276750,0.985143,-0.920374,0.845910,0.083797,-0.172064,0.957079,0.233223,-0.064600,-0.109163,-0.254265,-9.212811,15.154945,5.458397,,,,,,,
1530638408.484784,-2.545123,-1.258423,0.939174,-1.311805,-0.138175,0.014203,-0.172628,0.951607,0.254251,0.045461,-0.056557,-0.051157,-9.235792,15.003082,5.800880,,,,,,,
1530638408.504754,-2.598234,-1.234100,0.890681,-1.445792,-0.334451,-0.011207,-0.170806,0.943851,0.282789,-0.020722,-0.032337,0.066576,-9.268120,14.591248,6.296623,,,,,,,
1530638408.524723,-2.632280,-1.213745,0.856487,-0.946813,0.039517,0.002538,-0.170415,0.936931,0.305153,-0.036052,-0.086529,0.011482,-9.230276,14.554085,6.841469,,,,,,,
1530638408.544693,-2.648516,-1.206333,0.839373,-0.188786,-0.160493,0.155269,-0.168721,0.934315,0.313989,0.023472,-0.160984,-0.090051,-9.222919,14.466904,6.703529,,,,,,,
1530638408.564663,-2.670657,-1.211632,0.829357,0.300599,-0.931394,0.344780,-0.159479,0.936191,0.313230,0.105478,-0.179584,-0.092679,-9.000437,14.562088,7.001801,,,,,,,
1530638408.584632,-2.701695,-1.221425,0.819870,0.365606,-1.092622,0.349777,-0.145771,0.939588,0.309718,0.105259,-0.150999,0.038609,-8.635653,14.283195,6.749611,,,,,,,
1530638408.604602,-2.722031,-1.227770,0.813467,0.140714,-0.418772,0.134327,-0.137011,0.941741,0.307167,0.058596,-0.121184,0.141945,-8.443411,14.243134,7.013512,,,,,,,
1530638408.624571,-2.718605,-1.225686,0.815764,-0.212188,0.293484,-0.201442,-0.138868,0.941038,0.308485,0.015104,-0.097700,0.164629,-8.355457,14.079460,7.089012,,,,,,,
1530638408.644541,-2.702372,-1.215823,0.825010,-0.457907,0.359100,-0.419602,-0.147796,0.937656,0.314575,0.011551,-0.104907,0.096344,-8.544090,13.979507,7.080193,,,,,,,
1530638408.664510,-2.686972,-1.203034,0.836906,-0.474200,0.118825,-0.473437,-0.157877,0.933134,0.323010,-0.000326,-0.147810,0.064013,-8.881132,13.643982,7.298309,,,,,,,
1530638408.684480,-2.677824,-1.192742,0.847855,-0.291630,-0.155857,-0.350521,-0.165112,0.929385,0.330125,-0.011936,-0.207797,0.072051,-8.984985,13.353256,7.324814,,,,,,,
1530638408.704449,-2.677208,-1.188670,0.854701,-0.026111,-0.343040,-0.113741,-0.167009,0.927874,0.333404,-0.042509,-0.264315,0.113587,-8.993542,13.120216,7.463982,,,,,,,
1530638408.724419,-2.682894,-1.191580,0.856170,0.255092,-0.346983,0.123751,-0.163915,0.928955,0.331926,-0.040172,-0.278244,0.162108,-8.806520,12.927681,7.413513,,,,,,,
1530638408.744388,-2.688765,-1.202149,0.858182,0.646459,-0.439457,0.228060,-0.157658,0.932816,0.324035,0.023915,-0.213364,0.145478,-8.843561,12.921310,7.479790,,,,,,,
1530638408.764358,-2.692241,-1.219525,0.867261,0.945343,-0.714467,0.233256,-0.149467,0.938936,0.309933,0.115013,-0.107363,0.155902,-8.609919,12.723190,7.295860,,,,,,,
1530638408.784328,-2.696543,-1.238422,0.881067,0.916536,-0.924867,0.169990,-0.140468,0.945270,0.294505,0.205791,0.046246,0.259877,-8.300947,12.453308,7.148697,,,,,,,
1530638408.804297,-2.700852,-1.252823,0.894428,0.606821,-0.751942,0.081377,-0.133376,0.949871,0.282764,0.251372,0.148686,0.319363,-8.172474,12.542656,7.237045,,,,,,,
1530638408.824267,-2.705463,-1.258329,0.899615,0.063955,-0.292165,0.027905,-0.129859,0.951578,0.278632,0.239784,0.162375,0.357172,-7.955080,12.182663,6.810440,,,,,,,
1530638408.844236,-2.713317,-1.252842,0.890584,-0.508515,0.231450,0.003105,-0.129834,0.949877,0.284389,0.182934,0.128309,0.421406,-8.040092,11.675629,7.138962,,,,,,,
1530638408.864206,-2.720135,-1.242659,0.872199,-0.521070,0.699835,0.116584,-0.131841,0.946644,0.294078,0.058752,-0.009785,0.398274,-8.154276,11.299644,7.193649,,,,,,,
1530638408.884175,-2.719537,-1.243317,0.854643,0.238176,0.896558,0.367203,-0.131763,0.946856,0.293431,-0.029691,-0.127108,0.189403,-8.418119,11.072067,6.931656,,,,,,,
1530638408.904145,-2.705987,-1.260948,0.853879,1.114340,0.538991,0.310837,-0.128662,0.952380,0.276440,-0.129960,-0.109713,-0.002926,-8.369265,10.919250,6.625130,,,,,,,
1530638408.924114,-2.655093,-1.289085,0.903640,1.846927,-0.034608,-0.265967,-0.129975,0.960581,0.245745,-0.369400,0.092474,-0.214587,-8.503189,10.998146,6.182465,,,,,,,
1530638408.944084,-2.543106,-1.317907,1.024452,2.063022,-0.365603,-0.781086,-0.140962,0.968194,0.206714,-0.465575,0.163734,-0.111041,-8.590664,10.760025,5.710091,,,,,,,
1530638408.964053,-2.447601,-1.329178,1.144885,0.703444,-1.615656,-0.815754,-0.153043,0.970952,0.183930,-0.449390,0.162166,0.451964,-8.562357,10.489204,5.403999,,,,,,,
1530638408.984023,-2.431101,-1.323121,1.198923,0.208907,-1.604759,-0.611985,-0.159889,0.969485,0.185835,-0.454521,0.146085,0.276384,-8.349773,10.055565,5.576492,,,,,,,
1530638409.003993,-2.387490,-1.329487,1.271876,1.232372,-1.413683,-0.355581,-0.163610,0.971026,0.174185,-0.324229,-0.086474,-0.411551,-8.077446,9.649345,5.491829,,,,,,,
1530638409.023962,-2.305787,-1.349479,1.393220,1.885744,-2.056225,-0.217889,-0.162845,0.975609,0.147203,-0.146558,-0.198387,-0.708452,-7.722435,9.600510,5.486794,,,,,,,
1530638409.043932,-2.195236,-1.370842,1.552383,1.965660,-2.319945,-0.238352,-0.161142,0.980076,0.116124,-0.040961,-0.273121,-0.571675,-7.249491,9.661636,5.239388,,,,,,,
1530638409.063901,-2.062854,-1.385175,1.734785,1.771740,-2.335485,-0.376565,-0.162662,0.982822,0.087192,0.024921,-0.271716,-0.443806,-6.643988,9.330505,4.970139,,,,,,,
,,,,,,,,,,,,,,,,39.779216,-84.064353,293.011536,-1.000000,-1.000000,1530638409.043310,
1530638409.083871,-1.936126,-1.388504,1.909474,1.339455,-2.188022,-0.608517,-0.169321,0.983431,0.064765,0.070506,-0.168444,-0.336769,-6.290415,9.299332,5.103722,,,,,,,
1530638409.103840,-1.856020,-1.378706,2.031613,0.637573,-1.851958,-0.962876,-0.183198,0.981607,0.053717,0.103807,0.057669,-0.256888,-5.936077,8.921448,4.833191,,,,,,,
1530638409.123810,-1.841204,-1.357614,2.075175,-0.164857,-1.062860,-1.214751,-0.203884,0.977363,0.056516,0.189022,0.279458,-0.196118,-5.821426,8.619392,4.902077,,,,,,,
