timestamp(unix),attitude_roll(radians),attitude_pitch(radians),attitude_yaw(radians),rotation_rate_x(radians/s),rotation_rate_y(radians/s),rotation_rate_z(radians/s),gravity_x(G),gravity_y(G),gravity_z(G),user_acc_x(G),user_acc_y(G),user_acc_z(G),magnetic_field_x(microteslas),magnetic_field_y(microteslas),magnetic_field_z(microteslas),latitude(degree),longitude(degree),altitude(meter),speed(m/s),course(degree),timestamp(unix),User Mark
,,,,,,,,,,,,,,,,39.779514,-84.063697,291.458706,0.000000,-1.000000,1530640532.000124,
,,,,,,,,,,,,,,,,39.779514,-84.063697,291.458706,0.000000,-1.000000,1530640540.000124,
1530640553.274150,0.151583,0.417827,-2.183719,-0.162477,0.691203,0.387858,0.138013,-0.405775,-0.903492,-0.011197,0.003828,-0.018474,1.811264,-6.394981,-20.608246,,,,,,,
1530640553.294119,0.159060,0.415266,-2.174383,-0.228790,0.485652,0.423164,0.144928,-0.403434,-0.903458,0.017090,-0.072717,-0.001526,1.921753,-6.207649,-20.904945,,,,,,,
1530640553.314087,0.161907,0.411372,-2.163197,-0.295460,0.309607,0.501759,0.147752,-0.399867,-0.904585,0.058165,-0.072316,0.008315,2.026112,-6.411850,-20.859886,,,,,,,
1530640553.334056,0.161798,0.406960,-2.150604,-0.293705,0.233133,0.545590,0.147936,-0.395820,-0.906334,0.046644,-0.048699,0.019844,2.084843,-6.329933,-20.825119,,,,,,,
,,,,,,,,,,,,,,,,39.779514,-84.063697,291.458710,-1.000000,-1.000000,1530640553.330484,
,,,,,,,,,,,,,,,,39.779514,-84.063697,291.458710,-1.000000,-1.000000,1530640553.337287,
1530640553.354025,0.161349,0.403651,-2.137877,-0.220303,0.248561,0.545964,0.147738,-0.392778,-0.907688,0.024335,-0.049254,0.027073,1.865135,-6.249786,-20.896721,,,,,,,
1530640553.373994,0.161235,0.402612,-2.126033,-0.114143,0.211196,0.516607,0.147701,-0.391823,-0.908107,0.033101,-0.073372,-0.006169,1.870205,-6.013397,-21.207787,,,,,,,
1530640553.393963,0.161450,0.403643,-2.115427,-0.022551,0.219199,0.472529,0.147831,-0.392771,-0.907676,0.041363,-0.073019,-0.004204,1.846863,-6.096626,-21.392548,,,,,,,
,,,,,,,,,,,,,,,,39.779514,-84.063697,291.458710,-1.000000,-1.000000,1530640553.383944,
,,,,,,,,,,,,,,,,39.779514,-84.063697,291.458710,-1.000000,-1.000000,1530640553.389282,
1530640553.413931,0.163309,0.405279,-2.106555,-0.005120,0.257286,0.391639,0.149413,-0.394275,-0.906765,0.030930,-0.065854,0.028179,1.922520,-6.087593,-21.353867,,,,,,,
1530640553.433900,0.165588,0.406541,-2.098975,-0.019301,0.249987,0.330277,0.151398,-0.395435,-0.905930,0.049576,-0.067670,0.016953,2.074852,-6.176949,-21.216400,,,,,,,
1530640553.453869,0.167502,0.406823,-2.092905,-0.072056,0.173333,0.243111,0.153113,-0.395693,-0.905529,0.042932,-0.052152,0.001232,2.035748,-6.204849,-21.314415,,,,,,,
1530640553.473838,0.168302,0.406487,-2.088412,-0.063202,0.101959,0.187666,0.153859,-0.395385,-0.905537,0.045162,-0.053132,-0.023021,1.984161,-5.983101,-21.153465,,,,,,,
1530640553.493807,0.169525,0.406948,-2.084625,-0.014838,0.152837,0.171221,0.154936,-0.395809,-0.905168,0.038637,-0.048710,-0.010512,2.104118,-6.085960,-21.470993,,,,,,,
1530640553.513775,0.170659,0.407801,-2.081625,0.002322,0.099056,0.125476,0.155905,-0.396591,-0.904659,0.021769,-0.019180,-0.033482,2.249142,-5.950577,-21.426018,,,,,,,
1530640553.533744,0.173278,0.408596,-2.079320,0.008664,0.191840,0.117231,0.158219,-0.397321,-0.903937,0.025299,-0.034899,0.004767,2.152554,-6.236122,-21.384422,,,,,,,
1530640553.553713,0.174272,0.409618,-2.074499,-0.011502,0.104631,0.277725,0.159047,-0.398259,-0.903379,0.055156,0.012044,0.006330,2.136215,-5.961823,-21.644577,,,,,,,
1530640553.573682,0.172267,0.410383,-2.067248,-0.052501,-0.027720,0.422045,0.157183,-0.398961,-0.903395,0.038649,-0.017543,0.015990,2.009941,-6.158806,-21.292831,,,,,,,
1530640553.593651,0.163703,0.409565,-2.054175,-0.202250,-0.267761,0.659761,0.149494,-0.398210,-0.905030,0.099652,0.032564,0.054246,1.780479,-5.813766,-20.701759,,,,,,,
1530640553.613619,0.149004,0.406642,-2.038463,-0.302128,-0.521889,0.697349,0.136348,-0.395528,-0.908276,0.079091,-0.019420,0.001294,1.623123,-5.736847,-21.576546,,,,,,,
1530640553.633588,0.133121,0.402217,-2.022278,-0.325570,-0.454845,0.741061,0.122135,-0.391460,-0.912053,0.050762,-0.106114,-0.010188,1.106956,-5.627518,-21.785538,,,,,,,
1530640553.653557,0.120109,0.398473,-2.005297,-0.263884,-0.282782,0.759567,0.110433,-0.388012,-0.915014,0.014399,-0.099934,-0.007914,0.885601,-5.772522,-21.502960,,,,,,,
1530640553.673526,0.107961,0.395733,-1.989187,-0.197292,-0.332041,0.696063,0.099424,-0.385484,-0.917342,-0.017271,-0.035536,-0.002702,0.527920,-5.618446,-21.703117,,,,,,,
,,,,,,,,,,,,,,,,39.779223,-84.064377,292.516174,-1.000000,-1.000000,1530640553.665890,
1530640553.693495,0.096412,0.394061,-1.976146,-0.116424,-0.411675,0.554611,0.088884,-0.383941,-0.919069,-0.024462,0.004562,0.003313,0.042915,-5.478592,-22.097099,,,,,,,
1530640553.713463,0.086431,0.395105,-1.968230,0.067459,-0.327938,0.249988,0.079673,-0.384905,-0.919510,-0.058494,0.007311,-0.035385,-0.103230,-5.542694,-21.797516,,,,,,,
1530640553.733432,0.083516,0.399511,-1.968111,0.247122,-0.055422,-0.055833,0.076850,-0.388968,-0.918040,-0.069876,-0.000131,-0.035101,-0.151825,-5.648018,-21.909424,,,,,,,
1530640553.753401,0.084745,0.405043,-1.969914,0.256435,0.027277,-0.042592,0.077795,-0.394058,-0.915787,-0.001638,0.036163,-0.019958,0.027714,-5.706375,-21.918381,,,,,,,
1530640553.773370,0.084124,0.408184,-1.970548,0.099917,-0.093245,-0.006995,0.077122,-0.396943,-0.914597,0.006359,-0.007445,0.005219,-0.026337,-5.744225,-21.940628,,,,,,,
1530640553.793339,0.080735,0.408160,-1.970317,-0.027116,-0.149638,0.012426,0.074022,-0.396921,-0.914862,-0.010942,-0.025839,0.025580,-0.262226,-5.812592,-21.869354,,,,,,,
1530640553.813308,0.077758,0.407083,-1.969508,-0.051266,-0.075679,0.014116,0.071332,-0.395932,-0.915505,-0.023389,0.003034,0.024773,-0.236671,-5.647980,-21.975250,,,,,,,
1530640553.833276,0.075509,0.405674,-1.969819,-0.044490,-0.145934,-0.043455,0.069315,-0.394638,-0.916218,-0.044138,0.017105,0.006428,-0.359798,-5.665154,-21.992317,,,,,,,
1530640553.853245,0.072903,0.405769,-1.971740,0.065095,-0.173126,-0.107313,0.066924,-0.394725,-0.916358,-0.044509,0.018932,0.001197,-0.437008,-5.907990,-22.105301,,,,,,,
1530640553.873214,0.071227,0.409232,-1.974865,0.223721,-0.132091,-0.142238,0.065290,-0.397905,-0.915100,-0.040052,0.001527,-0.010376,-0.322037,-5.942368,-22.132576,,,,,,,
1530640553.893183,0.070147,0.414490,-1.978037,0.279017,-0.106955,-0.108195,0.064154,-0.402724,-0.913070,-0.018622,-0.018343,0.007217,-0.321308,-6.155434,-21.705978,,,,,,,
1530640553.913152,0.067778,0.419991,-1.979169,0.289630,-0.137553,0.005869,0.061840,-0.407752,-0.910996,0.008686,-0.031457,-0.001358,-0.444939,-6.210854,-21.696312,,,,,,,
1530640553.933120,0.063911,0.425484,-1.977672,0.280343,-0.140519,0.115963,0.058173,-0.412762,-0.908979,0.017846,-0.032276,-0.002307,-0.425064,-6.274681,-21.736977,,,,,,,
1530640553.953089,0.059811,0.430820,-1.974468,0.255760,-0.123239,0.172390,0.054314,-0.417616,-0.906998,0.006233,-0.016771,-0.003692,-0.518993,-6.300224,-21.787262,,,,,,,
1530640553.973058,0.055438,0.435175,-1.970581,0.180120,-0.129955,0.189344,0.050246,-0.421569,-0.905403,-0.016890,0.007858,0.001396,-0.674290,-6.562691,-21.502846,,,,,,,
1530640553.993027,0.051176,0.438043,-1.966472,0.103469,-0.114555,0.201019,0.046324,-0.424168,-0.904397,-0.056547,0.021504,0.003335,-0.745102,-6.672882,-21.527588,,,,,,,
1530640554.012996,0.048035,0.440247,-1.962205,0.099246,-0.062687,0.203475,0.043438,-0.426163,-0.903603,-0.056484,0.027542,0.004738,-0.765316,-6.741158,-21.467842,,,,,,,
1530640554.032965,0.045959,0.443555,-1.958246,0.200034,-0.008518,0.187558,0.041497,-0.429153,-0.902277,-0.049050,0.035538,0.002115,-0.768734,-6.869057,-21.565773,,,,,,,
1530640554.052933,0.044419,0.449430,-1.954748,0.346049,-0.012769,0.156860,0.039995,-0.434452,-0.899806,-0.034486,0.033268,-0.012243,-0.885437,-6.858116,-21.506500,,,,,,,
1530640554.072902,0.042082,0.457031,-1.952353,0.394903,-0.065261,0.082748,0.037752,-0.441286,-0.896571,-0.033586,0.022585,0.004619,-0.923027,-7.084862,-21.350899,,,,,,,
1530640554.092871,0.039384,0.463624,-1.951951,0.301339,-0.132991,-0.015808,0.035217,-0.447193,-0.893743,-0.035217,0.016590,0.013616,-0.954758,-7.191406,-21.189445,,,,,,,
1530640554.112840,0.035864,0.467621,-1.952890,0.182036,-0.204512,-0.043999,0.032006,-0.450764,-0.892068,-0.045648,0.011250,0.005136,-1.049362,-7.305420,-21.283592,,,,,,,
1530640554.132809,0.031682,0.470146,-1.953422,0.139804,-0.203636,-0.009033,0.028239,-0.453017,-0.891054,-0.054286,0.000654,-0.000486,-1.181370,-7.293602,-21.013428,,,,,,,
1530640554.152778,0.027577,0.472945,-1.953062,0.169850,-0.175248,0.035002,0.024547,-0.455510,-0.889891,-0.061504,-0.003215,0.018752,-1.300562,-7.522797,-21.136787,,,,,,,
1530640554.172746,0.023445,0.475858,-1.951512,0.106556,-0.172234,0.080992,0.020838,-0.458102,-0.888655,-0.035548,-0.001798,0.025114,-1.383280,-7.578384,-20.991013,,,,,,,
1530640554.192715,0.017610,0.475572,-1.949125,-0.082457,-0.247466,0.113920,0.015655,-0.457847,-0.888893,-0.019897,-0.030968,0.022758,-1.543880,-7.443359,-21.282303,,,,,,,
1530640554.212684,0.011636,0.471996,-1.945852,-0.231590,-0.180255,0.139562,0.010364,-0.454665,-0.890602,-0.020404,-0.034181,0.027488,-1.643173,-7.210266,-21.009468,,,,,,,
1530640554.232653,0.006329,0.465843,-1.942617,-0.357298,-0.185623,0.123619,0.005655,-0.449176,-0.893425,-0.013360,-0.006940,0.022392,-1.611847,-7.227905,-21.189430,,,,,,,
1530640554.252622,-0.000261,0.458344,-1.940171,-0.388447,-0.315635,0.088814,-0.000234,-0.442464,-0.896786,-0.016779,0.008641,-0.016804,-1.969936,-6.882286,-21.388199,,,,,,,
1530640554.272591,-0.007090,0.452149,-1.938336,-0.285657,-0.263756,0.084730,-0.006377,-0.436900,-0.899487,-0.007646,0.014537,-0.024509,-1.941053,-6.835541,-21.262077,,,,,,,
1530640554.292560,-0.011830,0.448173,-1.936496,-0.206993,-0.148943,0.080131,-0.010662,-0.433319,-0.901177,-0.002690,0.011109,-0.011772,-2.116989,-6.805130,-21.382896,,,,,,,
1530640554.312528,-0.014109,0.443953,-1.935060,-0.250864,-0.042787,0.056304,-0.012740,-0.429512,-0.902971,-0.005204,0.003411,0.005189,-2.239594,-6.650764,-21.408592,,,,,,,
1530640554.332497,-0.014973,0.438050,-1.934266,-0.321989,-0.029359,0.033401,-0.013559,-0.424174,-0.905478,-0.012259,0.010051,0.023765,-2.372673,-6.506516,-21.468925,,,,,,,
1530640554.352466,-0.016325,0.432124,-1.933479,-0.260209,-0.065892,0.045507,-0.014824,-0.418801,-0.907957,-0.003059,-0.002891,0.004484,-2.330606,-6.552742,-21.302834,,,,,,,
1530640554.372435,-0.018600,0.428522,-1.932368,-0.134483,-0.100256,0.060178,-0.016917,-0.415527,-0.909423,-0.015630,-0.005646,-0.003632,-2.301008,-6.381599,-21.556152,,,,,,,
1530640554.392404,-0.021342,0.427006,-1.931023,-0.056887,-0.116849,0.061431,-0.019424,-0.414148,-0.910002,-0.013672,0.000787,0.000517,-2.405226,-6.493088,-21.758568,,,,,,,
1530640554.412373,-0.023936,0.426433,-1.929671,-0.020175,-0.076000,0.059075,-0.021790,-0.413626,-0.910186,0.006531,-0.005258,-0.012391,-2.428623,-6.422424,-21.715622,,,,,,,
1530640554.432342,-0.024953,0.426235,-1.928985,-0.011405,-0.011641,0.010758,-0.022718,-0.413446,-0.910245,0.002516,0.007180,-0.023974,-2.497225,-6.257965,-21.636223,,,,,,,
1530640554.452310,-0.024418,0.426133,-1.929365,-0.003694,0.027313,-0.035510,-0.022232,-0.413353,-0.910299,-0.002853,0.020210,-0.013117,-2.456161,-6.430634,-21.675690,,,,,,,
1530640554.472279,-0.023542,0.426784,-1.930472,0.054201,0.020854,-0.062041,-0.021428,-0.413945,-0.910049,-0.007076,0.007711,-0.017151,-2.454340,-6.327606,-21.811615,,,,,,,
1530640554.492248,-0.022442,0.428205,-1.931719,0.075079,0.046164,-0.051362,-0.020414,-0.415239,-0.909483,-0.008990,-0.005690,0.007231,-2.479910,-6.533180,-21.525154,,,,,,,
1530640554.512217,-0.020609,0.429308,-1.932275,0.049546,0.093339,-0.007721,-0.018738,-0.416242,-0.909060,-0.010818,-0.009402,0.006396,-2.412172,-6.514847,-21.683052,,,,,,,
1530640554.532186,-0.018816,0.429538,-1.932112,0.004312,0.084400,0.009976,-0.017106,-0.416451,-0.908997,-0.003890,-0.010917,0.000748,-2.394770,-6.377251,-21.624229,,,,,,,
1530640554.552155,-0.018513,0.428830,-1.931910,-0.042797,-0.018197,0.002431,-0.016836,-0.415807,-0.909296,-0.002131,0.011999,-0.005880,-2.370790,-6.625046,-21.653687,,,,,,,
1530640554.572124,-0.018595,0.428643,-1.932377,0.017341,-0.007971,-0.042378,-0.016912,-0.415637,-0.909373,0.009237,-0.000013,-0.008168,-2.357521,-6.539879,-21.561790,,,,,,,
1530640554.592092,-0.017929,0.430132,-1.933435,0.085592,0.019683,-0.053757,-0.016295,-0.416991,-0.908764,0.023878,-0.001512,-0.018665,-2.307013,-6.534966,-21.478615,,,,,,,
1530640554.612061,-0.017399,0.431532,-1.934372,0.041436,0.026228,-0.040314,-0.015803,-0.418263,-0.908188,0.000712,0.005330,-0.006927,-2.221270,-6.573418,-21.444389,,,,,,,
1530640554.632030,-0.014856,0.431465,-1.934982,-0.021706,0.162968,-0.016332,-0.013494,-0.418202,-0.908253,-0.010935,-0.003795,0.010823,-2.209156,-6.459694,-21.655258,,,,,,,
1530640554.651999,-0.010733,0.430397,-1.934878,-0.062877,0.223476,0.015678,-0.009754,-0.417231,-0.908748,-0.027234,0.009684,0.011119,-2.071484,-6.593727,-21.484436,,,,,,,
1530640554.671968,-0.006590,0.429643,-1.934585,0.002189,0.189269,0.010504,-0.005991,-0.416546,-0.909094,0.002421,0.005444,0.008612,-1.996843,-6.548141,-21.334343,,,,,,,
1530640554.691937,-0.004475,0.431382,-1.935100,0.145306,0.028447,-0.046805,-0.004065,-0.418127,-0.908379,0.021170,-0.003031,0.004647,-1.933855,-6.656052,-21.242836,,,,,,,
1530640554.711906,-0.005468,0.436059,-1.936398,0.270308,-0.109428,-0.069293,-0.004956,-0.422370,-0.906409,0.029660,-0.008126,0.000419,-2.018093,-6.646782,-21.385727,,,,,,,
1530640554.731875,-0.007449,0.441075,-1.937837,0.216859,-0.117112,-0.073073,-0.006736,-0.426912,-0.904268,0.006965,-0.006011,0.015459,-1.833290,-6.684341,-21.112190,,,,,,,
1530640554.751843,-0.008406,0.443302,-1.939430,0.058477,-0.039800,-0.071016,-0.007594,-0.428925,-0.903308,0.000910,-0.000153,0.015109,-2.042982,-6.674019,-21.329597,,,,,,,
1530640554.771812,-0.006780,0.443140,-1.940615,-0.035184,0.093547,-0.033783,-0.006125,-0.428778,-0.903389,-0.003961,-0.004266,-0.002205,-1.896292,-6.879745,-21.565552,,,,,,,
1530640554.791781,-0.004296,0.441728,-1.940848,-0.084873,0.109782,0.015364,-0.003884,-0.427503,-0.904005,0.001961,-0.010409,-0.014955,-1.770279,-6.810883,-21.436371,,,,,,,
1530640554.811750,-0.001531,0.439780,-1.939898,-0.112477,0.155876,0.055786,-0.001385,-0.425740,-0.904844,0.003491,-0.013163,-0.007021,-1.813818,-6.579102,-21.403183,,,,,,,
1530640554.831719,-0.000375,0.437746,-1.938466,-0.084249,0.048695,0.068988,-0.000340,-0.423899,-0.905709,0.002873,-0.013692,-0.009895,-1.784912,-6.705872,-21.388664,,,,,,,
1530640554.851688,-0.000397,0.437344,-1.937063,0.013518,0.022372,0.039773,-0.000360,-0.423535,-0.905879,0.015756,0.015073,0.011043,-1.795116,-6.843094,-21.596390,,,,,,,
1530640554.871657,-0.003381,0.441644,-1.937401,0.374936,-0.286322,-0.035670,-0.003056,-0.427426,-0.904045,0.005803,0.037427,-0.042016,-1.862581,-7.104324,-21.595375,,,,,,,
1530640554.891626,-0.011548,0.453931,-1.937991,0.700015,-0.473027,-0.030332,-0.010379,-0.438502,-0.898670,-0.011548,-0.009405,-0.041455,-2.075674,-7.267372,-21.199432,,,,,,,
1530640554.911594,-0.022150,0.467594,-1.938956,0.664873,-0.611697,-0.089947,-0.019770,-0.450739,-0.892436,0.011485,-0.001928,-0.013753,-2.345245,-7.443710,-20.913055,,,,,,,
1530640554.931563,-0.031930,0.480294,-1.941322,0.618923,-0.472402,-0.116827,-0.028312,-0.462040,-0.886407,-0.027870,0.007023,0.022546,-2.559490,-7.809006,-20.753761,,,,,,,
1530640554.951532,-0.039034,0.491936,-1.943301,0.550714,-0.382986,-0.113513,-0.034397,-0.472333,-0.880748,-0.025494,-0.007037,0.025951,-2.614267,-7.978973,-20.619209,,,,,,,
1530640554.971501,-0.046279,0.501403,-1.945987,0.408421,-0.465472,-0.151219,-0.040568,-0.480656,-0.875970,-0.027868,0.004673,-0.006843,-2.832891,-8.253761,-20.599846,,,,,,,
1530640554.991470,-0.053604,0.507020,-1.949611,0.199983,-0.426552,-0.182240,-0.046838,-0.485575,-0.872939,-0.015403,0.021448,0.001052,-3.177366,-8.022247,-20.532799,,,,,,,
1530640555.011439,-0.057740,0.508455,-1.953560,0.011047,-0.236734,-0.165290,-0.050407,-0.486829,-0.872041,-0.008537,0.008313,0.026826,-3.105623,-8.216873,-20.320122,,,,,,,
1530640555.031408,-0.061024,0.507995,-1.956183,-0.033690,-0.261597,-0.079733,-0.053285,-0.486427,-0.872095,-0.024337,-0.012810,0.029306,-3.105995,-8.461166,-20.548088,,,,,,,
1530640555.051377,-0.068190,0.508123,-1.957557,0.022853,-0.429513,-0.064963,-0.059528,-0.486538,-0.871629,-0.043850,-0.006977,0.011277,-3.256783,-8.376251,-20.449272,,,,,,,
1530640555.071345,-0.075576,0.507312,-1.959060,-0.107324,-0.360033,-0.049220,-0.065995,-0.485830,-0.871558,0.049576,-0.045054,0.066626,-3.551907,-8.355240,-20.407959,,,,,,,
1530640555.091314,-0.079622,0.502360,-1.959525,-0.325082,-0.115430,0.028698,-0.069711,-0.481495,-0.873672,0.065194,-0.054149,0.077743,-3.550888,-8.428986,-20.244286,,,,,,,
1530640555.111283,-0.079447,0.494638,-1.959211,-0.410256,0.086452,0.052149,-0.069851,-0.474713,-0.877364,-0.005940,-0.002353,0.013304,-3.601280,-8.024734,-20.102821,,,,,,,
1530640555.131252,-0.076930,0.486830,-1.958263,-0.385286,0.188957,0.073949,-0.067926,-0.467827,-0.881206,-0.029868,-0.012993,-0.021184,-3.435316,-8.051163,-20.570915,,,,,,,
1530640555.151221,-0.073340,0.479183,-1.956987,-0.421149,0.206457,0.099225,-0.065021,-0.461055,-0.884986,-0.024487,-0.015950,-0.003137,-3.378181,-8.083824,-20.729103,,,,,,,
1530640555.171190,-0.069256,0.470457,-1.955551,-0.496721,0.238444,0.106652,-0.061683,-0.453294,-0.889224,-0.017235,-0.028899,0.014789,-3.292953,-7.777100,-20.748573,,,,,,,
1530640555.191159,-0.065133,0.460510,-1.954273,-0.505916,0.213259,0.077509,-0.058307,-0.444405,-0.893926,-0.003552,-0.026985,-0.017512,-3.305380,-7.579170,-20.719406,,,,,,,
1530640555.211128,-0.063670,0.451913,-1.953182,-0.387334,0.053196,0.071158,-0.057240,-0.436687,-0.897790,0.001972,-0.022785,-0.042334,-3.203411,-7.343597,-20.677299,,,,,,,
1530640555.231097,-0.063878,0.445989,-1.952532,-0.267393,0.008219,0.024369,-0.057590,-0.431350,-0.900344,0.007099,-0.017029,-0.020905,-3.311821,-7.144791,-21.102905,,,,,,,
1530640555.251065,-0.064328,0.442279,-1.952275,-0.157319,-0.037112,0.029442,-0.058098,-0.428000,-0.901909,0.015022,-0.006280,-0.008415,-3.341354,-7.017128,-21.077003,,,,,,,
1530640555.271034,-0.066447,0.440642,-1.951549,-0.052470,-0.108928,0.033370,-0.060055,-0.426520,-0.902482,0.008923,-0.018716,-0.004455,-3.316469,-6.919662,-21.012825,,,,,,,
1530640555.291003,-0.068619,0.440058,-1.951529,-0.039498,-0.107500,-0.014214,-0.062033,-0.425992,-0.902597,0.000082,-0.024753,0.011637,-3.438477,-6.940971,-21.202576,,,,,,,
1530640555.310972,-0.070249,0.438646,-1.952063,-0.098250,-0.089838,-0.011346,-0.063546,-0.424714,-0.903094,-0.006309,-0.023711,0.005252,-3.447409,-7.091049,-21.053810,,,,,,,
1530640555.330941,-0.071135,0.436673,-1.952397,-0.093081,-0.035801,-0.003592,-0.064405,-0.422927,-0.903872,-0.001909,-0.004106,-0.014036,-3.477406,-6.764503,-21.199409,,,,,,,
1530640555.350910,-0.071039,0.435152,-1.952727,-0.076312,0.012765,-0.003534,-0.064364,-0.421548,-0.904518,-0.009473,-0.008322,-0.011360,-3.422480,-6.679855,-21.148621,,,,,,,
1530640555.370879,-0.071070,0.433621,-1.952775,-0.105742,-0.009364,0.005301,-0.064438,-0.420159,-0.905159,-0.006210,-0.013664,0.016915,-3.454550,-6.473335,-21.121925,,,,,,,
1530640555.390848,-0.070158,0.429844,-1.953379,-0.262788,0.051627,-0.027243,-0.063723,-0.416729,-0.906794,-0.024915,-0.019214,0.045359,-3.524195,-6.497841,-21.149834,,,,,,,
1530640555.410817,-0.069826,0.424209,-1.954515,-0.274235,-0.058706,-0.035200,-0.063585,-0.411600,-0.909143,-0.001997,-0.005727,-0.011114,-3.344486,-6.556892,-21.224724,,,,,,,
1530640555.430785,-0.072042,0.420109,-1.955416,-0.170496,-0.148235,-0.023803,-0.065721,-0.407860,-0.910676,0.002229,0.000801,-0.035568,-3.505375,-6.521332,-21.222984,,,,,,,
1530640555.450754,-0.074654,0.418052,-1.956201,-0.084474,-0.136092,-0.027896,-0.068162,-0.405981,-0.911336,-0.013717,-0.001887,-0.030727,-3.436880,-6.517403,-21.339600,,,,,,,
1530640555.470723,-0.076580,0.417082,-1.955987,-0.069333,-0.052686,0.042452,-0.069947,-0.405094,-0.911595,-0.026519,-0.002407,-0.008235,-3.444283,-6.375237,-21.408852,,,,,,,
1530640555.490692,-0.077169,0.415043,-1.954801,-0.125150,0.031044,0.069331,-0.070547,-0.403229,-0.912375,-0.033945,-0.002594,0.019126,-3.601629,-6.127838,-21.178307,,,,,,,
1530640555.510661,-0.076557,0.411645,-1.953279,-0.187215,0.060708,0.092791,-0.070094,-0.400117,-0.913779,-0.037603,0.001405,0.056174,-3.487198,-6.323997,-21.242378,,,,,,,
1530640555.530630,-0.076570,0.407083,-1.950999,-0.234935,0.043714,0.157925,-0.070244,-0.395932,-0.915589,-0.045310,0.008344,0.082383,-3.526291,-6.006447,-21.236130,,,,,,,
1530640555.550599,-0.076960,0.401126,-1.944789,-0.311571,0.205296,0.421603,-0.070781,-0.390455,-0.917897,-0.083821,0.044813,0.106206,-3.556175,-5.970802,-21.585808,,,,,,,
1530640555.570568,-0.074576,0.392911,-1.931029,-0.385989,0.459938,0.796793,-0.068829,-0.382879,-0.921231,-0.085834,0.101598,0.203198,-3.447392,-5.654099,-21.285950,,,,,,,
1530640555.590537,-0.075275,0.385458,-1.916668,-0.330862,0.040651,0.605443,-0.069686,-0.375983,-0.924002,-0.246140,0.190497,0.292746,-3.500910,-5.523590,-21.309273,,,,,,,
1530640555.610505,-0.089293,0.373298,-1.907685,-0.786139,-0.877274,0.390168,-0.083033,-0.364688,-0.927420,-0.150136,0.112232,0.484182,-3.970022,-5.247269,-21.423958,,,,,,,
1530640555.630474,-0.115628,0.349724,-1.904058,-1.340050,-1.420713,0.301781,-0.108387,-0.342638,-0.933194,-0.214138,0.222368,0.543896,-4.624519,-4.677299,-21.396790,,,,,,,
1530640555.650443,-0.144148,0.321876,-1.900726,-1.293061,-1.350232,0.324263,-0.136272,-0.316347,-0.938805,-0.196873,0.105226,0.348717,-5.345068,-4.033508,-21.577408,,,,,,,
1530640555.670412,-0.180197,0.302240,-1.899987,-0.719633,-2.269627,0.113111,-0.171100,-0.297659,-0.939214,-0.251050,0.281775,0.151785,-6.326923,-3.801033,-21.532066,,,,,,,
1530640555.690381,-0.248898,0.295080,-1.900688,-0.196258,-4.193286,0.020597,-0.235689,-0.290816,-0.927295,-0.176115,0.352309,0.196201,-7.969978,-3.812492,-20.654160,,,,,,,
1530640555.710350,-0.350486,0.291699,-1.899685,-0.143598,-5.464828,0.153033,-0.328850,-0.287580,-0.899530,-0.016731,0.300443,0.405191,-10.319807,-3.635277,-19.827019,,,,,,,
1530640555.730319,-0.467274,0.288291,-1.893484,0.071039,-5.776117,0.459861,-0.431864,-0.284315,-0.855954,0.029612,0.381742,0.376798,-12.792536,-3.680656,-18.571732,,,,,,,
1530640555.750288,-0.585705,0.283878,-1.878033,0.200954,-5.661683,0.986426,-0.530662,-0.280081,-0.799969,0.097160,0.560751,0.367276,-15.027416,-3.925529,-16.854027,,,,,,,
1530640555.770257,-0.707271,0.269123,-1.851432,0.167151,-5.900187,1.794528,-0.626373,-0.265886,-0.732776,0.306365,0.561968,0.386889,-17.340626,-3.430542,-14.666275,,,,,,,
1530640555.790226,-0.843836,0.239232,-1.812398,0.363894,-6.628910,2.762818,-0.725917,-0.236957,-0.645673,0.452953,0.717685,0.338041,-19.672287,-2.812866,-12.309135,,,,,,,
1530640555.810194,-0.996014,0.196828,-1.763563,0.767749,-7.335817,3.280343,-0.823104,-0.195559,-0.533155,0.290831,0.884906,0.292432,-21.989990,-2.023605,-9.305595,,,,,,,
1530640555.830163,-1.158992,0.143173,-1.713692,0.956059,-7.957230,3.736948,-0.907022,-0.142685,-0.396167,0.230661,0.908752,0.277149,-23.864952,-0.559059,-5.653412,,,,,,,
1530640555.850132,-1.322264,0.068912,-1.665801,1.152023,-7.677678,4.647559,-0.966972,-0.068857,-0.245397,0.171272,0.952112,0.058996,-25.424782,1.090363,-1.692017,,,,,,,
1530640555.870101,-1.458455,-0.028147,-1.622777,1.317333,-6.202786,5.429443,-0.993300,0.028143,-0.112060,0.057265,0.881266,-0.081589,-26.063406,3.732994,1.892921,,,,,,,
1530640555.890070,-1.561328,-0.139301,-1.587002,1.570382,-4.761094,5.739995,-0.990266,0.138851,-0.009376,-0.193098,0.755375,-0.282417,-26.137405,6.382668,4.961517,,,,,,,
1530640555.910039,-1.634382,-0.253040,-1.554861,1.803653,-3.525494,5.523449,-0.966197,0.250348,0.061520,-0.678930,0.582324,-0.353298,-25.714869,9.565346,7.152863,,,,,,,
1530640555.930008,-1.684267,-0.358042,-1.529122,1.612662,-2.476609,4.870487,-0.930559,0.350441,0.106047,-1.169447,0.207146,-0.292006,-24.974518,12.319756,8.620499,,,,,,,
1530640555.949977,-1.709555,-0.451602,-1.506853,1.663762,-1.212418,4.359426,-0.891098,0.436407,0.124448,-1.319381,-0.077291,-0.392926,-24.105965,14.958122,9.131760,,,,,,,
1530640555.969946,-1.703262,-0.536817,-1.478522,1.909113,0.101607,3.816333,-0.851809,0.511404,0.113500,-1.477109,-0.328130,-0.458868,-23.383507,17.364197,9.231133,,,,,,,
1530640555.989915,-1.670915,-0.606178,-1.439641,2.075965,0.753779,2.885864,-0.817713,0.569730,0.082143,-1.577062,-0.554533,-0.315694,-22.535284,19.169472,8.436829,,,,,,,
1530640556.009883,-1.630796,-0.652578,-1.394946,1.926988,0.539859,1.741027,-0.793089,0.607236,0.047642,-1.535753,-0.834394,-0.013707,-22.009617,20.383980,7.844299,,,,,,,
1530640556.029852,-1.599038,-0.677918,-1.350064,1.826992,-0.103409,0.902057,-0.778567,0.627172,0.021993,-1.241071,-0.907659,0.107828,-21.847157,21.352409,7.199684,,,,,,,
1530640556.049821,-1.576749,-0.686023,-1.306944,1.265401,0.068148,0.065469,-0.773755,0.633465,0.004606,-1.076877,-0.955227,0.312869,-21.597059,21.652222,6.684135,,,,,,,
1530640556.069790,-1.557042,-0.682348,-1.325847,-1.879448,2.453910,-0.133238,-0.776018,0.630617,-0.010674,-0.913618,-0.929109,1.959587,-22.032427,21.694946,6.349129,,,,,,,
1530640556.089759,-1.541408,-0.687956,-1.390578,-2.721989,2.951280,0.297693,-0.772210,0.634959,-0.022701,-0.258430,-0.560023,0.677455,-22.332813,21.856445,6.305664,,,,,,,
1530640556.109728,-1.541453,-0.686635,-1.456781,-2.333552,1.379092,-0.488410,-0.773048,0.633938,-0.022690,-0.445198,-0.866498,0.143281,-22.492670,21.376160,6.468208,,,,,,,
1530640556.129697,-1.570024,-0.670200,-1.504410,-1.488087,-0.754967,-0.980110,-0.783695,0.621143,-0.000605,-0.286373,-0.613376,-0.050558,-22.873863,20.777756,6.898712,,,,,,,
1530640556.149666,-1.620139,-0.648270,-1.527861,-0.529502,-2.157832,-1.216039,-0.796157,0.603808,0.039317,0.048995,-0.317126,0.028982,-22.796303,19.881424,8.071266,,,,,,,
1530640556.169635,-1.639371,-0.622686,-1.514282,0.972390,-0.757927,-1.147651,-0.810404,0.583219,0.055661,0.193827,-0.007063,0.075595,-23.022484,18.985245,8.514557,,,,,,,
1530640556.189603,-1.639802,-0.610780,-1.488673,0.917520,-0.893146,-0.587965,-0.817250,0.573507,0.056484,0.162113,-0.164373,-0.168926,-23.117191,18.589310,8.337830,,,,,,,
1530640556.209572,-1.634182,-0.598092,-1.462751,1.239030,-0.056919,-0.684423,-0.824750,0.563067,0.052347,-0.149798,0.092054,-0.242487,-23.229446,18.205696,8.391663,,,,,,,
1530640556.229541,-1.612983,-0.593268,-1.427801,1.521511,0.025882,-0.220041,-0.828379,0.559073,0.034967,0.077280,0.213128,-0.400171,-23.292557,17.910782,7.919357,,,,,,,
1530640556.249510,-1.601137,-0.591063,-1.386654,1.823942,-1.000467,-0.117129,-0.829965,0.557244,0.025190,0.209695,0.283317,-0.293332,-23.280823,17.930244,7.892204,,,,,,,
1530640556.269479,-1.601631,-0.593483,-1.335959,2.303950,-1.622044,0.189680,-0.828602,0.559252,0.025557,0.295215,0.433103,-0.209731,-23.114563,18.186592,7.885902,,,,,,,
1530640556.289448,-1.606688,-0.606444,-1.272779,2.829610,-2.272333,0.815114,-0.821149,0.569949,0.029485,0.444211,0.464887,-0.415288,-22.760860,18.281120,8.046150,,,,,,,
1530640556.309417,-1.609876,-0.634728,-1.200559,3.014759,-2.288066,1.644607,-0.804616,0.592958,0.031460,0.349599,0.272017,-0.183819,-22.001198,18.913673,8.306038,,,,,,,
1530640556.329386,-1.612512,-0.682273,-1.136666,2.262035,-1.877403,2.637144,-0.775464,0.630559,0.032367,0.255826,0.144740,0.177792,-21.324940,19.900215,8.231834,,,,,,,
1530640556.349355,-1.621642,-0.744900,-1.101799,1.100235,-1.626327,3.260112,-0.734204,0.677898,0.037363,0.145428,0.008702,0.443151,-20.005823,21.060783,8.458122,,,,,,,
1530640556.369324,-1.637295,-0.815463,-1.088331,0.449742,-0.861702,3.666549,-0.684014,0.728043,0.045553,0.142479,-0.077287,0.345774,-18.689726,22.190834,8.817284,,,,,,,
1530640556.389293,-1.646257,-0.893665,-1.092797,0.003808,-0.048507,4.063495,-0.624774,0.779374,0.047236,0.179370,-0.203675,0.248327,-17.286102,23.327637,8.891998,,,,,,,
1530640556.409262,-1.662328,-0.979569,-1.111446,-0.310149,-0.152997,4.502063,-0.555045,0.830257,0.050946,0.222785,-0.286434,0.148639,-15.540184,24.341713,8.747475,,,,,,,
1530640556.429230,-1.703594,-1.072428,-1.148340,-0.485903,-0.681913,4.849752,-0.473781,0.878364,0.063290,0.209209,-0.382957,0.092197,-13.625267,25.229874,9.147690,,,,,,,
1530640556.449199,-1.778482,-1.169307,-1.209871,-0.483311,-1.145894,5.057798,-0.382388,0.920480,0.080578,0.154178,-0.405404,0.143512,-11.476442,26.158569,9.679832,,,,,,,
1530640556.469168,-1.891680,-1.262599,-1.303991,-0.268442,-1.234811,4.815645,-0.287855,0.952882,0.095674,0.104917,-0.468949,0.267653,-9.154167,26.712624,10.418152,,,,,,,
1530640556.489137,-2.034439,-1.341195,-1.431220,0.094577,-0.813616,3.753619,-0.203559,0.973757,0.101779,-0.143670,-0.216738,0.278669,-7.212435,26.898293,10.544014,,,,,,,
1530640556.509106,-2.118274,-1.382458,-1.501245,0.498457,-1.009342,0.909696,-0.159858,0.982317,0.097456,-0.611794,0.601805,0.021349,-6.142025,26.949203,10.697296,,,,,,,
1530640556.529075,-2.029077,-1.348814,-1.366004,0.028784,-2.949611,-4.076348,-0.197443,0.975463,0.097401,-1.155386,1.954805,-0.219272,-6.490435,26.392326,10.912529,,,,,,,
1530640556.549044,-1.995234,-1.225135,-1.259203,-1.985233,-3.074717,-6.961017,-0.308754,0.940852,0.139528,-0.624978,2.042013,0.230803,-8.672050,25.435089,11.408043,,,,,,,
1530640556.569013,-1.985772,-1.089141,-1.238554,-2.491569,1.218714,-5.543615,-0.423928,0.886229,0.186766,0.096459,0.962312,0.570910,-10.977945,23.780746,12.434166,,,,,,,
1530640556.588982,-1.962406,-1.009780,-1.264589,-1.949583,2.172596,-2.071954,-0.491768,0.846715,0.203069,0.540443,-0.009755,-0.048544,-12.743391,22.567711,12.737213,,,,,,,
1530640556.608950,-1.993928,-0.988459,-1.309415,-1.203688,-0.962733,0.156928,-0.501472,0.835180,0.225830,0.332283,-0.495397,-0.460098,-13.212664,21.756767,13.045166,,,,,,,
1530640556.628919,-2.054519,-0.994344,-1.329724,0.134795,-2.504635,0.533193,-0.482518,0.838402,0.253491,-0.029552,-0.338097,-0.449857,-12.700912,21.461655,13.399979,,,,,,,
1530640556.648888,-2.079843,-1.002474,-1.313060,0.657472,-1.474265,-0.190020,-0.469977,0.842805,0.262298,-0.283487,-0.126802,-0.049255,-12.224543,21.531395,13.717255,,,,,,,
1530640556.668857,-2.080871,-0.991666,-1.293993,-0.163995,-0.694985,-0.936784,-0.477629,0.836939,0.267213,-0.219026,0.016989,0.198668,-12.276630,21.154488,13.518669,,,,,,,
1530640556.688825,-2.101550,-0.970379,-1.295662,-0.714493,-1.192502,-0.801732,-0.487259,0.825100,0.285987,0.164871,0.068135,-0.072593,-12.362841,20.643738,13.680168,,,,,,,
1530640556.708794,-2.136578,-0.954393,-1.305917,-0.579586,-1.291587,-0.367927,-0.488018,0.815963,0.309907,0.267223,0.011872,-0.065644,-12.225447,20.201431,14.138466,,,,,,,
1530640556.728763,-2.162787,-0.946740,-1.313634,-0.301688,-0.815378,-0.122691,-0.484897,0.811515,0.326065,0.253283,-0.141532,0.050842,-12.085497,19.862282,14.332184,,,,,,,
1530640556.748733,-2.179477,-0.943802,-1.319077,-0.188638,-0.526101,0.024181,-0.481342,0.809795,0.335474,0.292438,-0.249645,-0.013102,-11.918324,19.597900,14.257553,,,,,,,
1530640556.768702,-2.194276,-0.943102,-1.327212,-0.246372,-0.338218,0.155123,-0.476784,0.809384,0.342891,0.330285,-0.279568,-0.041133,-11.762070,19.192749,14.462280,,,,,,,
1530640556.788671,-2.208286,-0.942434,-1.338920,-0.319967,-0.166113,0.173992,-0.472368,0.808991,0.349859,0.301409,-0.237198,-0.017324,-11.788012,19.107178,14.287796,,,,,,,
1530640556.808640,-2.218049,-0.940618,-1.349540,-0.281379,-0.014152,0.067539,-0.470102,0.807922,0.355340,0.249749,-0.200134,-0.008340,-11.690393,18.996735,14.266670,,,,,,,
1530640556.828609,-2.221749,-0.937335,-1.355476,-0.213099,0.101641,-0.078229,-0.470891,0.805983,0.358682,0.229436,-0.222640,0.089988,-11.619152,18.635155,14.375481,,,,,,,
1530640556.848577,-2.216771,-0.934692,-1.357970,-0.081650,0.569160,-0.006195,-0.474370,0.804416,0.357614,0.171987,-0.286227,0.243185,-11.776705,18.214256,14.139290,,,,,,,
1530640556.868546,-2.199078,-0.938291,-1.360536,0.127398,1.171781,0.320196,-0.478277,0.806549,0.347462,-0.011301,-0.257812,0.372768,-11.917206,17.946045,13.583717,,,,,,,
1530640556.888515,-2.181297,-0.947930,-1.363236,0.240639,0.766740,0.460474,-0.477986,0.812210,0.334430,-0.308314,-0.133880,0.255322,-11.983797,17.419617,13.246582,,,,,,,
1530640556.908484,-2.178540,-0.955706,-1.364636,0.136692,-0.138027,0.241516,-0.473708,0.816721,0.329494,-0.566393,-0.037226,0.221622,-12.104923,17.408844,12.946556,,,,,,,
1530640556.928453,-2.188604,-0.958107,-1.364029,0.085161,-0.700553,0.016100,-0.468767,0.818105,0.333108,-0.607893,0.005656,0.260154,-11.921951,16.911957,12.538994,,,,,,,
1530640556.948422,-2.201589,-0.960381,-1.357678,0.318390,-1.031500,-0.027888,-0.462899,0.819410,0.338069,-0.385947,-0.006147,0.270025,-11.752810,16.500862,12.242348,,,,,,,
1530640556.968391,-2.209602,-0.963953,-1.340686,0.596947,-1.062159,-0.237003,-0.457823,0.821452,0.340020,-0.134951,-0.016582,0.271858,-11.587904,16.106369,11.925117,,,,,,,
1530640556.988360,-2.201148,-0.967603,-1.311892,0.891497,-0.524876,-0.363739,-0.458256,0.823528,0.334368,0.117329,-0.118282,0.181105,-11.587002,15.378693,11.349892,,,,,,,
1530640557.008328,-2.169385,-0.977738,-1.275152,1.279448,0.482541,0.003675,-0.461724,0.829235,0.314926,0.350777,-0.111737,-0.008347,-11.625824,15.425362,10.624313,,,,,,,
1530640557.028297,-2.123376,-1.001848,-1.243867,1.376769,1.159545,0.912942,-0.458565,0.842468,0.282779,0.478630,0.140137,-0.013660,-11.658104,15.328102,9.448753,,,,,,,
1530640557.048266,-2.099350,-1.036943,-1.233207,0.906810,0.384232,1.466420,-0.439413,0.860853,0.256606,0.384115,0.430392,0.158936,-11.484671,15.399216,8.880653,,,,,,,
1530640557.068235,-2.096674,-1.054957,-1.237614,0.111681,0.602078,0.332714,-0.426616,0.869879,0.247604,-0.465154,0.673288,0.471176,-11.596064,15.123985,8.280144,,,,,,,
1530640557.088204,-2.062498,-1.053590,-1.227974,0.297953,1.579957,-0.286860,-0.435875,0.869204,0.233445,-0.240486,0.262388,-0.216660,-11.789581,14.919441,7.385941,,,,,,,
1530640557.108173,-2.013554,-1.057608,-1.210920,0.522362,1.751874,0.223870,-0.443615,0.871183,0.210342,0.329052,-0.172438,-0.555358,-11.986408,15.044281,6.490227,,,,,,,
1530640557.128142,-1.968977,-1.073075,-1.202061,0.480702,1.881277,0.828912,-0.440073,0.878673,0.185117,0.449671,-0.355830,-0.495023,-11.983236,15.158424,5.515152,,,,,,,
1530640557.148111,-1.936920,-1.094870,-1.204867,0.232069,1.575864,1.106193,-0.427795,0.888869,0.164021,0.407211,-0.420103,-0.373799,-11.848595,14.930489,4.906784,,,,,,,
1530640557.168080,-1.920987,-1.113702,-1.218577,-0.034339,1.402138,0.859056,-0.414556,0.897339,0.151414,0.095235,-0.310028,-0.124467,-11.839293,14.839706,4.327332,,,,,,,
1530640557.188050,-1.895762,-1.123875,-1.226186,0.088342,1.744608,0.337397,-0.409571,0.901782,0.137988,-0.194265,0.060315,-0.048404,-11.769083,14.725548,3.436447,,,,,,,
1530640557.208019,-1.852101,-1.127702,-1.217037,0.330791,1.701219,0.055259,-0.411885,0.903429,0.119021,-0.312938,0.279127,-0.221423,-11.780787,14.452965,2.954849,,,,,,,
1530640557.227988,-1.804578,-1.133070,-1.199550,0.492511,1.583644,0.288090,-0.412351,0.905718,0.098196,-0.351061,0.182997,-0.162221,-11.686838,14.319527,2.097633,,,,,,,
1530640557.247957,-1.749744,-1.146780,-1.174816,0.757616,1.546485,0.700313,-0.404855,0.911444,0.073231,-0.290320,-0.106710,-0.016789,-11.302496,14.290855,1.213554,,,,,,,
1530640557.267926,-1.690045,-1.164304,-1.131416,1.143635,0.602443,0.709980,-0.392582,0.918513,0.047038,-0.246746,-0.249354,-0.153849,-11.163755,14.164757,0.583511,,,,,,,
1530640557.287894,-1.627659,-1.177213,-1.062012,1.561606,-0.450930,0.404931,-0.382880,0.923541,0.021795,-0.245568,-0.250445,-0.144476,-11.074322,14.120926,0.049171,,,,,,,
1530640557.307863,-1.561317,-1.183056,-0.971336,1.812048,-1.065481,0.185748,-0.378080,0.925766,-0.003584,-0.189837,-0.246475,-0.031526,-11.041109,13.813316,-0.232391,,,,,,,
1530640557.327832,-1.498358,-1.183948,-0.875779,1.746865,-1.357299,0.084732,-0.376281,0.926103,-0.027305,-0.150559,-0.180131,0.037040,-10.939022,13.334351,-0.828613,,,,,,,
1530640557.347800,-1.446224,-1.181272,-0.792950,1.460329,-1.088230,-0.019846,-0.376805,0.925090,-0.047184,-0.111552,-0.161601,0.123523,-11.056755,12.944252,-1.264000,,,,,,,
1530640557.367769,-1.402043,-1.175841,-0.727938,1.160133,-0.640314,-0.125574,-0.379301,0.923014,-0.064623,-0.087923,-0.166147,0.150270,-10.964092,12.532761,-1.544701,,,,,,,
1530640557.387738,-1.366467,-1.168456,-0.679059,0.910241,-0.393392,-0.222017,-0.383427,0.920147,-0.079454,-0.064663,-0.194607,0.108858,-10.881281,11.933319,-2.025108,,,,,,,
1530640557.407707,-1.339301,-1.160077,-0.643160,0.718682,-0.229626,-0.268800,-0.388618,0.916834,-0.091605,-0.025643,-0.259928,0.093177,-10.821512,11.407669,-2.519173,,,,,,,
1530640557.427676,-1.313879,-1.151654,-0.614387,0.652522,0.105963,-0.265396,-0.393620,0.913438,-0.103413,0.017307,-0.260789,0.114720,-10.775759,10.851601,-3.016609,,,,,,,
1530640557.447645,-1.276093,-1.142615,-0.584531,0.784516,0.835617,-0.266520,-0.397317,0.909722,-0.120602,-0.015525,-0.106271,0.157879,-10.594248,10.080833,-3.337189,,,,,,,
1530640557.467614,-1.212040,-1.133476,-0.544047,1.036506,1.662098,-0.067852,-0.396549,0.905890,-0.148700,-0.059032,0.029489,0.188418,-10.468138,9.640625,-4.078156,,,,,,,
1530640557.487583,-1.129240,-1.125368,-0.495214,1.148349,2.011970,0.096575,-0.389521,0.902426,-0.184120,-0.093465,0.080087,0.195350,-9.890034,8.840355,-4.851768,,,,,,,
1530640557.507552,-1.042136,-1.118100,-0.445103,1.122259,2.191163,0.205574,-0.377680,0.899271,-0.220610,-0.103048,0.073721,0.294066,-9.395340,8.496330,-5.565712,,,,,,,
1530640557.527521,-0.956361,-1.110939,-0.401567,0.855612,2.340060,0.237179,-0.362645,0.896116,-0.255861,-0.223415,0.171633,0.480775,-8.820745,7.918060,-6.280975,,,,,,,
1530640557.547490,-0.907672,-1.113397,-0.382210,-0.157699,0.870785,0.439344,-0.348026,0.897204,-0.271851,-0.392575,0.138578,0.443299,-8.361898,7.522934,-7.189621,,,,,,,
1530640557.567459,-0.923098,-1.128638,-0.393854,-0.813328,-0.677352,0.375234,-0.341232,0.903830,-0.258169,-0.579270,0.073816,0.308874,-7.965654,7.211166,-7.692398,,,,,,,
1530640557.587428,-0.957247,-1.137274,-0.417104,-0.513324,-0.645110,-0.150894,-0.343453,0.907492,-0.241865,-0.767479,0.184992,0.366865,-8.001074,7.093544,-8.113686,,,,,,,
1530640557.607398,-1.003764,-1.135617,-0.444456,-0.449535,-1.439778,-0.495139,-0.355596,0.906794,-0.226440,-0.837031,0.159581,0.158050,-7.953259,6.893234,-8.615372,,,,,,,
1530640557.627367,-1.079942,-1.131806,-0.486181,-0.845283,-2.086320,-0.687093,-0.374843,0.905181,-0.200348,-0.881200,0.091340,0.261826,-8.282722,6.941879,-8.939796,,,,,,,
1530640557.647336,-1.189942,-1.126195,-0.557607,-1.546937,-2.431298,-1.052284,-0.399280,0.902782,-0.159873,-0.874355,0.089726,0.342857,-8.474947,6.889076,-9.570114,,,,,,,
1530640557.667305,-1.342216,-1.111890,-0.662581,-2.191744,-3.284210,-1.560742,-0.431445,0.896537,-0.100374,-0.612561,0.221077,0.198473,-8.924820,7.152328,-9.683205,,,,,,,
1530640557.687273,-1.524619,-1.085269,-0.776411,-2.456008,-4.434819,-1.660539,-0.466177,0.884429,-0.021542,-0.274652,0.340852,-0.275333,-9.779577,7.735909,-9.666862,,,,,,,
1530640557.707242,-1.705475,-1.052726,-0.879675,-2.627765,-4.378940,-1.431947,-0.490720,0.868776,0.066492,-0.142703,0.324278,-0.461267,-10.868692,8.132446,-9.133263,,,,,,,
1530640557.727211,-1.858282,-1.013584,-0.975509,-2.938780,-2.875562,-1.394419,-0.507118,0.848733,0.149943,-0.146126,0.505225,-0.330516,-11.715275,9.098030,-8.631462,,,,,,,
1530640557.747180,-1.948408,-0.965510,-1.057317,-2.768567,0.256796,-1.641050,-0.528910,0.822339,0.209790,-0.067602,0.740344,-0.185544,-11.947802,9.900215,-8.415543,,,,,,,
1530640557.767149,-1.932176,-0.919985,-1.101626,-1.547585,3.712966,-1.511220,-0.566701,0.795592,0.214201,0.206731,0.872041,-0.065473,-11.791370,10.531281,-8.955948,,,,,,,
1530640557.787118,-1.891999,-0.891199,-1.121352,-0.950574,1.443856,-0.979557,-0.596337,0.777826,0.198416,0.227028,0.539618,-0.102057,-11.463709,11.129486,-9.525955,,,,,,,
1530640557.807087,-1.928640,-0.869716,-1.142976,-1.023754,-2.093055,-0.662573,-0.604182,0.764146,0.225929,0.178569,0.196990,-0.574166,-11.932425,12.100983,-9.147377,,,,,,,
1530640557.827056,-2.002452,-0.856189,-1.164680,-0.795794,-3.186104,-0.169839,-0.595211,0.755350,0.274170,0.369168,-0.006617,-0.784683,-12.622971,12.829155,-8.404579,,,,,,,
1530640557.847025,-2.085486,-0.852745,-1.177871,-0.220170,-3.965440,0.117934,-0.572682,0.753089,0.323870,0.327427,-0.202842,-0.849047,-13.483126,13.740364,-7.275787,,,,,,,
1530640557.866994,-2.169372,-0.854281,-1.173600,0.300395,-4.484605,-0.179165,-0.542576,0.754099,0.370063,0.079319,-0.320871,-0.638709,-14.418299,14.363487,-6.375549,,,,,,,
1530640557.886963,-2.237909,-0.847445,-1.157025,0.150412,-3.616715,-0.840984,-0.519996,0.749592,0.409531,-0.173714,-0.421024,-0.157517,-15.104042,14.493851,-4.923225,,,,,,,
1530640557.906932,-2.277931,-0.832420,-1.136138,0.048851,-2.361391,-1.020433,-0.511699,0.739562,0.437277,-0.028889,-0.544479,-0.284460,-15.845024,14.869118,-4.424309,,,,,,,
1530640557.926901,-2.304472,-0.824073,-1.117648,0.323537,-1.877081,-0.509806,-0.504481,0.733918,0.454820,0.317912,-0.551271,-0.603852,-16.205578,14.950333,-3.701561,,,,,,,
1530640557.946870,-2.326234,-0.830365,-1.103043,0.733444,-1.433500,0.137233,-0.491093,0.738178,0.462514,0.448872,-0.489444,-0.710744,-16.391432,15.053345,-3.347687,,,,,,,
1530640557.966839,-2.339084,-0.851156,-1.093620,1.071021,-0.728199,0.774440,-0.473969,0.752043,0.458021,0.560273,-0.448347,-0.700193,-16.255850,15.336014,-3.493568,,,,,,,
1530640557.986808,-2.343433,-0.886050,-1.091358,1.379899,-0.041985,1.459317,-0.452898,0.774580,0.441483,0.674898,-0.422132,-0.695664,-16.117094,15.652245,-3.599174,,,,,,,
1530640558.006777,-2.341220,-0.933635,-1.097911,1.586819,0.597474,2.045829,-0.426920,0.803788,0.414322,0.759073,-0.440735,-0.594162,-15.656429,16.178055,-4.282486,,,,,,,
1530640558.026746,-2.329592,-0.988722,-1.104729,1.955766,0.978115,2.058833,-0.398938,0.835324,0.378258,0.772306,-0.445264,-0.265145,-15.126276,16.569588,-5.470566,,,,,,,
1530640558.046715,-2.309176,-1.039328,-1.084489,1.597129,-1.369703,1.087139,-0.374807,0.862064,0.341121,0.604925,0.017850,0.964879,-14.810375,16.911423,-6.364677,,,,,,,
1530640558.066683,-2.374605,-1.027442,-1.085137,-0.862743,-2.210733,-1.372368,-0.358788,0.855979,0.372248,-1.423897,1.333443,3.004293,-15.368343,16.874138,-5.905304,,,,,,,
1530640558.086652,-2.300259,-0.982741,-1.021146,0.055235,2.399263,-3.336853,-0.413578,0.832021,0.369719,-1.293957,1.627375,0.590258,-15.951187,16.488487,-6.199768,,,,,,,
1530640558.106621,-2.192808,-0.938764,-0.957849,-0.209530,2.602690,-2.251297,-0.480134,0.806829,0.344232,-0.182662,0.661586,-0.096186,-16.148638,16.152443,-7.007332,,,,,,,
1530640558.126590,-2.153974,-0.915908,-0.954727,-0.588813,1.472390,-0.334013,-0.508400,0.793116,0.335401,0.467171,-0.360957,0.097475,-16.125212,16.168343,-7.555000,,,,,,,
1530640558.146559,-2.133469,-0.921825,-0.962897,0.349467,1.249429,0.734508,-0.511191,0.796706,0.322398,0.555777,-0.654891,-0.415720,-15.849686,16.570221,-8.134201,,,,,,,
1530640558.166528,-2.117216,-0.952962,-0.957326,1.213692,0.157471,1.518137,-0.494922,0.815135,0.301006,0.269595,-0.220470,-1.013775,-15.550537,17.078461,-8.509834,,,,,,,
1530640558.186497,-2.121398,-0.983519,-0.964448,0.037119,-0.043710,1.133895,-0.472205,0.832453,0.289902,-0.813562,1.116217,0.865478,-15.149759,17.681473,-8.470207,,,,,,,
1530640558.206466,-2.149404,-0.988091,-0.985107,-0.381749,-0.712547,0.176327,-0.460710,0.834977,0.300927,-0.469938,0.657714,-0.669305,-15.094460,18.359215,-8.528008,,,,,,,
1530640558.226435,-2.165942,-0.985187,-0.991275,-0.109224,-0.390776,-0.073084,-0.457678,0.833375,0.309863,0.158758,-0.112947,-0.661105,-15.443962,18.870529,-8.103989,,,,,,,
1530640558.246404,-2.162418,-0.986483,-0.987253,0.281816,0.250703,0.053104,-0.457869,0.834091,0.307645,0.372252,-0.419617,-0.639692,-15.443146,19.001114,-8.299278,,,,,,,
1530640558.266373,-2.140222,-0.995829,-0.973986,0.716069,0.676161,0.286720,-0.457998,0.839210,0.293191,0.399282,-0.446357,-0.591394,-15.401926,19.017952,-8.142036,,,,,,,
1530640558.286342,-2.104466,-1.013007,-0.953197,1.049684,1.146948,0.515156,-0.455707,0.848427,0.269258,0.282123,-0.202492,-0.489427,-15.148664,19.198936,-8.464317,,,,,,,
1530640558.306311,-2.046064,-1.033425,-0.923808,1.208139,2.007084,0.480949,-0.455146,0.859057,0.234223,0.001792,0.228696,-0.342820,-14.497309,18.893265,-9.278885,,,,,,,
1530640558.326280,-1.957665,-1.049150,-0.882737,1.327132,3.028337,0.137317,-0.461479,0.867000,0.188006,-0.265114,0.515370,-0.188571,-13.941006,18.913689,-10.351875,,,,,,,
1530640558.346249,-1.844576,-1.057202,-0.827302,1.492985,3.186985,-0.144102,-0.473011,0.870984,0.132837,-0.256695,0.339786,-0.166391,-13.087471,18.517006,-11.463348,,,,,,,
1530640558.366218,-1.737925,-1.062553,-0.765785,1.514776,2.311439,0.034794,-0.479862,0.873601,0.080954,-0.079404,-0.015859,-0.119940,-12.083454,17.757401,-12.967377,,,,,,,
1530640558.386187,-1.653934,-1.071973,-0.707477,1.420404,1.224573,0.446870,-0.476739,0.878146,0.039727,0.055215,-0.292819,0.019218,-11.670633,17.799423,-13.526489,,,,,,,
1530640558.406156,-1.593068,-1.084938,-0.648827,1.449759,-0.007409,0.606703,-0.466851,0.884274,0.010399,0.024606,-0.377912,-0.050072,-11.458569,17.507256,-13.622185,,,,,,,
1530640558.426125,-1.544059,-1.095241,-0.581241,1.639893,-0.719557,0.455641,-0.457668,0.889039,-0.012240,-0.033253,-0.335282,-0.106992,-11.452900,17.287987,-13.963631,,,,,,,
1530640558.446093,-1.487256,-1.100667,-0.503935,1.791955,-0.507830,0.321310,-0.451422,0.891510,-0.037800,0.011801,-0.402191,0.049000,-11.432396,16.619263,-14.147659,,,,,,,
1530640558.466062,-1.427444,-1.102427,-0.425486,1.698965,-0.574860,0.280992,-0.446801,0.892306,-0.064492,0.061990,-0.435732,0.025231,-11.423130,15.907188,-14.149544,,,,,,,
1530640558.486031,-1.377863,-1.103214,-0.355800,1.456352,-0.575097,0.326720,-0.442366,0.892661,-0.086422,0.047637,-0.391852,0.058117,-11.617620,15.724350,-14.150093,,,,,,,
1530640558.506000,-1.318286,-1.103590,-0.291528,1.419467,0.707734,0.317120,-0.436111,0.892830,-0.112524,-0.094742,-0.219063,0.264700,-11.099913,15.247742,-14.277267,,,,,,,
1530640558.525969,-1.227503,-1.099541,-0.226970,1.461191,2.068681,0.181949,-0.427515,0.890999,-0.152814,-0.177176,-0.049340,0.334561,-10.427750,15.059174,-14.176506,,,,,,,
1530640558.545938,-1.131639,-1.091911,-0.168893,1.311386,2.252142,0.158549,-0.417066,0.887509,-0.195917,-0.247607,0.077091,0.237452,-9.387709,14.598549,-14.422653,,,,,,,
1530640558.565907,-1.032516,-1.083897,-0.117765,1.186834,3.051972,0.238152,-0.401725,0.883788,-0.239868,-0.292154,0.185319,0.473266,-8.108662,14.400795,-14.664429,,,,,,,
1530640558.585876,-0.934598,-1.079334,-0.082138,0.450208,3.151188,0.292862,-0.379590,0.881644,-0.280385,-0.307407,0.228586,0.738881,-6.552418,14.226242,-14.493774,,,,,,,
1530640558.605845,-0.917361,-1.091864,-0.097746,-1.296845,0.471895,0.228468,-0.365900,0.887487,-0.280148,-0.467748,0.214884,0.715695,-5.824522,14.921738,-14.050240,,,,,,,
1530640558.625814,-0.975498,-1.113410,-0.152209,-1.610332,-0.719492,0.121447,-0.365640,0.897210,-0.247632,-0.569205,0.077369,0.258649,-5.523842,15.577866,-12.693634,,,,,,,
1530640558.645783,-1.019815,-1.124376,-0.192292,-0.631918,-0.218967,-0.149729,-0.367847,0.901998,-0.226026,-0.668209,0.029887,0.211209,-4.770046,16.374634,-11.707413,,,,,,,
1530640558.665752,-1.043113,-1.117720,-0.206892,0.141451,-0.767068,-0.584484,-0.378191,0.899105,-0.220413,-0.678175,0.148350,0.049118,-4.236401,16.883598,-10.746384,,,,,,,
1530640558.685721,-1.072261,-1.106227,-0.214907,-0.097941,-1.355734,-0.532994,-0.393504,0.894015,-0.214225,-0.752416,0.210172,0.418906,-3.356724,17.564407,-9.904121,,,,,,,
1530640558.705690,-1.174993,-1.106938,-0.275442,-1.953833,-3.151514,-0.646979,-0.412812,0.894333,-0.172496,-0.822174,0.021133,0.729686,-2.477049,18.680023,-8.933235,,,,,,,
1530640558.725659,-1.368194,-1.103416,-0.403446,-2.974177,-4.345788,-1.260924,-0.441334,0.892752,-0.090659,-0.664684,0.055338,0.199134,-1.671307,20.219391,-7.526207,,,,,,,
1530640558.745628,-1.590807,-1.076713,-0.540491,-3.043075,-5.433897,-1.787447,-0.474130,0.880404,0.009489,-0.473883,0.246550,-0.481260,-1.058010,21.767319,-7.150101,,,,,,,
1530640558.765597,-1.798980,-1.033100,-0.654305,-3.087173,-5.259480,-1.785056,-0.498883,0.858891,0.115855,-0.360110,0.319057,-0.581950,-1.144032,23.432861,-7.345779,,,,,,,
1530640558.785566,-1.960113,-0.981218,-0.747230,-3.179755,-3.158378,-1.671474,-0.514404,0.831175,0.211037,-0.395508,0.666673,-0.376992,-1.564226,25.298615,-7.546661,,,,,,,
1530640558.805535,-2.021831,-0.926621,-0.811119,-2.486852,1.344823,-1.750979,-0.540483,0.799595,0.261773,-0.331664,1.055233,-0.123193,-1.822083,26.709282,-8.276299,,,,,,,
1530640558.825504,-1.968924,-0.883945,-0.843725,-1.390366,5.107761,-1.278601,-0.584511,0.773247,0.245838,0.072808,1.036568,-0.201618,-1.444292,27.882019,-9.126915,,,,,,,
1530640558.845473,-1.891866,-0.861040,-0.850708,-0.268579,2.145266,-0.913348,-0.618349,0.758521,0.205648,0.268159,0.700311,-0.322134,-1.241520,28.777916,-10.116638,,,,,,,
1530640558.865441,-1.931984,-0.841777,-0.854708,-0.626268,-3.453621,-0.762891,-0.623158,0.745828,0.235404,0.141575,0.187049,-0.400519,-2.349613,29.594017,-11.121544,,,,,,,
1530640558.885410,-2.024976,-0.828059,-0.872413,-0.845973,-4.008511,-0.168961,-0.607744,0.736620,0.296713,0.393922,-0.075426,-0.513525,-3.920174,30.058540,-11.797966,,,,,,,
1530640558.905379,-2.114949,-0.824030,-0.889493,-0.373055,-3.864515,0.217118,-0.581159,0.733889,0.351653,0.403120,-0.279117,-0.728789,-5.600872,30.805367,-11.960220,,,,,,,
1530640558.925348,-2.194174,-0.829437,-0.888748,0.491680,-4.049747,0.143369,-0.548276,0.737551,0.394222,0.238935,-0.432910,-0.778164,-7.340843,31.107666,-12.314697,,,,,,,
1530640558.945317,-2.255420,-0.836466,-0.868815,0.760810,-3.567412,-0.337117,-0.519090,0.742279,0.423753,0.031969,-0.538513,-0.406923,-9.004105,30.816750,-12.492775,,,,,,,
1530640558.965286,-2.296470,-0.833868,-0.843648,0.433663,-2.619491,-0.750755,-0.502704,0.740536,0.445977,0.042087,-0.607388,-0.288369,-11.042139,30.867569,-12.816048,,,,,,,
1530640558.985255,-2.322592,-0.829675,-0.822300,0.421146,-1.832876,-0.521422,-0.493148,0.737712,0.461071,0.334105,-0.573420,-0.544018,-12.651636,30.662666,-12.682823,,,,,,,
1530640559.005224,-2.339227,-0.834614,-0.805202,0.701055,-1.227133,-0.011344,-0.482784,0.741038,0.466672,0.453854,-0.503107,-0.718534,-13.699423,30.565132,-12.849640,,,,,,,
1530640559.025193,-2.346972,-0.853099,-0.794494,1.027611,-0.530012,0.691735,-0.469299,0.753322,0.460722,0.605041,-0.443965,-0.730589,-14.255117,30.604004,-13.423477,,,,,,,
1530640559.045162,-2.346503,-0.887931,-0.792186,1.442563,0.239324,1.483732,-0.450501,0.775768,0.441852,0.740967,-0.428051,-0.734577,-13.940081,30.497322,-13.948639,,,,,,,
1530640559.065131,-2.332398,-0.938986,-0.792673,1.973034,0.992878,1.998322,-0.427440,0.806960,0.407567,0.785656,-0.453047,-0.642110,-13.277552,30.304947,-15.600685,,,,,,,
1530640559.085100,-2.294052,-0.999159,-0.777789,2.517981,1.336450,1.776306,-0.405571,0.841016,0.358056,0.792778,-0.433576,-0.097420,-12.104692,29.934860,-16.942116,,,,,,,
1530640559.105069,-2.329366,-1.024117,-0.782120,-1.094012,-3.946430,0.283730,-0.377320,0.854255,0.357598,-0.150070,0.494911,2.347632,-12.892281,30.181511,-17.396858,,,,,,,
1530640559.125038,-2.358839,-0.991193,-0.782589,-0.645786,0.756972,-2.075434,-0.386251,0.836680,0.388299,-1.528987,1.754934,2.251853,-14.591528,30.360703,-17.326782,,,,,,,
1530640559.145007,-2.243868,-0.953214,-0.706335,0.672590,3.043138,-2.929419,-0.452777,0.815281,0.360984,-0.785413,1.185146,-0.214545,-15.662424,29.613892,-17.966919,,,,,,,
1530640559.164976,-2.159368,-0.923457,-0.660518,-0.187756,1.790244,-1.299875,-0.501590,0.797691,0.334806,0.136997,0.231026,0.009753,-16.260368,29.045921,-18.799072,,,,,,,
1530640559.184945,-2.133223,-0.914526,-0.663324,-0.218274,1.436994,0.137496,-0.516178,0.792274,0.325365,0.552478,-0.582450,0.158918,-16.555964,29.381630,-19.229286,,,,,,,
1530640559.204914,-2.116278,-0.928865,-0.671345,0.404254,0.715882,1.102365,-0.511852,0.800941,0.310646,0.419475,-0.428519,-0.843361,-16.435650,29.624168,-19.660492,,,,,,,
1530640559.224883,-2.125833,-0.960918,-0.680503,0.551563,-0.190463,1.578521,-0.486784,0.819718,0.301834,-0.139666,0.430175,-0.658874,-16.454395,29.874001,-19.824883,,,,,,,
1530640559.244852,-2.146418,-0.977949,-0.701043,-0.286728,-0.335783,0.603148,-0.468688,0.829353,0.304145,-0.909715,1.161812,0.265267,-16.809471,30.172523,-19.303017,,,,,,,
1530640559.264821,-2.161366,-0.976477,-0.710570,-0.211704,-0.286709,-0.111399,-0.465103,0.828530,0.311796,-0.095215,0.202430,-0.638426,-17.472757,30.321472,-19.040604,,,,,,,
1530640559.284790,-2.160370,-0.972424,-0.709030,0.014271,0.189521,-0.185927,-0.468201,0.826254,0.313197,0.302933,-0.284963,-0.670619,-18.400053,30.541664,-18.777016,,,,,,,
1530640559.304759,-2.139860,-0.974332,-0.699933,0.443238,0.932927,0.044965,-0.473197,0.827327,0.302679,0.435874,-0.448970,-0.629293,-18.854650,30.352638,-18.729477,,,,,,,
1530640559.324728,-2.104255,-0.986303,-0.685378,0.744957,1.245681,0.459566,-0.475109,0.833992,0.280586,0.422664,-0.338829,-0.583702,-18.758919,29.898605,-19.085426,,,,,,,
1530640559.344696,-2.070158,-1.004401,-0.673065,0.691990,1.116279,0.656874,-0.471069,0.843841,0.256956,0.236923,0.021180,-0.528928,-18.606720,29.599213,-19.563316,,,,,,,
1530640559.364665,-2.030955,-1.019792,-0.659318,0.807149,1.939312,0.402927,-0.469084,0.851999,0.232500,-0.058443,0.395254,-0.330370,-18.260668,29.499458,-19.910324,,,,,,,
1530640559.384634,-1.922676,-1.034119,-0.616146,1.556883,4.320147,0.093640,-0.479954,0.859412,0.176220,-0.246456,0.452569,0.027348,-16.987843,28.688736,-21.158401,,,,,,,
1530640559.404603,-1.786234,-1.040878,-0.553231,1.624533,3.670937,-0.213276,-0.493778,0.862848,0.108055,-0.141583,0.211493,-0.225655,-15.391102,27.690445,-22.673035,,,,,,,
1530640559.424572,-1.682828,-1.043588,-0.496447,1.281953,2.190049,0.039923,-0.499969,0.864215,0.056248,-0.002457,-0.129855,-0.012867,-14.397387,26.550591,-23.561203,,,,,,,
1530640559.444541,-1.623357,-1.052073,-0.457453,0.865230,0.727543,0.511864,-0.495087,0.868453,0.026046,0.039978,-0.354522,0.103226,-13.797197,25.948112,-24.143768,,,,,,,
1530640559.464510,-1.593299,-1.065252,-0.422648,0.963971,-0.350846,0.646898,-0.484161,0.874911,0.010897,0.009475,-0.320651,-0.139116,-14.006592,25.419769,-23.820686,,,,,,,
1530640559.484479,-1.555379,-1.077083,-0.369835,1.461942,-0.357969,0.535858,-0.473843,0.880579,-0.007306,-0.023121,-0.343958,-0.068317,-14.250576,24.939293,-23.558769,,,,,,,
1530640559.504448,-1.496481,-1.084509,-0.298364,1.735580,-0.190502,0.410797,-0.466056,0.884074,-0.034699,0.017936,-0.397456,0.013810,-14.480640,24.066299,-23.382446,,,,,,,
1530640559.524417,-1.437433,-1.089919,-0.221756,1.726539,-0.595154,0.500613,-0.458450,0.886590,-0.061505,0.091033,-0.424203,-0.051273,-14.516256,23.385025,-22.884338,,,,,,,
1530640559.544386,-1.381742,-1.095673,-0.146939,1.619917,-0.358337,0.581626,-0.449298,0.889236,-0.085968,0.030017,-0.364776,0.086777,-14.736816,22.795700,-22.368446,,,,,,,
1530640559.564355,-1.307978,-1.099926,-0.073022,1.592456,0.914541,0.574035,-0.438084,0.891174,-0.117863,-0.102031,-0.241577,0.274617,-14.169582,22.118073,-21.955040,,,,,,,
1530640559.584324,-1.211196,-1.100465,0.001279,1.593833,1.788164,0.512448,-0.424195,0.891418,-0.159475,-0.218658,-0.086914,0.254278,-13.072756,21.487755,-21.910225,,,,,,,
1530640559.604293,-1.107672,-1.096016,0.070701,1.499520,2.335676,0.361864,-0.408988,0.889393,-0.204226,-0.347436,0.076290,0.282962,-11.642742,21.076500,-21.861122,,,,,,,
1530640559.624262,-0.996182,-1.086691,0.127688,1.249112,3.491734,0.177050,-0.390672,0.885092,-0.252959,-0.420378,0.194620,0.566222,-9.799160,20.849640,-21.766205,,,,,,,
1530640559.644231,-0.905000,-1.082125,0.150389,-0.070434,3.172585,0.096831,-0.369189,0.882958,-0.289974,-0.439191,0.276207,0.868938,-7.564913,20.585533,-21.600342,,,,,,,
1530640559.664200,-0.918701,-1.099277,0.109031,-1.779812,-0.042279,0.055340,-0.361036,0.890879,-0.275657,-0.488710,0.178457,0.488060,-6.302349,21.488304,-20.658195,,,,,,,
1530640559.684169,-0.987451,-1.118354,0.046414,-1.417855,-0.513921,-0.082375,-0.364867,0.899382,-0.240798,-0.642198,0.025178,0.209273,-6.050344,22.705070,-18.545868,,,,,,,
1530640559.704138,-1.020288,-1.121859,0.011873,-0.364627,-0.095922,-0.395735,-0.369887,0.900909,-0.227038,-0.692079,0.043915,0.170093,-5.612982,24.070732,-16.764305,,,,,,,
1530640559.724107,-1.044338,-1.112123,-0.001216,0.164892,-0.905879,-0.626386,-0.382806,0.896641,-0.222475,-0.712623,0.171780,0.044969,-5.040968,24.433876,-15.459740,,,,,,,
1530640559.744076,-1.078829,-1.101280,-0.012817,-0.219027,-1.391654,-0.600905,-0.398796,0.891787,-0.213722,-0.852654,0.208890,0.424125,-4.773207,25.424080,-14.270424,,,,,,,
1530640559.764045,-1.185729,-1.098220,-0.080914,-2.061395,-3.074237,-0.961465,-0.421850,0.890399,-0.170976,-0.790095,0.036069,0.811799,-4.448904,26.376755,-12.651680,,,,,,,
1530640559.784014,-1.383907,-1.089575,-0.210373,-2.943364,-4.659238,-1.431012,-0.454802,0.886430,-0.086001,-0.410310,0.110747,0.105883,-4.734148,28.037827,-10.297813,,,,,,,
1530640559.803983,-1.596809,-1.060493,-0.339177,-2.925510,-5.026424,-1.811540,-0.488276,0.872597,0.012704,-0.359548,0.250618,-0.409891,-5.383947,29.657387,-7.428200,,,,,,,
1530640559.823952,-1.781968,-1.017599,-0.445966,-2.962658,-4.321266,-1.774307,-0.513738,0.850849,0.110129,-0.308390,0.327603,-0.496863,-5.856398,30.746239,-5.208664,,,,,,,
1530640559.843921,-1.922212,-0.968066,-0.532761,-2.953183,-2.639470,-1.691880,-0.532248,0.823791,0.195140,-0.316583,0.619920,-0.423396,-6.276533,31.803436,-3.363815,,,,,,,
1530640559.863890,-1.982376,-0.916188,-0.592931,-2.324107,0.892258,-1.764603,-0.558003,0.793287,0.243574,-0.253185,0.943316,-0.220549,-6.587774,33.017464,-1.446838,,,,,,,
1530640559.883859,-1.941182,-0.873693,-0.622999,-1.322092,4.403200,-1.403524,-0.598463,0.766705,0.232387,0.056456,1.011325,-0.193767,-6.697702,33.312248,-1.061783,,,,,,,
1530640559.903827,-1.862019,-0.847764,-0.633105,-0.445045,3.230202,-1.033504,-0.633800,0.749803,0.189979,0.271847,0.759597,-0.252662,-6.714277,33.824181,-1.074898,,,,,,,
1530640559.923796,-1.877148,-0.825624,-0.637464,-0.544112,-2.490774,-0.959732,-0.646526,0.734971,0.204502,0.128932,0.270217,-0.414158,-7.169874,34.156143,-0.692001,,,,,,,
1530640559.943765,-1.956808,-0.809472,-0.649236,-0.669037,-3.829272,-0.395394,-0.639117,0.723923,0.259737,0.418140,0.016861,-0.556460,-7.528826,34.423683,-0.061371,,,,,,,
1530640559.963734,-2.043793,-0.803372,-0.661185,-0.338943,-3.982408,0.023128,-0.618055,0.719702,0.316285,0.453947,-0.178533,-0.699723,-7.672436,34.848648,0.503296,,,,,,,
1530640559.983703,-2.124815,-0.805799,-0.660419,0.350673,-4.107739,0.075564,-0.588943,0.721384,0.364348,0.351410,-0.344675,-0.744201,-7.632811,34.903008,0.698341,,,,,,,
1530640560.003672,-2.188170,-0.811164,-0.643927,0.689682,-3.455507,-0.233359,-0.561530,0.725089,0.398659,0.181906,-0.464057,-0.430275,-7.855356,35.049271,0.804237,,,,,,,
1530640560.023641,-2.230664,-0.808802,-0.623506,0.339524,-2.518566,-0.654360,-0.545438,0.723461,0.423202,0.151655,-0.546199,-0.239684,-8.123430,35.339645,0.826935,,,,,,,
1530640560.043610,-2.259938,-0.801900,-0.607008,0.231569,-1.840346,-0.549636,-0.536659,0.718679,0.442150,0.404014,-0.549367,-0.491726,-8.515713,35.398430,1.255173,,,,,,,
1530640560.063579,-2.281054,-0.802637,-0.593083,0.526621,-1.396520,-0.092270,-0.526802,0.719191,0.453037,0.536049,-0.498701,-0.691486,-8.523806,35.833488,0.976578,,,,,,,
1530640560.083548,-2.294945,-0.818129,-0.582228,0.957960,-0.864015,0.625073,-0.512050,0.729868,0.452875,0.673641,-0.470530,-0.703470,-8.148813,36.488319,0.596474,,,,,,,
,,,,,,,,,,,,,,,,39.779238,-84.064360,292.613831,-1.000000,-1.000000,1530640560.065101,
