timestamp(unix),attitude_roll(radians),attitude_pitch(radians),attitude_yaw(radians),rotation_rate_x(radians/s),rotation_rate_y(radians/s),rotation_rate_z(radians/s),gravity_x(G),gravity_y(G),gravity_z(G),user_acc_x(G),user_acc_y(G),user_acc_z(G),magnetic_field_x(microteslas),magnetic_field_y(microteslas),magnetic_field_z(microteslas),latitude(degree),longitude(degree),altitude(meter),speed(m/s),course(degree),timestamp(unix),User Mark
,,,,,,,,,,,,,,,,39.779202,-84.064382,292.339264,-1.000000,-1.000000,1530638790.265076,
1530638797.262455,0.100266,0.472901,3.123079,0.051038,0.152949,-0.325684,0.089112,-0.455471,-0.885779,0.066543,0.026775,0.004584,3.699083,-11.301811,-21.297432,,,,,,,
,,,,,,,,,,,,,,,,39.779202,-84.064382,292.339264,-1.000000,-1.000000,1530638797.238548,
1530638797.282425,0.099206,0.472399,3.117624,-0.067459,-0.330393,-0.185469,0.088196,-0.455024,-0.886100,0.084976,-0.015939,0.049095,3.697618,-11.166374,-21.017235,,,,,,,
1530638797.302394,0.092697,0.468912,3.115061,-0.205248,-0.337325,-0.134420,0.082573,-0.451916,-0.888230,-0.004707,-0.011891,-0.007690,3.706236,-11.263618,-21.185684,,,,,,,
1530638797.322363,0.092462,0.464160,3.111209,-0.209789,0.038666,-0.229621,0.082561,-0.447672,-0.890378,-0.030392,0.023035,-0.060016,3.571474,-11.086121,-20.923012,,,,,,,
1530638797.342332,0.099208,0.460622,3.106117,-0.111249,0.292548,-0.231603,0.088723,-0.444505,-0.891371,0.036460,0.051118,-0.073000,3.826517,-11.129326,-20.929573,,,,,,,
,,,,,,,,,,,,,,,,39.779184,-84.064409,292.339264,-1.000000,-1.000000,1530638797.320550,
1530638797.362302,0.106508,0.460503,3.101857,0.092631,0.217993,-0.155410,0.095232,-0.444399,-0.890752,0.053678,0.030321,-0.072108,3.850943,-11.068184,-21.340958,,,,,,,
,,,,,,,,,,,,,,,,39.779184,-84.064409,292.339264,-1.000000,-1.000000,1530638797.337976,
1530638797.382271,0.109674,0.464107,3.099081,0.218936,0.025341,-0.078953,0.097876,-0.447625,-0.888848,0.034662,0.024773,-0.017081,3.925726,-11.193550,-21.302666,,,,,,,
,,,,,,,,,,,,,,,,39.779184,-84.064410,292.339264,-1.000000,-1.000000,1530638797.369444,
,,,,,,,,,,,,,,,,39.779184,-84.064410,292.339264,-1.000000,-1.000000,1530638797.373705,
1530638797.402240,0.110064,0.467319,3.097342,0.119139,-0.010108,-0.056485,0.098064,-0.450495,-0.887376,0.020451,0.021356,0.036897,4.074221,-11.169464,-21.176315,,,,,,,
1530638797.422210,0.111875,0.466711,3.096665,-0.109904,0.135343,-0.006968,0.099702,-0.449951,-0.887470,0.027770,0.023895,0.065112,3.960775,-11.098358,-21.097366,,,,,,,
1530638797.442179,0.115868,0.461717,3.098232,-0.318202,0.287217,0.070401,0.103503,-0.445486,-0.889285,0.008450,0.027945,0.039996,3.968241,-11.040604,-21.217583,,,,,,,
1530638797.462148,0.120596,0.455205,3.100672,-0.301366,0.280634,0.063721,0.108053,-0.439646,-0.891647,-0.017340,0.037486,-0.014573,4.081861,-10.792961,-21.437706,,,,,,,
1530638797.482118,0.123177,0.451506,3.102048,-0.122786,0.054494,0.031606,0.110553,-0.436321,-0.892973,0.003308,0.005322,-0.039263,4.189878,-10.847664,-21.193481,,,,,,,
1530638797.502087,0.121476,0.451149,3.102583,0.029456,-0.113223,0.012996,0.109053,-0.436000,-0.893314,-0.015639,-0.007436,-0.076702,4.167505,-10.874496,-21.484512,,,,,,,
1530638797.522056,0.120870,0.452989,3.102171,0.117747,0.031557,-0.015285,0.108415,-0.437655,-0.892582,-0.021653,0.014498,-0.045604,4.099520,-10.956940,-21.515305,,,,,,,
1530638797.542026,0.123688,0.454760,3.101594,0.057901,0.160696,-0.009712,0.110834,-0.439246,-0.891503,-0.008875,-0.002404,0.017342,4.174536,-11.013046,-21.085304,,,,,,,
1530638797.561995,0.126882,0.453652,3.101808,-0.117378,0.171668,0.008385,0.113742,-0.438251,-0.891626,-0.027240,-0.023907,0.053400,4.133074,-10.853058,-21.208290,,,,,,,
1530638797.581964,0.129389,0.450309,3.102519,-0.182435,0.099888,0.015205,0.116166,-0.435244,-0.892786,0.014007,-0.002729,0.022547,4.257540,-10.855576,-21.292854,,,,,,,
1530638797.601934,0.128827,0.447277,3.103721,-0.135471,-0.001898,0.045491,0.115833,-0.432512,-0.894156,0.023220,-0.003951,-0.002008,4.472948,-10.816475,-21.407738,,,,,,,
1530638797.621903,0.129408,0.445237,3.105519,-0.097983,0.121526,0.074808,0.116466,-0.430671,-0.894962,-0.019527,0.003151,-0.016400,4.363562,-10.775864,-21.203781,,,,,,,
1530638797.641872,0.132506,0.444398,3.106592,-0.017799,0.179325,0.013834,0.119286,-0.429915,-0.894954,-0.040001,-0.000017,-0.027607,4.329981,-10.826614,-21.539703,,,,,,,
1530638797.661841,0.135468,0.445519,3.105680,0.101333,0.072726,-0.061291,0.121870,-0.430927,-0.894119,-0.038619,-0.008221,-0.027832,4.659689,-10.957039,-21.326431,,,,,,,
1530638797.681811,0.136579,0.448504,3.103183,0.199170,-0.019786,-0.097294,0.122688,-0.433618,-0.892705,-0.021294,-0.022330,-0.034434,4.488733,-11.066994,-21.608322,,,,,,,
,,,,,,,,,,,,,,,,39.779197,-84.064400,292.563843,-1.000000,-1.000000,1530638797.666350,
1530638797.701780,0.135256,0.452747,3.100663,0.237747,-0.130401,-0.066959,0.121258,-0.437437,-0.891035,-0.019375,-0.018114,-0.006120,4.503588,-11.056961,-21.758499,,,,,,,
1530638797.721749,0.134128,0.456495,3.098771,0.170558,-0.069715,-0.059482,0.120033,-0.440805,-0.889540,-0.025123,-0.016119,0.014891,4.514196,-11.143211,-21.717026,,,,,,,
1530638797.741719,0.134791,0.458374,3.096989,0.059548,0.046377,-0.080384,0.120512,-0.442491,-0.888638,-0.037153,-0.025786,0.052105,4.520803,-11.361259,-21.519577,,,,,,,
1530638797.761688,0.138385,0.457615,3.094377,-0.066842,0.151734,-0.144322,0.123750,-0.441810,-0.888532,-0.026659,-0.020394,0.033139,4.461962,-11.090446,-21.437889,,,,,,,
1530638797.781657,0.143836,0.454219,3.091340,-0.200890,0.233633,-0.168379,0.128806,-0.438761,-0.889324,-0.020820,-0.021688,0.018367,4.729570,-11.227066,-21.519836,,,,,,,
1530638797.801627,0.148585,0.449833,3.088206,-0.164066,0.116687,-0.180119,0.133312,-0.434815,-0.890597,0.004612,0.000367,-0.055723,4.885107,-11.115913,-21.586548,,,,,,,
1530638797.821596,0.150661,0.448252,3.084188,0.009145,-0.032269,-0.198864,0.135264,-0.433391,-0.890997,0.014685,0.014827,-0.043513,4.776236,-10.843582,-21.758133,,,,,,,
1530638797.841565,0.151031,0.449794,3.079916,0.145239,-0.079987,-0.169268,0.135492,-0.434780,-0.890285,0.004263,0.012783,-0.000523,4.874659,-10.934555,-21.844948,,,,,,,
1530638797.861534,0.150824,0.453196,3.075800,0.217471,-0.111033,-0.152930,0.135085,-0.437841,-0.888845,-0.007781,0.009131,0.009847,4.816446,-10.962311,-21.514519,,,,,,,
1530638797.881504,0.150609,0.457931,3.071846,0.291803,-0.089078,-0.138520,0.134581,-0.442093,-0.886815,-0.015563,0.004532,-0.001155,4.906572,-11.035187,-21.639565,,,,,,,
1530638797.901473,0.150205,0.464135,3.067563,0.365282,-0.144246,-0.146041,0.133810,-0.447650,-0.884140,-0.011114,0.017001,-0.021194,4.653082,-11.185921,-21.557243,,,,,,,
1530638797.921442,0.148638,0.470909,3.062648,0.358283,-0.219032,-0.186233,0.131972,-0.453697,-0.881329,-0.007201,-0.008111,-0.038028,4.695871,-11.311157,-21.438141,,,,,,,
1530638797.941412,0.143076,0.475365,3.058301,0.115463,-0.565030,-0.106581,0.126778,-0.457663,-0.880040,0.017265,-0.037469,-0.084636,4.508570,-11.510521,-21.277077,,,,,,,
1530638797.961381,0.127196,0.470219,3.057920,-0.484952,-0.813750,-0.029115,0.113085,-0.453082,-0.884267,-0.091464,0.093066,0.105626,4.121103,-11.315460,-21.560455,,,,,,,
1530638797.981351,0.116894,0.453352,3.058932,-1.007933,-0.286663,-0.079238,0.104847,-0.437982,-0.892848,-0.116077,0.061105,0.043819,4.120718,-10.918694,-21.678986,,,,,,,
1530638798.001321,0.114951,0.431095,3.060186,-1.138244,0.020084,-0.052638,0.104204,-0.417866,-0.902513,-0.100801,0.057590,-0.011336,4.031427,-10.520027,-21.986145,,,,,,,
1530638798.021290,0.116575,0.410403,3.063422,-0.958028,0.219952,0.089846,0.106653,-0.398979,-0.910736,-0.078119,0.036552,-0.022614,4.170500,-10.129318,-21.995216,,,,,,,
1530638798.041259,0.118315,0.396584,3.070468,-0.566727,0.154135,0.330177,0.108877,-0.386269,-0.915937,-0.032431,-0.062125,-0.141268,4.144087,-9.810371,-22.286064,,,,,,,
1530638798.061229,0.113051,0.391968,3.081539,-0.144723,-0.073752,0.539208,0.104255,-0.382008,-0.918259,0.031823,-0.106182,-0.011993,4.082037,-9.696671,-22.268700,,,,,,,
1530638798.081198,0.109282,0.394342,3.093037,0.188933,0.057681,0.513634,0.100694,-0.384201,-0.917741,0.015776,-0.010605,0.138857,4.012129,-9.676117,-22.165215,,,,,,,
1530638798.101166,0.104766,0.400466,3.099041,0.281362,-0.261952,0.117446,0.096301,-0.389847,-0.915830,0.024427,0.009262,0.095136,3.794100,-9.703697,-22.202606,,,,,,,
1530638798.121137,0.095662,0.402897,3.093594,0.060544,-0.688538,-0.442013,0.087868,-0.392085,-0.915722,-0.042367,-0.108800,0.037777,3.663622,-9.670059,-22.121437,,,,,,,
1530638798.141106,0.087273,0.400151,3.082562,-0.200382,-0.479615,-0.470578,0.080277,-0.389558,-0.917496,0.017746,-0.067001,0.005418,3.613619,-9.621040,-22.139618,,,,,,,
1530638798.161075,0.084934,0.392948,3.078742,-0.403365,0.039521,-0.024793,0.078366,-0.382913,-0.920454,0.017062,0.105905,0.028364,3.540125,-9.612045,-22.128700,,,,,,,
1530638798.181044,0.090038,0.387916,3.084433,-0.145340,0.415521,0.345281,0.083236,-0.378260,-0.921949,0.059175,0.058909,-0.132479,3.619623,-9.395317,-22.170509,,,,,,,
1530638798.201014,0.091995,0.390657,3.089735,0.244391,0.024902,0.142947,0.084944,-0.380796,-0.920749,0.016619,0.038236,-0.081235,3.621134,-9.344933,-22.310860,,,,,,,
1530638798.220983,0.085877,0.397667,3.085674,0.401563,-0.598830,-0.340600,0.079078,-0.387268,-0.918569,-0.026008,0.001938,-0.034922,3.425966,-9.475906,-22.079193,,,,,,,
1530638798.240952,0.074477,0.405624,3.073022,0.480600,-0.921355,-0.637434,0.068370,-0.394593,-0.916308,0.022664,-0.023666,-0.062421,3.266531,-9.721992,-22.062538,,,,,,,
1530638798.260921,0.063484,0.413543,3.057516,0.402108,-0.840594,-0.658858,0.058093,-0.401856,-0.913858,-0.057346,0.073105,0.093149,3.064421,-10.038773,-22.011749,,,,,,,
1530638798.280890,0.052333,0.418451,3.045188,0.209809,-0.761156,-0.483861,0.047796,-0.406345,-0.912468,-0.010366,0.025318,0.038521,2.827383,-10.015160,-22.002029,,,,,,,
1530638798.300859,0.041832,0.421415,3.036193,0.166969,-0.715528,-0.375332,0.038161,-0.409052,-0.911712,0.024660,-0.012777,-0.026276,2.583323,-10.079742,-21.936150,,,,,,,
1530638798.320830,0.029234,0.424325,3.026645,0.139564,-0.889195,-0.482652,0.026638,-0.411706,-0.910927,0.049031,-0.035972,0.007652,2.314325,-10.054482,-21.821915,,,,,,,
1530638798.340799,0.016414,0.425660,3.014872,0.046747,-0.863335,-0.546247,0.014949,-0.412922,-0.910643,0.048039,-0.046016,0.068709,2.016325,-10.208733,-21.843483,,,,,,,
1530638798.360768,0.003694,0.425913,3.003556,0.010664,-0.891288,-0.493152,0.003364,-0.413153,-0.910655,0.024956,-0.045969,0.007350,2.076845,-10.206108,-21.872055,,,,,,,
1530638798.380738,-0.009624,0.426132,2.993238,0.010350,-0.861745,-0.455257,-0.008763,-0.413352,-0.910529,0.026830,0.018348,0.001502,1.811239,-10.334251,-21.692612,,,,,,,
1530638798.400707,-0.021282,0.426621,2.983423,0.020661,-0.747071,-0.436478,-0.019373,-0.413797,-0.910162,0.018656,0.039773,0.002722,1.578962,-10.172523,-21.812622,,,,,,,
1530638798.420676,-0.031242,0.427625,2.974414,0.048587,-0.661288,-0.391065,-0.028424,-0.414711,-0.909509,-0.006106,0.004158,-0.017676,1.227053,-10.213463,-21.762939,,,,,,,
1530638798.440645,-0.040733,0.429321,2.966329,0.092445,-0.644897,-0.368807,-0.037026,-0.416253,-0.908494,-0.006126,-0.020484,-0.053283,0.879398,-10.111488,-21.610191,,,,,,,
1530638798.460614,-0.049299,0.432738,2.957745,0.157862,-0.563980,-0.419803,-0.044737,-0.419358,-0.906718,-0.045763,0.017807,-0.054464,0.792547,-10.253578,-21.705040,,,,,,,
1530638798.480583,-0.055394,0.434687,2.948913,0.064101,-0.453904,-0.369738,-0.050217,-0.421127,-0.905610,-0.001419,0.024642,-0.028106,0.618139,-10.372749,-21.694588,,,,,,,
1530638798.500554,-0.058669,0.435515,2.942935,-0.021134,-0.202176,-0.211229,-0.053162,-0.421877,-0.905092,0.028427,-0.022260,0.021746,0.605436,-10.290596,-21.608475,,,,,,,
1530638798.520523,-0.059915,0.432981,2.940509,-0.200798,-0.078533,-0.043704,-0.054353,-0.419578,-0.906090,0.044161,-0.044640,0.029366,0.731493,-10.360725,-21.743423,,,,,,,
1530638798.540492,-0.060651,0.427739,2.939657,-0.282661,-0.042129,-0.036183,-0.055152,-0.414814,-0.908233,-0.025490,-0.013729,0.011367,0.670362,-10.144333,-21.789604,,,,,,,
1530638798.560462,-0.060090,0.422303,2.938286,-0.234456,0.038427,-0.034153,-0.054778,-0.409862,-0.910501,0.015792,-0.022129,-0.035941,0.664244,-10.108948,-22.068390,,,,,,,
1530638798.580431,-0.058887,0.419600,2.938402,-0.097584,0.054518,0.027018,-0.053747,-0.407395,-0.911668,0.005865,0.019105,-0.032149,0.665255,-9.983986,-21.947594,,,,,,,
1530638798.600399,-0.060230,0.418749,2.937716,-0.009668,-0.196502,-0.074354,-0.054992,-0.406618,-0.911941,-0.052353,0.019792,-0.050843,0.738155,-10.004143,-21.788979,,,,,,,
1530638798.620369,-0.063679,0.418415,2.935521,-0.064124,-0.190902,-0.083451,-0.058146,-0.406312,-0.911882,0.015773,-0.005095,0.068330,0.538561,-9.866646,-21.814766,,,,,,,
1530638798.640339,-0.063860,0.416106,2.935403,-0.131271,0.070981,0.042556,-0.058371,-0.404202,-0.912805,-0.014688,-0.009022,0.029947,0.633612,-9.993149,-21.678246,,,,,,,
1530638798.660308,-0.064529,0.413912,2.938371,-0.062393,-0.032899,0.214965,-0.059039,-0.402194,-0.913649,-0.046842,0.035006,0.004850,0.706593,-9.745483,-21.693092,,,,,,,
1530638798.680278,-0.068327,0.414010,2.943575,0.082187,-0.151200,0.234422,-0.062505,-0.402284,-0.913378,-0.066798,0.027742,0.041857,0.568916,-9.860909,-21.667679,,,,,,,
1530638798.700247,-0.079446,0.417687,2.947665,0.269712,-0.578918,0.138680,-0.072539,-0.405647,-0.911146,-0.162309,0.057594,0.078032,0.469229,-10.070015,-21.606239,,,,,,,
1530638798.720217,-0.092434,0.424318,2.950865,0.347646,-0.577559,0.097953,-0.084117,-0.411699,-0.907429,-0.208882,0.107286,0.197926,0.180347,-10.140266,-21.863052,,,,,,,
1530638798.740185,-0.103822,0.428834,2.952836,0.159430,-0.475462,0.029276,-0.094251,-0.415811,-0.904554,-0.211718,0.200296,0.314252,-0.145163,-9.927902,-21.778297,,,,,,,
1530638798.760154,-0.112924,0.429051,2.953316,-0.071467,-0.510876,0.053132,-0.102471,-0.416008,-0.903569,-0.207527,0.263023,0.373371,-0.308073,-10.156288,-21.668259,,,,,,,
1530638798.780125,-0.133242,0.426093,2.959822,-0.086874,-1.188767,0.545069,-0.120970,-0.413316,-0.902516,-0.159319,0.333619,0.381581,-0.664318,-10.142296,-21.523399,,,,,,,
1530638798.800094,-0.184453,0.424854,2.980466,0.218181,-2.815554,1.113139,-0.167103,-0.412188,-0.895643,-0.106532,0.421557,0.363157,-1.544020,-10.070435,-21.013885,,,,,,,
1530638798.820063,-0.269887,0.427689,3.009228,0.546558,-4.103813,1.255492,-0.242606,-0.414769,-0.876988,-0.200784,0.418538,0.573963,-3.015259,-10.122437,-20.479965,,,,,,,
1530638798.840033,-0.363669,0.428832,3.031244,0.088473,-4.104368,0.718960,-0.323497,-0.415809,-0.849971,-0.284017,0.555473,0.838085,-4.662279,-10.038803,-19.717957,,,,,,,
1530638798.860002,-0.440772,0.412376,3.038557,-1.029524,-3.561989,0.720553,-0.390873,-0.400787,-0.828605,-0.102062,0.627914,0.797203,-5.816708,-9.923576,-18.899178,,,,,,,
1530638798.879971,-0.521247,0.379606,3.043996,-1.406874,-4.360454,1.105760,-0.462512,-0.370555,-0.805463,0.101275,0.707224,0.505521,-7.190151,-9.609444,-18.236572,,,,,,,
1530638798.899940,-0.643100,0.345409,3.060909,-0.626328,-6.695426,1.893992,-0.564259,-0.338582,-0.752975,0.367863,0.775472,0.278915,-9.010939,-9.134209,-16.964470,,,,,,,
1530638798.919909,-0.808522,0.320429,3.101242,0.752524,-8.283947,2.464811,-0.686452,-0.314973,-0.655417,0.552358,0.964479,0.263572,-11.215145,-8.827896,-14.721565,,,,,,,
1530638798.939878,-1.008600,0.281677,-3.124826,1.112882,-9.417484,3.697962,-0.812741,-0.277967,-0.512037,0.491208,0.986631,0.191328,-13.293873,-8.330498,-11.685333,,,,,,,
1530638798.959847,-1.199939,0.214388,-3.062947,1.115908,-8.174860,4.711262,-0.910677,-0.212750,-0.354117,0.225573,0.923733,0.165503,-14.816719,-8.063042,-8.134415,,,,,,,
1530638798.979816,-1.344863,0.119797,-3.015136,0.752413,-6.016593,5.510712,-0.967597,-0.119511,-0.222410,-0.104836,0.804661,0.036131,-16.008045,-6.557785,-5.193672,,,,,,,
1530638798.999786,-1.439654,0.008246,-2.986674,0.242042,-3.919912,5.804523,-0.991376,-0.008246,-0.130762,-0.503177,0.599158,-0.112082,-16.738800,-5.022217,-2.839767,,,,,,,
1530638799.019756,-1.501143,-0.102951,-2.973646,0.078193,-2.756992,5.421455,-0.992289,0.102770,-0.069228,-0.830251,0.330046,-0.403871,-17.070351,-3.591507,-1.360580,,,,,,,
1530638799.039725,-1.551443,-0.201866,-2.963156,0.537342,-2.606197,4.665552,-0.979506,0.200498,-0.018959,-0.950334,0.107806,-0.748604,-17.279673,-2.216400,-0.013763,,,,,,,
1530638799.059694,-1.602800,-0.288052,-2.937219,1.784091,-3.120967,4.177385,-0.958303,0.284085,0.030679,-0.820658,-0.044736,-0.892831,-17.408012,-0.829109,1.408417,,,,,,,
1530638799.079664,-1.650928,-0.373729,-2.889809,2.778621,-3.073476,4.127101,-0.927980,0.365090,0.074520,-0.979460,-0.191887,-0.559765,-17.304298,0.607193,3.135277,,,,,,,
1530638799.099633,-1.679818,-0.456662,-2.836048,2.842769,-2.157577,3.696187,-0.892196,0.440954,0.097656,-1.356751,-0.389776,-0.221359,-17.296612,2.298996,4.128426,,,,,,,
1530638799.119602,-1.683264,-0.524321,-2.780766,2.759742,-1.085121,2.662549,-0.860190,0.500625,0.097153,-1.570642,-0.633255,0.104675,-17.016926,4.728577,4.917984,,,,,,,
1530638799.139571,-1.666507,-0.567060,-2.725671,2.379668,-0.335632,1.413741,-0.839618,0.537155,0.080607,-1.539105,-0.767059,0.404165,-16.927212,5.765602,4.904327,,,,,,,
1530638799.159541,-1.641625,-0.585575,-2.684788,1.383774,0.418692,0.453012,-0.831300,0.552678,0.058978,-1.283003,-0.834447,0.596478,-17.210701,6.321312,4.809639,,,,,,,
1530638799.179511,-1.616939,-0.586617,-2.665598,0.523159,0.770399,-0.240390,-0.831927,0.553546,0.038415,-1.017102,-0.798374,0.502555,-17.367498,6.363304,4.477783,,,,,,,
1530638799.199480,-1.598513,-0.578098,-2.668152,-0.687485,1.209387,-0.448616,-0.837177,0.546432,0.023210,-0.577527,-0.680069,1.014632,-17.577343,6.188293,4.342834,,,,,,,
1530638799.219449,-1.590449,-0.567622,-2.710719,-2.365815,1.605696,-0.529108,-0.843014,0.537629,0.016569,-0.428806,-0.656189,0.763933,-17.812176,5.707817,4.040390,,,,,,,
1530638799.239419,-1.599499,-0.552557,-2.773375,-2.654804,0.885860,-0.822856,-0.850829,0.524866,0.024428,-0.338364,-0.492334,0.161165,-18.094440,5.271263,3.951042,,,,,,,
1530638799.259387,-1.617905,-0.528658,-2.820746,-1.622103,0.054183,-1.288703,-0.862522,0.504375,0.040663,-0.110989,-0.216640,-0.028349,-18.083443,4.424889,4.171181,,,,,,,
1530638799.279356,-1.619520,-0.499172,-2.839318,-0.429404,0.612570,-1.476684,-0.876933,0.478698,0.042761,0.192530,-0.129409,0.220011,-18.074699,3.818390,3.768417,,,,,,,
1530638799.299327,-1.606836,-0.471170,-2.827499,0.959610,0.120394,-1.407587,-0.890455,0.453929,0.032106,0.089979,-0.036525,-0.076356,-17.964249,3.160645,3.870399,,,,,,,
1530638799.319296,-1.601223,-0.443492,-2.790899,1.888204,-0.982461,-1.445462,-0.902836,0.429096,0.027479,0.123204,0.061642,-0.348249,-17.698807,2.639015,4.295532,,,,,,,
1530638799.339265,-1.611094,-0.418881,-2.744932,2.074633,-1.566364,-1.145043,-0.912799,0.406739,0.036804,0.346576,0.176758,-0.192855,-17.314209,2.203568,4.455544,,,,,,,
1530638799.359235,-1.619358,-0.407444,-2.700325,1.978790,-1.112721,-0.332938,-0.917050,0.396264,0.044569,0.382519,0.126289,-0.180357,-17.009190,2.331818,4.637154,,,,,,,
1530638799.379204,-1.619793,-0.412179,-2.657326,2.015034,-0.715676,0.356685,-0.915146,0.400607,0.044875,0.283478,0.186780,-0.352355,-16.629824,2.345543,4.598938,,,,,,,
1530638799.399173,-1.608969,-0.426595,-2.610025,2.311408,-0.248429,0.779634,-0.909712,0.413773,0.034743,0.283873,0.195205,-0.332351,-16.407766,2.836037,4.554726,,,,,,,
1530638799.419142,-1.586428,-0.451098,-2.556155,2.540942,0.080379,1.430202,-0.899854,0.435954,0.014067,0.432188,0.210988,-0.210295,-16.201805,3.559692,4.396652,,,,,,,
1530638799.439111,-1.561176,-0.490620,-2.501765,2.284761,-0.082811,2.372617,-0.881996,0.471173,-0.008485,0.527458,-0.084835,0.005952,-16.107155,4.631409,4.244934,,,,,,,
1530638799.459082,-1.553825,-0.551151,-2.460976,1.312428,-1.012838,3.452713,-0.851795,0.523668,-0.014457,0.389439,-0.053865,0.121788,-15.399280,5.450394,4.328529,,,,,,,
1530638799.479051,-1.569954,-0.631771,-2.446108,0.167256,-1.209732,4.362383,-0.806978,0.590575,-0.000680,0.269945,0.074342,0.143868,-14.480726,6.787819,4.722984,,,,,,,
1530638799.499020,-1.597558,-0.724477,-2.457067,-0.587637,-0.983483,4.725281,-0.748574,0.662744,0.020038,0.151390,0.184577,0.060620,-13.560762,8.245667,5.323364,,,,,,,
1530638799.518990,-1.629636,-0.820942,-2.487742,-0.941808,-0.303463,5.060205,-0.680347,0.731788,0.040077,0.231800,-0.063682,0.182091,-12.327032,9.231789,5.686195,,,,,,,
1530638799.538959,-1.647664,-0.926661,-2.522673,-0.653779,0.874439,5.203021,-0.598728,0.799619,0.046114,0.291584,-0.015852,0.250868,-11.351269,10.612518,5.894302,,,,,,,
1530638799.558928,-1.642665,-1.021689,-2.552686,-0.334506,1.847920,4.734076,-0.520573,0.852991,0.037478,0.407231,-0.468835,0.079481,-10.527813,11.566116,5.730209,,,,,,,
1530638799.578897,-1.613696,-1.117527,-2.567490,0.055648,2.114140,4.849838,-0.437497,0.899020,0.018780,0.378659,-0.640826,-0.116497,-9.308435,12.332359,5.439308,,,,,,,
1530638799.598866,-1.568904,-1.213451,-2.558587,0.403827,1.589380,4.731429,-0.349779,0.936829,-0.000662,0.265581,-0.626206,-0.224970,-8.253788,12.756035,5.283730,,,,,,,
1530638799.618837,-1.495383,-1.301529,-2.504445,0.770494,0.732416,4.282265,-0.265259,0.963966,-0.020042,0.080566,0.165932,-0.189781,-7.122370,13.314438,4.972046,,,,,,,
1530638799.638806,-1.395109,-1.376753,-2.395559,0.769459,-0.999207,3.422975,-0.189845,0.981233,-0.033701,-0.442464,2.392776,-0.398779,-6.228121,13.902809,5.056671,,,,,,,
1530638799.658775,-1.293311,-1.401172,-2.239967,1.290359,-3.642892,0.177730,-0.162338,0.985648,-0.046239,-0.662384,2.519265,-0.857844,-5.276285,13.990349,5.488899,,,,,,,
1530638799.678745,-1.277864,-1.367611,-2.130568,1.441431,-4.803413,-1.860336,-0.193179,0.979429,-0.058265,-0.131924,0.944552,-0.314065,-4.839163,13.738640,5.306305,,,,,,,
1530638799.698714,-1.303687,-1.321513,-2.068709,1.186610,-3.863946,-2.012709,-0.237949,0.969090,-0.065114,0.110309,-0.012806,-0.009196,-4.968023,13.664665,5.239174,,,,,,,
1530638799.718683,-1.326157,-1.281689,-2.031258,0.878209,-2.373847,-1.651710,-0.276598,0.958499,-0.069050,0.230746,-0.476138,0.194004,-5.142883,13.804390,5.327957,,,,,,,
1530638799.738652,-1.267626,-1.254135,-1.980780,1.244143,2.610533,-0.739635,-0.297186,0.950280,-0.092964,0.312201,-0.858117,1.002449,-5.663452,13.984055,4.867096,,,,,,,
1530638799.758621,-1.130530,-1.242873,-1.928369,0.644393,4.829135,-0.033371,-0.291357,0.946713,-0.137260,0.114065,-0.321378,0.530418,-6.183746,14.124924,4.118568,,,,,,,
1530638799.778592,-1.060202,-1.245393,-1.939097,-0.712589,3.246276,0.007985,-0.278909,0.947522,-0.156228,-0.040748,0.116534,0.018105,-6.711557,14.293137,3.607185,,,,,,,
1530638799.798561,-1.091269,-1.254545,-2.008118,-1.340519,0.865793,-0.217906,-0.275921,0.950408,-0.143482,-0.085102,0.250886,-0.294003,-6.929174,13.998871,3.672386,,,,,,,
1530638799.818530,-1.173855,-1.259440,-2.093171,-1.189005,-0.485471,-0.374868,-0.282523,0.951919,-0.118431,0.012076,0.131409,-0.232246,-7.146471,13.963654,4.006119,,,,,,,
1530638799.838500,-1.245548,-1.260657,-2.153664,-0.692492,-0.763022,-0.171186,-0.289182,0.952291,-0.097519,0.123075,-0.078847,-0.152023,-7.024940,13.452248,4.481789,,,,,,,
1530638799.858469,-1.276338,-1.262670,-2.172164,-0.036239,-0.521185,0.105551,-0.290211,0.952904,-0.088014,0.067448,-0.058616,-0.066955,-7.031446,13.319679,4.750580,,,,,,,
1530638799.878438,-1.252608,-1.263229,-2.142870,0.647009,-0.073548,0.153271,-0.287536,0.953073,-0.094709,-0.044526,0.030753,-0.062289,-6.999100,13.563469,4.987862,,,,,,,
1530638799.898407,-1.205030,-1.259032,-2.090399,0.867254,-0.221763,0.025100,-0.286440,0.951794,-0.109707,-0.054945,-0.016094,-0.075779,-6.852659,13.368782,4.324936,,,,,,,
1530638799.918376,-1.170845,-1.253459,-2.043769,0.682777,-0.686457,0.025905,-0.287405,0.950070,-0.121496,-0.033732,-0.068920,-0.042658,-6.858650,13.667297,3.991699,,,,,,,
1530638799.938347,-1.159710,-1.251608,-2.012869,0.365041,-0.998596,0.161527,-0.287646,0.949491,-0.125391,-0.033735,-0.106763,0.008158,-6.646971,13.580948,4.118149,,,,,,,
1530638799.958316,-1.159037,-1.253696,-1.992399,0.213331,-0.852293,0.243657,-0.285745,0.950144,-0.124792,-0.083701,-0.067316,0.024099,-6.376196,13.540253,4.311928,,,,,,,
1530638799.978285,-1.153624,-1.255870,-1.973942,0.227258,-0.458987,0.197951,-0.283175,0.950819,-0.125499,-0.115292,0.041551,-0.011921,-6.196865,13.671120,4.147484,,,,,,,
1530638799.998255,-1.140949,-1.257109,-1.955468,0.230524,-0.132067,0.174682,-0.280491,0.951202,-0.128588,-0.107417,0.060715,-0.029982,-6.156628,13.846191,4.183296,,,,,,,
1530638800.018224,-1.124073,-1.258377,-1.937901,0.210543,0.072148,0.176963,-0.277193,0.951593,-0.132781,-0.069960,-0.035486,-0.022935,-6.021393,13.680969,4.226776,,,,,,,
1530638800.038193,-1.106365,-1.258866,-1.922043,0.220534,0.184130,0.106212,-0.274381,0.951743,-0.137459,-0.055361,-0.053351,0.037942,-5.997747,13.734764,4.217720,,,,,,,
1530638800.058162,-1.083586,-1.257056,-1.905458,0.296840,0.458603,0.001028,-0.272701,0.951186,-0.144480,-0.065907,0.036607,0.133921,-6.161406,13.732986,4.036781,,,,,,,
1530638800.078131,-1.057886,-1.253967,-1.890465,0.238224,0.608872,-0.015955,-0.271458,0.950228,-0.152881,-0.104076,0.051496,0.174244,-6.046932,13.487030,3.783897,,,,,,,
1530638800.098102,-1.042994,-1.253346,-1.885685,-0.024326,0.420937,0.035546,-0.269661,0.950034,-0.157204,-0.124367,-0.028800,0.107369,-6.140593,13.447121,3.837921,,,,,,,
1530638800.118071,-1.046577,-1.255582,-1.893740,-0.222448,0.085415,0.034966,-0.268383,0.950730,-0.155173,-0.127842,-0.073151,0.034110,-6.106922,13.160561,3.564720,,,,,,,
1530638800.138040,-1.060285,-1.258228,-1.907750,-0.227426,-0.039121,0.005296,-0.268289,0.951547,-0.150250,-0.117881,-0.082254,0.015225,-6.040819,13.233658,3.534164,,,,,,,
1530638800.158010,-1.068801,-1.259205,-1.917189,-0.056195,0.094674,-0.034712,-0.268743,0.951847,-0.147512,-0.086909,-0.053852,0.011831,-6.061638,13.074600,3.555489,,,,,,,
1530638800.177979,-1.061558,-1.257614,-1.914439,0.172248,0.319695,-0.019883,-0.268989,0.951358,-0.150193,-0.054772,-0.074328,0.017350,-6.166937,13.000946,3.905685,,,,,,,
1530638800.197948,-1.039840,-1.255266,-1.899146,0.311013,0.348861,0.066137,-0.267589,0.950632,-0.157129,-0.053059,-0.114404,0.001611,-6.200150,12.831627,3.722916,,,,,,,
1530638800.217917,-1.014219,-1.253533,-1.877146,0.348217,0.162892,0.138186,-0.264874,0.950093,-0.164803,-0.101810,-0.125905,0.028008,-5.972385,12.722031,3.530663,,,,,,,
1530638800.237886,-0.989975,-1.251920,-1.853481,0.364091,0.069163,0.122462,-0.262083,0.949588,-0.172017,-0.176516,-0.075504,0.083378,-6.015926,12.548592,3.342400,,,,,,,
1530638800.257857,-0.966339,-1.248892,-1.830997,0.398153,0.176678,0.057906,-0.260309,0.948635,-0.179796,-0.174444,-0.004360,0.153535,-5.798937,12.306511,3.516670,,,,,,,
1530638800.277826,-0.937790,-1.244336,-1.807504,0.468658,0.382229,0.022552,-0.258553,0.947183,-0.189708,-0.113517,0.047751,0.172511,-5.805273,12.184349,3.395264,,,,,,,
1530638800.297795,-0.906656,-1.238626,-1.783097,0.486357,0.388734,0.038578,-0.256778,0.945337,-0.200995,-0.068357,0.002112,0.188514,-5.854593,12.047859,2.996178,,,,,,,
1530638800.317765,-0.878934,-1.235011,-1.759217,0.374143,0.169262,0.173530,-0.253738,0.944152,-0.210214,-0.075105,-0.082610,0.183878,-5.737303,11.782585,2.935516,,,,,,,
1530638800.337734,-0.858389,-1.234705,-1.737256,0.265472,-0.092933,0.260784,-0.249584,0.944051,-0.215571,-0.131733,-0.072606,0.142344,-5.588795,11.690720,2.700470,,,,,,,
1530638800.357702,-0.841716,-1.235253,-1.715986,0.273891,-0.177927,0.259206,-0.245570,0.944231,-0.219359,-0.204473,-0.032503,0.110960,-5.571674,11.490654,2.519249,,,,,,,
1530638800.377672,-0.822479,-1.234689,-1.693206,0.357986,-0.037561,0.230943,-0.241695,0.944046,-0.224404,-0.239658,-0.025116,0.119866,-5.133423,10.886978,2.493118,,,,,,,
1530638800.397642,-0.796778,-1.232345,-1.667338,0.440874,0.129171,0.221153,-0.237430,0.943270,-0.232087,-0.243557,-0.037356,0.123521,-5.008224,10.555748,2.374107,,,,,,,
1530638800.417612,-0.768318,-1.228953,-1.640106,0.463918,0.134663,0.224168,-0.232953,0.942138,-0.241049,-0.241382,-0.037689,0.114020,-4.816710,10.157303,2.140129,,,,,,,
1530638800.437581,-0.743426,-1.225528,-1.614196,0.421979,-0.040875,0.228089,-0.229063,0.940985,-0.249147,-0.246721,-0.000387,0.103410,-4.760307,9.980850,1.825462,,,,,,,
1530638800.457550,-0.724186,-1.222679,-1.590554,0.377944,-0.174447,0.230068,-0.226003,0.940017,-0.255515,-0.264536,0.097917,0.125723,-4.348282,9.622719,1.484467,,,,,,,
1530638800.477520,-0.702923,-1.219464,-1.566328,0.432610,0.054198,0.207942,-0.222472,0.938915,-0.262567,-0.312806,0.226887,0.220041,-4.037859,8.993164,1.495659,,,,,,,
1530638800.497488,-0.667989,-1.214031,-1.537641,0.577082,0.625875,0.223174,-0.216323,0.937031,-0.274178,-0.321275,0.274150,0.364403,-3.926142,8.620796,1.066147,,,,,,,
1530638800.517458,-0.623023,-1.209032,-1.506945,0.414750,0.805185,0.321760,-0.206510,0.935274,-0.287425,-0.344424,0.228880,0.531078,-3.726128,8.181511,0.441048,,,,,,,
1530638800.537428,-0.605366,-1.213997,-1.493529,-0.413372,-0.201217,0.307403,-0.198758,0.937020,-0.287205,-0.534732,0.266884,0.533710,-3.390308,7.753204,0.489471,,,,,,,
1530638800.557397,-0.644542,-1.230165,-1.516151,-1.102203,-1.193893,0.057590,-0.200725,0.942544,-0.267053,-0.645543,0.213248,0.414423,-2.929684,6.611877,0.284508,,,,,,,
1530638800.577367,-0.721392,-1.248937,-1.571406,-1.384397,-1.165613,-0.187321,-0.208912,0.948649,-0.237526,-0.617840,0.074697,0.390373,-2.768793,6.428688,0.084526,,,,,,,
1530638800.597336,-0.819595,-1.266549,-1.651626,-1.561599,-1.118272,-0.320021,-0.218947,0.954073,-0.204462,-0.536455,-0.003542,0.216394,-2.355001,5.622246,-0.120689,,,,,,,
1530638800.617305,-0.951033,-1.282237,-1.758810,-1.810213,-1.694814,-0.424770,-0.231641,0.958655,-0.165288,-0.440676,0.007578,0.133229,-1.847315,4.945038,-0.387901,,,,,,,
1530638800.637275,-1.126069,-1.293389,-1.897314,-2.014596,-2.318694,-0.550704,-0.247218,0.961769,-0.117816,-0.282445,0.035363,0.045154,-1.542521,4.380913,-0.796722,,,,,,,
1530638800.657243,-1.326778,-1.296046,-2.054777,-2.086420,-2.481625,-0.612201,-0.263263,0.962493,-0.065547,-0.135831,0.061311,-0.043004,-1.089521,3.770546,-1.072723,,,,,,,
1530638800.677213,-1.520368,-1.290637,-2.209317,-2.018856,-2.018430,-0.550291,-0.276150,0.961011,-0.013938,-0.058383,0.050707,-0.228601,-0.780218,3.582512,-1.693619,,,,,,,
1530638800.697183,-1.676743,-1.278905,-2.344084,-1.851534,-0.904837,-0.520819,-0.286144,0.957701,0.030430,-0.021580,0.121965,-0.330937,-0.650242,3.489441,-2.211403,,,,,,,
1530638800.717152,-1.782790,-1.263417,-2.453293,-1.630612,0.389914,-0.510460,-0.295783,0.953130,0.063661,0.004035,0.308467,-0.416383,-0.423777,3.276482,-2.841820,,,,,,,
1530638800.737122,-1.849930,-1.243547,-2.541456,-1.658964,0.869752,-0.775320,-0.308993,0.946930,0.088563,-0.150098,0.444336,-0.193574,-0.149809,3.486488,-3.484657,,,,,,,
1530638800.757091,-1.954477,-1.203912,-2.646762,-2.694319,-1.032955,-1.588817,-0.332624,0.933450,0.134276,-0.255557,0.370322,-0.047514,-0.090187,3.773682,-3.457932,,,,,,,
1530638800.777061,-2.068335,-1.150837,-2.732793,-2.382127,-1.955460,-1.656995,-0.358287,0.913106,0.194589,-0.020910,0.167629,-0.414285,-0.078657,3.914925,-3.896530,,,,,,,
1530638800.797029,-2.134888,-1.110229,-2.762711,-1.043848,-1.952891,-1.293770,-0.375595,0.895801,0.237625,0.021499,0.026959,-0.588806,-0.167530,4.402077,-4.346474,,,,,,,
1530638800.816998,-2.157158,-1.087768,-2.744230,0.103407,-1.934268,-1.167863,-0.386875,0.885592,0.257001,-0.100139,-0.042498,-0.413678,-0.317520,4.725143,-4.654770,,,,,,,
1530638800.836969,-2.166329,-1.066717,-2.708871,-0.031460,-2.060173,-1.472251,-0.399849,0.875619,0.270937,-0.164222,-0.095666,-0.166826,-0.478239,5.216187,-5.268410,,,,,,,
1530638800.856938,-2.186031,-1.035799,-2.683383,-0.528814,-2.121409,-1.692653,-0.416351,0.860270,0.294252,-0.062714,-0.154200,-0.354234,-0.670591,5.261032,-5.587776,,,,,,,
1530638800.876907,-2.218208,-1.002227,-2.665857,-0.616093,-2.571845,-1.523490,-0.429473,0.842672,0.324736,0.130431,-0.224737,-0.590392,-1.188280,5.908333,-5.760963,,,,,,,
1530638800.896877,-2.266972,-0.977606,-2.652565,-0.363481,-3.229218,-0.978227,-0.428925,0.829161,0.358484,0.284760,-0.259062,-0.637964,-1.579998,6.461433,-6.122429,,,,,,,
1530638800.916846,-2.324185,-0.966440,-2.641707,-0.007285,-3.250856,-0.420221,-0.414452,0.822868,0.388734,0.371255,-0.263664,-0.546021,-1.889887,6.636200,-6.251297,,,,,,,
1530638800.936816,-2.375557,-0.967680,-2.635090,0.280841,-2.538167,0.108624,-0.393236,0.823572,0.408767,0.443468,-0.306314,-0.477111,-1.950941,7.059509,-6.384003,,,,,,,
1530638800.956785,-2.415236,-0.979577,-2.637040,0.462946,-1.515274,0.642245,-0.370177,0.830262,0.416689,0.512389,-0.378205,-0.427325,-2.115707,7.195274,-6.643005,,,,,,,
1530638800.976754,-2.444619,-1.000116,-2.650327,0.583653,-0.584703,1.119992,-0.346755,0.841534,0.414219,0.572386,-0.434719,-0.381886,-1.924601,7.573135,-7.131248,,,,,,,
1530638800.996724,-2.469287,-1.026874,-2.675153,0.636243,0.010066,1.471737,-0.322290,0.855686,0.404880,0.623223,-0.458469,-0.238452,-1.711390,7.632141,-7.652901,,,,,,,
1530638801.016693,-2.491104,-1.057122,-2.705353,0.844567,0.310007,1.508714,-0.297566,0.870945,0.391032,0.651097,-0.408558,0.033116,-1.203274,7.805054,-8.341064,,,,,,,
1530638801.036663,-2.492771,-1.092560,-2.712891,1.613566,0.119273,0.958175,-0.278080,0.887808,0.366693,0.528630,-0.229849,0.537283,-0.866844,7.830437,-9.036148,,,,,,,
1530638801.056632,-2.473094,-1.126853,-2.688026,1.473369,-0.256659,0.413205,-0.266207,0.903065,0.337050,-0.295424,0.171520,1.390474,-0.538685,7.502991,-9.680901,,,,,,,
1530638801.076601,-2.454508,-1.128125,-2.666111,-0.199642,0.306715,-0.838893,-0.271696,0.903611,0.331156,-0.943301,1.044815,1.173223,-0.584705,7.566124,-10.536209,,,,,,,
1530638801.096571,-2.390768,-1.106451,-2.615740,0.080237,1.110814,-1.874463,-0.305530,0.894115,0.327423,-0.744793,1.231816,-0.019760,-0.664803,7.795830,-10.835388,,,,,,,
1530638801.116540,-2.313412,-1.076402,-2.552103,-0.192999,0.999354,-2.185935,-0.349561,0.880256,0.320860,-0.607272,0.568138,0.140260,-0.845726,7.966263,-11.228035,,,,,,,
1530638801.136509,-2.261572,-1.039317,-2.511173,-0.479741,0.657217,-1.864208,-0.390621,0.862058,0.322904,-0.068271,-0.409406,-0.109571,-1.266596,8.413742,-11.581055,,,,,,,
1530638801.156479,-2.219787,-1.020677,-2.476182,0.633470,0.526564,-0.902803,-0.416501,0.852462,0.315963,0.300092,-0.754317,-0.845748,-1.343136,8.630730,-11.985428,,,,,,,
1530638801.176448,-2.177078,-1.037587,-2.426211,2.033676,-0.359037,0.504880,-0.417705,0.861180,0.289636,0.504344,-0.594609,-1.043145,-1.454172,9.013451,-12.706039,,,,,,,
1530638801.196418,-2.151771,-1.088333,-2.386958,1.709892,-0.283064,2.144819,-0.387837,0.885854,0.254639,0.084950,0.690867,1.550964,-1.188566,9.076836,-13.615128,,,,,,,
1530638801.216387,-2.204408,-1.129670,-2.447240,-0.385386,0.199610,2.525403,-0.344081,0.904271,0.252783,-0.061024,0.991618,-0.040853,-0.733091,9.402542,-13.763351,,,,,,,
1530638801.236356,-2.267253,-1.164098,-2.520357,0.138549,0.190520,2.059240,-0.303455,0.918432,0.253764,0.025546,0.378046,-0.862208,-0.018295,9.951469,-13.933098,,,,,,,
1530638801.256326,-2.290831,-1.194939,-2.551868,0.753171,0.390069,1.269567,-0.275955,0.930193,0.242049,0.158722,-0.050494,-0.667754,0.320900,10.477325,-14.161415,,,,,,,
1530638801.276295,-2.267806,-1.220503,-2.544205,1.015853,1.054241,0.674620,-0.263132,0.939272,0.220292,0.241495,-0.305269,-0.478760,0.785242,10.485428,-14.342896,,,,,,,
1530638801.296265,-2.205689,-1.240294,-2.506043,1.172562,1.371916,0.224741,-0.261280,0.945880,0.192468,0.230304,-0.414904,-0.470880,1.297804,10.602638,-14.941490,,,,,,,
1530638801.316234,-2.117827,-1.254495,-2.440141,1.311575,1.172102,-0.100185,-0.265661,0.950392,0.161795,0.200246,-0.327727,-0.426962,1.713526,10.422165,-15.455093,,,,,,,
1530638801.336203,-2.019939,-1.263298,-2.357734,1.307895,0.843303,-0.284005,-0.272653,0.953094,0.131418,0.103662,0.020921,-0.367335,1.872217,10.387688,-15.936523,,,,,,,
1530638801.356173,-1.931808,-1.265601,-2.277051,1.060468,0.410406,-0.408557,-0.281109,0.953788,0.106135,-0.082615,0.399941,-0.151865,2.048326,9.977859,-16.234772,,,,,,,
1530638801.376142,-1.853223,-1.265235,-2.208696,0.971899,1.035165,-0.236350,-0.288908,0.953678,0.083837,-0.184358,0.347637,0.400325,2.265730,9.771973,-16.740990,,,,,,,
1530638801.396112,-1.762495,-1.272022,-2.145244,0.980025,1.579018,0.296813,-0.288956,0.955698,0.056081,-0.049591,-0.021799,0.021388,2.787729,9.871948,-17.137421,,,,,,,
1530638801.416081,-1.687525,-1.283445,-2.089422,0.829860,0.683675,0.473133,-0.281484,0.958998,0.033007,-0.091883,-0.115355,-0.247363,3.130892,9.680176,-17.590324,,,,,,,
1530638801.436050,-1.634994,-1.292611,-2.034745,0.810412,-0.394841,0.312834,-0.274046,0.961555,0.017617,-0.111834,-0.182365,-0.282189,3.392282,9.622894,-17.882820,,,,,,,
1530638801.456020,-1.587493,-1.297349,-1.969077,0.982731,-0.879525,0.154428,-0.270014,0.962846,0.004509,-0.074331,-0.292252,-0.130836,3.391573,9.478378,-18.254570,,,,,,,
1530638801.475989,-1.513653,-1.300008,-1.880061,1.328481,-0.342203,0.179220,-0.267054,0.963560,-0.015277,-0.040547,-0.366408,-0.020917,3.405802,9.266357,-18.632820,,,,,,,
1530638801.495958,-1.405760,-1.301647,-1.768393,1.519467,0.149385,0.279857,-0.262299,0.963997,-0.043686,-0.061325,-0.316613,-0.050262,3.591532,9.010384,-19.182167,,,,,,,
1530638801.515928,-1.292834,-1.300374,-1.654496,1.467232,0.139636,0.255558,-0.256885,0.963658,-0.073302,-0.110257,-0.268010,-0.014848,3.803782,8.509033,-19.762848,,,,,,,
1530638801.535897,-1.185632,-1.295395,-1.548090,1.430701,0.366134,0.229000,-0.252010,0.962316,-0.102168,-0.144352,-0.239843,0.109538,4.044195,8.413208,-20.010040,,,,,,,
1530638801.555867,-1.072339,-1.287425,-1.446137,1.450385,1.004097,0.242652,-0.245573,0.960118,-0.133666,-0.169679,-0.120076,0.175261,4.356810,7.985176,-20.687935,,,,,,,
1530638801.575836,-0.958519,-1.276236,-1.352457,1.407481,1.269174,0.224975,-0.237580,0.956930,-0.166856,-0.121261,-0.013723,0.172166,5.152075,7.222122,-21.062248,,,,,,,
1530638801.595805,-0.854116,-1.264005,-1.270946,1.284214,1.372515,0.292575,-0.227706,0.953307,-0.198380,-0.119279,0.083482,0.241639,5.800909,6.927917,-21.190399,,,,,,,
1530638801.615775,-0.752560,-1.251570,-1.197709,1.233299,1.792703,0.353386,-0.214507,0.949479,-0.229078,-0.120317,0.164200,0.439100,6.789816,6.521370,-21.374405,,,,,,,
1530638801.635744,-0.654220,-1.238993,-1.135782,0.971185,1.962864,0.342983,-0.198231,0.945457,-0.258488,-0.171627,0.261636,0.574742,7.709604,6.324173,-21.485764,,,,,,,
1530638801.655714,-0.597985,-1.236505,-1.104556,0.006700,0.831714,0.335947,-0.184712,0.944643,-0.271164,-0.371531,0.276411,0.451447,8.583338,6.128098,-21.626999,,,,,,,
1530638801.675683,-0.600509,-1.248027,-1.104896,-0.681688,-0.657007,0.301599,-0.179234,0.948361,-0.261699,-0.507656,0.171528,0.143703,8.885675,6.317581,-21.851463,,,,,,,
1530638801.695652,-0.636414,-1.262555,-1.119150,-0.653476,-1.189494,0.198425,-0.180305,0.952869,-0.243989,-0.608132,0.093396,0.215242,8.904848,6.961243,-22.252007,,,,,,,
1530638801.715622,-0.657902,-1.268978,-1.126925,-0.132074,-0.378178,0.023137,-0.181759,0.954798,-0.235211,-0.732700,0.131262,0.243848,8.963770,7.072990,-22.275299,,,,,,,
1530638801.735591,-0.672821,-1.266705,-1.138996,-0.034526,-0.134827,-0.371466,-0.186600,0.954119,-0.234171,-0.846679,0.320081,0.251108,9.039312,7.526901,-22.602867,,,,,,,
1530638801.755561,-0.725177,-1.265529,-1.190627,-0.893186,-0.204578,-0.780040,-0.199343,0.953767,-0.224924,-0.877302,0.321090,0.689905,9.070578,8.275978,-22.516296,,,,,,,
1530638801.775530,-0.880422,-1.279414,-1.335612,-2.631111,-1.354275,-1.101390,-0.221491,0.957848,-0.182944,-0.644918,0.118218,0.362113,8.740957,9.570732,-22.305313,,,,,,,
1530638801.795499,-1.151459,-1.290051,-1.576389,-3.336567,-2.248760,-1.501552,-0.253064,0.960849,-0.112810,-0.375232,0.245343,0.172793,8.086222,11.553162,-22.260391,,,,,,,
1530638801.815469,-1.437086,-1.272934,-1.824536,-2.982810,-2.430290,-1.926822,-0.290856,0.955966,-0.039124,-0.225227,0.358121,-0.265396,6.790636,13.464592,-21.929192,,,,,,,
1530638801.835438,-1.651315,-1.235055,-1.997276,-2.463603,-2.527518,-1.939300,-0.328399,0.944166,0.026500,-0.101258,0.326799,-0.492305,5.353567,14.860497,-21.325943,,,,,,,
1530638801.855408,-1.799201,-1.192869,-2.107592,-2.105235,-1.923496,-1.663026,-0.359409,0.929432,0.083549,0.032672,0.473080,-0.458839,4.291147,16.389153,-20.735741,,,,,,,
1530638801.875377,-1.889468,-1.156142,-2.183232,-1.792862,-0.395873,-1.170418,-0.382588,0.915256,0.126222,0.200947,0.645261,-0.439179,3.685736,17.492760,-20.035355,,,,,,,
1530638801.895346,-1.929929,-1.129971,-2.243704,-1.527310,1.346490,-0.599703,-0.399462,0.904400,0.149963,0.350817,0.755268,-0.435867,3.859678,18.493553,-19.505272,,,,,,,
1530638801.915316,-1.954763,-1.112141,-2.302809,-1.656330,0.773899,-0.323908,-0.410503,0.896649,0.165851,0.237346,0.650013,0.128277,3.981947,19.529961,-18.929016,,,,,,,
1530638801.935285,-2.038024,-1.086271,-2.373449,-2.018594,-1.725618,-0.589868,-0.415864,0.884896,0.209796,0.234162,0.259513,-0.235141,3.169912,20.541885,-18.176361,,,,,,,
1530638801.955254,-2.123568,-1.061458,-2.421529,-1.302187,-2.277545,-0.468591,-0.414981,0.873067,0.256013,0.302616,-0.000677,-0.592561,2.397299,21.308266,-17.632141,,,,,,,
1530638801.975224,-2.182481,-1.046735,-2.439020,-0.445429,-2.139600,-0.343323,-0.409667,0.865794,0.287353,0.255889,-0.195857,-0.672622,1.406691,21.973656,-17.218407,,,,,,,
1530638801.995193,-2.220310,-1.038864,-2.430385,0.064180,-2.426194,-0.588491,-0.403921,0.861829,0.306753,0.006781,-0.290341,-0.451513,0.444916,22.524368,-17.117310,,,,,,,
1530638802.015163,-2.258642,-1.021616,-2.410454,-0.307854,-2.966843,-1.248269,-0.403295,0.852953,0.331396,-0.096690,-0.354097,-0.328344,-0.944742,22.829742,-17.010742,,,,,,,
1530638802.035132,-2.301934,-0.991704,-2.388971,-0.632152,-3.049306,-1.600040,-0.407391,0.836959,0.365417,-0.018833,-0.393478,-0.437576,-2.518141,23.171928,-16.651199,,,,,,,
1530638802.055101,-2.341112,-0.961985,-2.369165,-0.541507,-2.596723,-1.281739,-0.410441,0.820328,0.398243,0.202296,-0.469575,-0.561451,-4.049650,23.814240,-16.116714,,,,,,,
1530638802.075071,-2.379629,-0.947119,-2.358787,-0.154724,-2.234459,-0.368449,-0.403177,0.811736,0.422530,0.421274,-0.534652,-0.634841,-5.074446,23.917618,-15.871681,,,,,,,
1530638802.095040,-2.421003,-0.952363,-2.361595,0.317773,-1.727816,0.574820,-0.382541,0.814788,0.435640,0.522250,-0.517898,-0.619997,-5.182272,24.061584,-15.790665,,,,,,,
1530638802.115010,-2.455586,-0.974707,-2.377454,0.689783,-0.647063,1.352600,-0.355626,0.827538,0.434408,0.586552,-0.529930,-0.567480,-4.895771,24.274323,-16.018143,,,,,,,
1530638802.134979,-2.480387,-1.009346,-2.409363,0.857401,0.526372,1.987406,-0.326938,0.846484,0.420209,0.633961,-0.535067,-0.478116,-3.840744,24.457108,-16.521744,,,,,,,
1530638802.154948,-2.502379,-1.049442,-2.459234,0.763077,1.245864,2.348874,-0.297121,0.867146,0.399720,0.665972,-0.519108,-0.230531,-2.398264,24.661072,-17.019730,,,,,,,
1530638802.174918,-2.529985,-1.089112,-2.516533,1.027328,0.929565,2.100785,-0.266003,0.886216,0.379292,0.693157,-0.284989,0.498638,-0.733995,24.516403,-17.805290,,,,,,,
1530638802.194887,-2.528822,-1.128920,-2.526345,1.438028,0.366087,0.873877,-0.245948,0.903951,0.349830,-0.291192,0.377955,1.738610,0.186323,24.225777,-18.776108,,,,,,,
1530638802.214857,-2.494991,-1.133446,-2.506190,0.029752,1.292168,-0.959536,-0.255173,0.905877,0.338042,-1.013062,1.186316,1.241151,0.465620,24.220963,-19.231544,,,,,,,
1530638802.234826,-2.374821,-1.111093,-2.422501,0.629696,2.543548,-2.676908,-0.307832,0.896184,0.319519,-0.813414,1.229091,-0.077163,0.250181,24.105957,-19.627388,,,,,,,
1530638802.254795,-2.243091,-1.074939,-2.316955,0.364978,1.317048,-2.976593,-0.372251,0.879561,0.296311,-0.466586,0.603899,-0.010681,-0.741283,24.197845,-20.059769,,,,,,,
1530638802.274765,-2.183801,-1.032088,-2.260017,-0.380329,0.158409,-2.211719,-0.419615,0.858372,0.295158,-0.114137,-0.286076,0.129067,-1.768160,24.214264,-20.221748,,,,,,,
1530638802.294734,-2.151327,-1.008246,-2.234346,0.208781,0.897911,-0.785392,-0.445967,0.845898,0.292522,0.229246,-0.668407,-0.414134,-2.411161,24.650833,-20.021210,,,,,,,
1530638802.314704,-2.112571,-1.024069,-2.211795,1.335722,0.806375,1.063678,-0.445442,0.854231,0.268087,0.324241,-0.384992,-0.817113,-1.758989,24.275848,-20.931168,,,,,,,
1530638802.334673,-2.095029,-1.071311,-2.203395,0.927828,0.425341,2.226677,-0.414650,0.877829,0.239749,-0.335457,0.885721,1.074735,-0.742723,24.407921,-21.420677,,,,,,,
1530638802.354642,-2.124329,-1.108624,-2.239762,0.042929,-0.235121,1.836033,-0.379307,0.895086,0.234403,-0.111248,0.769373,-0.441800,0.212460,24.528374,-21.851692,,,,,,,
1530638802.374612,-2.165196,-1.135258,-2.270423,0.288586,-0.728260,1.300401,-0.349534,0.906643,0.236266,0.218614,0.086963,-0.650359,0.684044,24.695259,-21.865143,,,,,,,
1530638802.394581,-2.181454,-1.159315,-2.279679,0.666270,-0.096019,1.007145,-0.327679,0.916529,0.229342,0.343030,-0.270564,-0.554767,0.930544,25.041611,-22.026680,,,,,,,
1530638802.414551,-2.160563,-1.183414,-2.269490,0.939298,0.973878,0.805549,-0.313948,0.925901,0.210100,0.375289,-0.367582,-0.438768,1.737505,24.672264,-22.684898,,,,,,,
1530638802.434520,-2.105052,-1.205396,-2.240446,1.086056,1.603798,0.539552,-0.307528,0.933981,0.181948,0.356432,-0.317800,-0.425982,2.708090,24.467010,-22.985634,,,,,,,
1530638802.454489,-2.029462,-1.222476,-2.194926,1.103874,1.633165,0.282817,-0.306041,0.939947,0.151119,0.311183,-0.135077,-0.382351,3.524179,24.086021,-23.712944,,,,,,,
1530638802.474459,-1.949581,-1.233324,-2.141536,0.983286,1.337991,0.031379,-0.307631,0.943595,0.122439,0.177031,0.195764,-0.352465,4.469435,23.614899,-24.088425,,,,,,,
1530638802.494428,-1.877498,-1.237011,-2.087703,0.908647,0.965346,-0.193952,-0.312330,0.944809,0.098913,-0.028673,0.470352,-0.091116,4.743605,23.426392,-24.406250,,,,,,,
1530638802.514398,-1.785086,-1.240425,-2.015277,1.365677,1.399167,-0.053292,-0.316972,0.945922,0.068983,-0.095901,0.266328,0.130800,5.303862,23.004944,-24.904785,,,,,,,
1530638802.534367,-1.679947,-1.247801,-1.930141,1.353823,0.953269,0.254220,-0.315516,0.948289,0.034576,-0.022679,-0.046098,-0.147323,5.840548,22.560318,-25.696564,,,,,,,
1530638802.554336,-1.604927,-1.256192,-1.854849,1.146625,-0.311381,0.360337,-0.309257,0.950919,0.010559,-0.051049,-0.204993,-0.259293,6.034155,22.130165,-26.279709,,,,,,,
1530638802.574306,-1.550539,-1.263232,-1.778615,1.214133,-1.145776,0.332947,-0.302673,0.953074,-0.006132,-0.057251,-0.312632,-0.140779,5.833162,21.670341,-26.965790,,,,,,,
1530638802.594275,-1.479829,-1.268363,-1.684681,1.534882,-0.660195,0.338340,-0.296610,0.954615,-0.027057,-0.087499,-0.402109,0.053988,5.706896,21.103760,-27.723198,,,,,,,
1530638802.614245,-1.369641,-1.270410,-1.566165,1.793536,0.064810,0.364960,-0.289921,0.955222,-0.059119,-0.115566,-0.360770,0.007834,5.781527,20.453735,-28.543060,,,,,,,
1530638802.634214,-1.255327,-1.268479,-1.448535,1.618540,0.087059,0.348600,-0.283039,0.954649,-0.092375,-0.109936,-0.274122,0.010298,5.999487,19.711319,-29.340302,,,,,,,
1530638802.654183,-1.160423,-1.265702,-1.353451,1.238546,0.355159,0.388459,-0.275441,0.953819,-0.119838,-0.123255,-0.233436,0.126002,6.152849,18.937271,-30.165596,,,,,,,
1530638802.674153,-1.072239,-1.263232,-1.276726,1.048561,1.048452,0.392747,-0.265886,0.953074,-0.144757,-0.171751,-0.208063,0.212277,6.958578,18.257477,-30.553619,,,,,,,
1530638802.694122,-0.970207,-1.258320,-1.203351,1.126307,1.936250,0.353059,-0.253618,0.951575,-0.173729,-0.194807,-0.092154,0.240074,8.019899,17.811234,-31.039207,,,,,,,
1530638802.714092,-0.851379,-1.247000,-1.129976,1.350868,2.778521,0.185398,-0.239322,0.948034,-0.209655,-0.206647,0.068735,0.312102,9.506044,17.465027,-30.994751,,,,,,,
1530638802.734061,-0.724750,-1.228334,-1.063529,1.409265,3.348832,0.082909,-0.222622,0.941930,-0.251407,-0.255329,0.258784,0.431598,11.280851,16.874084,-31.252731,,,,,,,
1530638802.754030,-0.622650,-1.215038,-1.022443,0.507820,2.892584,0.173369,-0.203125,0.937383,-0.282937,-0.344955,0.371165,0.807702,13.217035,16.402374,-30.953690,,,,,,,
1530638802.774000,-0.597210,-1.227066,-1.027759,-1.054271,0.620308,0.307414,-0.189508,0.941504,-0.278668,-0.390616,0.245279,0.323529,14.400927,16.804001,-30.867912,,,,,,,
1530638802.793969,-0.634290,-1.249403,-1.056984,-1.121193,-0.982882,0.194699,-0.187197,0.948796,-0.254445,-0.508574,0.133845,0.016591,14.568998,17.583694,-30.443916,,,,,,,
1530638802.813939,-0.682728,-1.261540,-1.081966,-0.408477,-1.163831,-0.012221,-0.192018,0.952560,-0.236131,-0.587371,0.094666,0.160020,14.127008,18.303452,-30.407730,,,,,,,
1530638802.833908,-0.701780,-1.258113,-1.085646,0.314818,-0.632556,-0.248177,-0.198588,0.951512,-0.234921,-0.595938,0.181316,0.194959,13.691027,18.664291,-30.852722,,,,,,,
1530638802.853878,-0.719340,-1.249115,-1.091580,0.116907,-0.558486,-0.413960,-0.208315,0.948705,-0.237829,-0.761824,0.285242,0.508184,13.235228,19.068527,-31.237762,,,,,,,
1530638802.873847,-0.793097,-1.253928,-1.156648,-1.672650,-0.773199,-0.728094,-0.222018,0.950216,-0.218625,-0.933118,0.196391,0.832792,12.877604,20.031929,-30.995979,,,,,,,
1530638802.893816,-1.002558,-1.273817,-1.345356,-3.374959,-1.769682,-1.177431,-0.246645,0.956225,-0.157479,-0.642302,0.067533,0.268334,11.765757,22.368065,-30.220383,,,,,,,
1530638802.913786,-1.300454,-1.276764,-1.611861,-3.596565,-2.317284,-1.637161,-0.279287,0.957083,-0.077398,-0.410105,0.253061,-0.096094,9.995611,24.811913,-28.544121,,,,,,,
1530638802.933755,-1.571681,-1.246377,-1.839018,-3.014532,-2.778719,-2.143874,-0.318758,0.947836,0.000282,-0.305678,0.298014,-0.517799,7.687742,27.522171,-27.355324,,,,,,,
1530638802.953725,-1.762360,-1.197066,-1.975790,-2.410849,-3.019019,-2.223726,-0.358412,0.930972,0.069511,-0.167283,0.395078,-0.550728,4.896387,29.637207,-25.624809,,,,,,,
1530638802.973694,-1.889313,-1.145335,-2.053192,-2.040476,-2.288733,-2.008449,-0.391980,0.910849,0.129253,-0.070743,0.658960,-0.465206,2.256437,31.324142,-24.245018,,,,,,,
1530638802.993663,-1.960171,-1.100554,-2.102167,-1.720015,-0.435652,-1.487402,-0.419186,0.891458,0.172002,0.108105,0.915625,-0.415303,0.317635,32.566956,-22.612000,,,,,,,
1530638803.013633,-1.977549,-1.069357,-2.140277,-1.386485,1.861005,-0.778840,-0.441469,0.876892,0.190174,0.353349,0.986817,-0.337559,-0.374830,34.059029,-20.538483,,,,,,,
1530638803.033602,-1.951310,-1.052518,-2.161534,-0.626294,1.866629,-0.510819,-0.459952,0.868673,0.183985,0.370780,0.605615,0.189398,-0.486917,34.659958,-19.582413,,,,,,,
1530638803.053572,-1.980669,-1.032157,-2.178691,-0.987632,-1.802457,-0.861160,-0.470480,0.858407,0.204414,0.289587,0.176047,-0.230766,-1.422626,35.005867,-18.564034,,,,,,,
1530638803.073541,-2.048516,-1.010529,-2.197563,-0.900513,-2.589218,-0.594095,-0.471918,0.847113,0.244320,0.472254,-0.047659,-0.530544,-2.664547,35.653595,-17.451912,,,,,,,
1530638803.093511,-2.110657,-0.998477,-2.210104,-0.488494,-2.414350,-0.199672,-0.464559,0.840647,0.278383,0.380682,-0.241785,-0.602708,-3.686068,35.961033,-16.114723,,,,,,,
1530638803.113480,-2.168195,-0.991778,-2.214502,-0.318357,-2.714507,-0.223426,-0.452428,0.837000,0.307798,0.190129,-0.368434,-0.453382,-4.601955,36.300034,-15.457481,,,,,,,
1530638803.133449,-2.230509,-0.979984,-2.214659,-0.482097,-3.176737,-0.579823,-0.440152,0.830489,0.341401,0.066006,-0.422499,-0.410936,-5.880093,36.706810,-14.321480,,,,,,,
1530638803.153419,-2.293240,-0.959978,-2.208605,-0.604848,-3.229282,-0.957327,-0.430264,0.819179,0.379235,0.022046,-0.417979,-0.394463,-7.242813,36.664902,-13.007538,,,,,,,
1530638803.173388,-2.342070,-0.937808,-2.197438,-0.523710,-2.474659,-0.895233,-0.424160,0.806263,0.412344,0.224743,-0.468815,-0.448905,-8.378138,36.774940,-11.747314,,,,,,,
1530638803.193358,-2.380280,-0.926596,-2.193195,-0.252503,-1.690988,-0.094084,-0.414309,0.799580,0.434763,0.509631,-0.514577,-0.532084,-9.086405,37.153809,-10.642738,,,,,,,
1530638803.213327,-2.414861,-0.932186,-2.204074,0.040815,-0.856245,0.823557,-0.396054,0.802925,0.445480,0.604031,-0.533897,-0.573181,-8.653851,37.361767,-10.412704,,,,,,,
1530638803.233297,-2.443611,-0.953080,-2.231158,0.328564,0.160183,1.648306,-0.372219,0.815203,0.443729,0.682812,-0.540179,-0.581226,-7.766249,37.789654,-10.384392,,,,,,,
1530638803.253266,-2.465900,-0.986696,-2.275819,0.516605,1.221628,2.353537,-0.344897,0.834209,0.430281,0.741305,-0.534908,-0.500929,-6.130932,38.283714,-10.881027,,,,,,,
1530638803.273235,-2.486595,-1.028452,-2.336007,0.679478,1.759094,2.685496,-0.314413,0.856501,0.409328,0.718939,-0.515483,-0.286724,-3.794041,38.677372,-11.314926,,,,,,,
1530638803.293205,-2.492904,-1.078238,-2.375852,2.009953,1.175273,1.962063,-0.285687,0.881126,0.376828,0.557858,-0.274025,0.294818,-1.873320,38.887737,-12.532593,,,,,,,
1530638803.313174,-2.479976,-1.126584,-2.357558,1.385332,-0.927452,0.680533,-0.264033,0.902950,0.339070,-0.902593,0.579167,2.416789,-1.267115,38.898354,-13.691513,,,,,,,
1530638803.333144,-2.452294,-1.118018,-2.324365,-0.199975,1.370403,-1.725705,-0.278226,0.899235,0.337588,-1.346087,1.583125,1.097638,-2.218351,39.055660,-13.722542,,,,,,,
1530638803.353113,-2.296849,-1.083105,-2.215408,0.749023,3.409872,-3.444076,-0.350410,0.883417,0.311106,-0.845040,1.088049,-0.324152,-4.248112,39.284271,-14.233925,,,,,,,
1530638803.373083,-2.149618,-1.033095,-2.107907,0.200661,2.226525,-3.425602,-0.428735,0.858888,0.280173,-0.428488,0.284941,0.077417,-6.515060,39.026691,-14.358444,,,,,,,
1530638803.393052,-2.093695,-0.984806,-2.066789,-0.577310,0.643749,-1.987264,-0.479126,0.833165,0.276177,0.134949,-0.656956,-0.003853,-8.395105,38.973167,-13.916290,,,,,,,
1530638803.413021,-2.081121,-0.969862,-2.056467,0.210682,0.163696,0.028562,-0.493371,0.824808,0.276181,0.453957,-0.733164,-0.716932,-9.007599,39.240040,-13.797890,,,,,,,
1530638803.432991,-2.079291,-1.003029,-2.047876,1.323304,-0.208647,2.097527,-0.469713,0.843104,0.261811,0.343294,0.157568,0.093933,-8.118019,39.190929,-14.435249,,,,,,,
1530638803.452960,-2.080341,-1.059178,-2.058386,0.918832,0.815223,2.677317,-0.427395,0.871953,0.238811,-0.289539,1.095332,0.071629,-6.084564,39.588547,-15.167732,,,,,,,
1530638803.472930,-2.092399,-1.107983,-2.071337,0.871195,-0.335798,1.988488,-0.387096,0.894800,0.222461,-0.084065,0.564566,-0.825427,-4.475286,39.639694,-15.800110,,,,,,,
1530638803.492899,-2.103653,-1.140829,-2.069151,0.777526,-0.534085,1.134343,-0.359050,0.908979,0.211754,0.214656,0.015047,-0.595924,-3.467915,39.610561,-15.834724,,,,,,,
1530638803.512868,-2.099878,-1.162278,-2.058744,0.627664,0.113512,0.720600,-0.342934,0.917711,0.200508,0.369729,-0.311952,-0.396034,-2.826433,39.391193,-16.341629,,,,,,,
1530638803.532838,-2.078157,-1.178719,-2.045517,0.595253,0.839897,0.561587,-0.333974,0.924117,0.185656,0.406988,-0.398696,-0.407152,-2.245001,39.285069,-16.761597,,,,,,,
1530638803.552807,-2.038144,-1.193806,-2.021918,0.782921,1.080279,0.432404,-0.328648,0.929777,0.165847,0.370717,-0.288450,-0.442962,-1.895464,39.377892,-17.268578,,,,,,,
1530638803.572777,-1.982047,-1.207641,-1.983601,0.915111,1.163983,0.294425,-0.325607,0.934781,0.142003,0.276383,-0.014294,-0.370168,-1.343796,39.128998,-17.801361,,,,,,,
1530638803.592746,-1.919363,-1.216629,-1.937571,0.840840,1.034558,0.017410,-0.325954,0.937935,0.118453,0.091152,0.324867,-0.274246,-1.041042,39.089897,-18.600914,,,,,,,
1530638803.612716,-1.836893,-1.220765,-1.876235,1.258275,1.765184,-0.137749,-0.330858,0.939362,0.090179,-0.109297,0.398300,0.221177,-0.754681,39.002911,-19.156746,,,,,,,
1530638803.632685,-1.713301,-1.226267,-1.788772,1.455747,2.162194,0.070217,-0.334329,0.941235,0.047969,-0.015951,0.080555,0.005162,-0.221804,38.640232,-20.420387,,,,,,,
1530638803.652654,-1.620837,-1.232893,-1.718725,0.962279,0.940921,0.302553,-0.331094,0.943452,0.016582,0.015619,-0.111726,-0.140712,0.463232,38.195908,-21.338669,,,,,,,
1530638803.672624,-1.574073,-1.240981,-1.670640,0.689970,-0.208962,0.417468,-0.323867,0.946102,0.001061,-0.019288,-0.224346,-0.145424,0.652746,37.913460,-21.715622,,,,,,,
1530638803.692593,-1.536918,-1.249738,-1.619506,0.892024,-0.450010,0.464841,-0.315389,0.948902,-0.010689,-0.052042,-0.317188,-0.049004,0.622980,37.848461,-22.172234,,,,,,,
1530638803.712563,-1.463178,-1.257681,-1.535839,1.432747,0.001064,0.501156,-0.306242,0.951379,-0.033085,-0.063188,-0.372201,-0.022716,0.872566,37.595833,-23.227417,,,,,,,
1530638803.732532,-1.361813,-1.262982,-1.428079,1.554248,-0.006829,0.519239,-0.296385,0.952998,-0.062857,-0.053347,-0.334956,-0.053033,1.169268,37.231678,-24.454811,,,,,,,
1530638803.752502,-1.268742,-1.266143,-1.324632,1.344222,-0.183665,0.559450,-0.286383,0.953951,-0.089234,-0.068262,-0.285173,0.032913,1.310575,36.472176,-25.770714,,,,,,,
1530638803.772471,-1.175588,-1.269275,-1.229224,1.238410,0.605002,0.656057,-0.274081,0.954886,-0.114335,-0.199185,-0.207022,0.201096,1.671907,36.167099,-26.759460,,,,,,,
1530638803.792441,-1.051381,-1.269836,-1.126297,1.389029,1.825766,0.673279,-0.257340,0.955052,-0.147144,-0.234054,-0.127782,0.203647,2.637896,35.719307,-27.728050,,,,,,,
1530638803.812410,-0.915172,-1.263965,-1.023363,1.411156,2.015538,0.527281,-0.239417,0.953295,-0.184139,-0.238534,-0.047122,0.142834,3.927408,35.145027,-28.521988,,,,,,,
1530638803.832379,-0.792552,-1.252018,-0.934304,1.399816,2.091680,0.372459,-0.223192,0.949619,-0.220021,-0.261916,0.033246,0.313893,5.134954,34.622437,-29.662376,,,,,,,
1530638803.852349,-0.676987,-1.236690,-0.860903,1.236618,2.593330,0.311909,-0.205428,0.944704,-0.255606,-0.343263,0.114424,0.513632,6.334803,33.963280,-30.585182,,,,,,,
1530638803.872318,-0.592317,-1.227718,-0.819862,0.331647,2.091063,0.192953,-0.187801,0.941723,-0.279084,-0.474080,0.234455,0.560761,7.520742,33.645645,-30.859962,,,,,,,
1530638803.892288,-0.583432,-1.235423,-0.826704,-0.758169,0.112217,0.015995,-0.181310,0.944288,-0.274677,-0.601954,0.206179,0.223499,7.927443,33.783546,-30.654633,,,,,,,
1530638803.912257,-0.625051,-1.248771,-0.859896,-0.800775,-0.320464,-0.149571,-0.185190,0.948596,-0.256651,-0.707282,0.145474,0.421004,7.394365,34.461868,-30.309517,,,,,,,
1530638803.932226,-0.647500,-1.252840,-0.887070,-0.266619,0.468914,-0.345597,-0.188574,0.949876,-0.249349,-0.656153,0.184111,0.294545,6.981661,34.991806,-29.885307,,,,,,,
1530638803.952196,-0.683492,-1.251187,-0.924809,-0.460036,-0.123857,-0.660245,-0.198416,0.949358,-0.243618,-0.726267,0.374891,0.488217,6.353334,35.422802,-29.674110,,,,,,,
1530638803.972165,-0.777822,-1.256480,-1.010394,-1.638224,-0.886407,-0.960892,-0.216951,0.951008,-0.220263,-0.897551,0.365047,0.625521,5.115801,36.059464,-28.807144,,,,,,,
1530638803.992135,-0.976769,-1.271677,-1.182948,-2.936464,-1.968432,-1.191697,-0.244198,0.955596,-0.164932,-0.697880,0.041611,0.261047,3.089064,37.792679,-26.837364,,,,,,,
1530638804.012104,-1.251580,-1.275451,-1.421666,-3.336389,-2.250819,-1.523132,-0.276366,0.956702,-0.091344,-0.468523,0.081094,0.136510,0.520369,39.523197,-24.388374,,,,,,,
1530638804.032074,-1.517493,-1.249368,-1.645899,-2.953295,-2.752995,-2.195090,-0.315473,0.948785,-0.016832,-0.399492,0.360205,-0.425429,-2.487509,40.846291,-21.527206,,,,,,,
1530638804.052043,-1.721455,-1.196044,-1.789669,-2.458508,-3.624201,-2.666178,-0.361895,0.930598,0.054939,-0.254819,0.463521,-0.636238,-6.032917,41.922424,-18.743599,,,,,,,
1530638804.072013,-1.872940,-1.136356,-1.872117,-2.220698,-3.482726,-2.383301,-0.401837,0.907106,0.125247,-0.080601,0.702163,-0.517627,-9.801710,42.215511,-15.733368,,,,,,,
1530638804.091982,-1.973350,-1.084957,-1.927483,-2.035911,-1.619789,-1.684957,-0.429624,0.884283,0.182937,0.057660,0.989343,-0.412017,-12.592091,42.313934,-12.912773,,,,,,,
,,,,,,,,,,,,,,,,39.779236,-84.064322,292.782959,-1.000000,-1.000000,1530638804.067451,
1530638804.111951,-2.008356,-1.048379,-1.972002,-1.500420,1.667922,-0.947883,-0.451967,0.866616,0.211432,0.304293,1.224357,-0.197195,-13.825731,42.101337,-10.708672,,,,,,,
