timestamp(unix),attitude_roll(radians),attitude_pitch(radians),attitude_yaw(radians),rotation_rate_x(radians/s),rotation_rate_y(radians/s),rotation_rate_z(radians/s),gravity_x(G),gravity_y(G),gravity_z(G),user_acc_x(G),user_acc_y(G),user_acc_z(G),magnetic_field_x(microteslas),magnetic_field_y(microteslas),magnetic_field_z(microteslas),latitude(degree),longitude(degree),altitude(meter),speed(m/s),course(degree),timestamp(unix),User Mark
,,,,,,,,,,,,,,,,39.779070,-84.063519,290.245876,0.200000,-1.000000,1530638876.000095,
1530638884.451519,0.033593,0.519959,-0.342131,0.322566,-0.448038,-1.071314,0.029148,-0.496844,-0.867350,0.014248,0.083728,0.046717,20.725939,-20.676872,-43.780670,,,,,,,
,,,,,,,,,,,,,,,,39.779070,-84.063519,290.245876,0.200000,-1.000000,1530638884.000095,
1530638884.471488,0.038243,0.521136,-0.365631,-0.041920,-0.381079,-0.999154,0.033158,-0.497865,-0.866620,0.032363,0.046678,0.035657,20.641329,-20.279984,-43.634468,,,,,,,
1530638884.491457,0.041950,0.517266,-0.387257,-0.187116,-0.373710,-0.940409,0.036451,-0.494506,-0.868410,-0.007185,0.046889,-0.017302,20.723726,-19.698349,-43.943214,,,,,,,
1530638884.511426,0.044625,0.513869,-0.408740,-0.076867,-0.404542,-0.956833,0.038849,-0.491550,-0.869982,-0.008820,0.061664,-0.046583,20.688749,-19.379456,-44.201988,,,,,,,
1530638884.531395,0.046935,0.513137,-0.429566,0.046267,-0.386330,-0.882561,0.040875,-0.490913,-0.870249,-0.006649,0.063621,-0.062673,20.797087,-19.182457,-44.103516,,,,,,,
,,,,,,,,,,,,,,,,39.779070,-84.063519,290.245880,-1.000000,-1.000000,1530638884.522889,
1530638884.551365,0.050338,0.514019,-0.448526,0.104412,-0.254349,-0.814597,0.043814,-0.491681,-0.869672,-0.012808,0.075269,-0.029757,20.716482,-18.839676,-44.265465,,,,,,,
,,,,,,,,,,,,,,,,39.779070,-84.063519,290.245880,-1.000000,-1.000000,1530638884.542841,
1530638884.571334,0.054074,0.515023,-0.466864,0.057128,-0.320659,-0.801471,0.047036,-0.492555,-0.869009,0.007346,0.070069,0.011130,20.785795,-18.579315,-44.248138,,,,,,,
,,,,,,,,,,,,,,,,39.779070,-84.063519,290.245880,-1.000000,-1.000000,1530638884.567103,
,,,,,,,,,,,,,,,,39.779070,-84.063519,290.245880,-1.000000,-1.000000,1530638884.573576,
1530638884.591303,0.054999,0.513146,-0.483719,-0.121802,-0.346555,-0.719874,0.047892,-0.490920,-0.869887,-0.017557,0.048873,0.020812,20.656988,-18.222839,-44.434608,,,,,,,
1530638884.611272,0.057113,0.508762,-0.500037,-0.157207,-0.308790,-0.751673,0.049852,-0.487097,-0.871924,-0.025926,0.069540,-0.078882,20.735533,-18.003029,-44.355179,,,,,,,
1530638884.631241,0.057949,0.507216,-0.516540,0.044842,-0.375395,-0.707770,0.050625,-0.485745,-0.872633,0.004551,0.055127,-0.070879,20.645384,-17.648392,-44.615662,,,,,,,
1530638884.651210,0.057945,0.509028,-0.531304,0.173188,-0.372668,-0.629314,0.050571,-0.487328,-0.871753,0.001950,0.064843,-0.056531,20.548532,-17.532127,-44.792419,,,,,,,
1530638884.671179,0.057355,0.512623,-0.545646,0.223489,-0.388173,-0.624531,0.049955,-0.490465,-0.870028,0.006640,0.047716,-0.003431,20.279409,-17.210258,-44.922028,,,,,,,
1530638884.691148,0.056322,0.514149,-0.559687,0.036707,-0.410292,-0.609710,0.049014,-0.491794,-0.869331,0.019132,0.023441,0.040489,20.103445,-17.293877,-44.970535,,,,,,,
1530638884.711117,0.055362,0.511495,-0.573334,-0.152968,-0.362643,-0.626866,0.048252,-0.489481,-0.870678,-0.002888,0.016795,0.028438,20.016302,-17.240715,-44.983963,,,,,,,
1530638884.731087,0.055967,0.507039,-0.587800,-0.173649,-0.309390,-0.664138,0.048900,-0.485591,-0.872817,0.016820,0.033656,-0.039170,19.910299,-16.792458,-45.069229,,,,,,,
1530638884.751056,0.057767,0.503889,-0.602194,-0.075287,-0.235627,-0.640027,0.050559,-0.482834,-0.874251,0.075875,0.037903,-0.055498,19.954508,-16.485588,-45.394119,,,,,,,
1530638884.771025,0.060794,0.503021,-0.616115,0.026201,-0.182860,-0.612813,0.053231,-0.482075,-0.874511,0.128013,0.038853,-0.009125,19.825548,-16.212181,-45.409149,,,,,,,
1530638884.790994,0.064529,0.502588,-0.628669,-0.017418,-0.089527,-0.538558,0.056510,-0.481695,-0.874515,0.121133,0.044103,0.075153,19.917784,-15.970848,-45.322144,,,,,,,
1530638884.810963,0.067122,0.500022,-0.640501,-0.140001,-0.226302,-0.548695,0.058860,-0.479445,-0.875596,0.067452,0.011504,0.103211,19.810858,-15.737572,-45.223404,,,,,,,
1530638884.830932,0.066858,0.494342,-0.653333,-0.294653,-0.370424,-0.612451,0.058810,-0.474452,-0.878314,0.028501,-0.028950,0.149204,19.811682,-15.586472,-45.525604,,,,,,,
1530638884.850901,0.065240,0.485664,-0.665982,-0.463864,-0.394980,-0.565464,0.057655,-0.466795,-0.882484,0.060479,-0.030046,0.143073,19.536921,-14.781044,-45.596710,,,,,,,
1530638884.870870,0.063431,0.474142,-0.676049,-0.578090,-0.286457,-0.449404,0.056396,-0.456576,-0.887895,0.046693,-0.032820,0.072649,19.399271,-14.335625,-46.055222,,,,,,,
1530638884.890839,0.062849,0.462505,-0.682999,-0.542782,-0.137494,-0.281891,0.056209,-0.446191,-0.893171,0.117863,-0.080069,-0.006335,19.293135,-13.761520,-46.480392,,,,,,,
,,,,,,,,,,,,,,,,39.779327,-84.063474,291.040497,-1.000000,-1.000000,1530638884.870776,
1530638884.910808,0.062058,0.453096,-0.686350,-0.411833,-0.141854,-0.136628,0.055760,-0.437751,-0.897366,0.135707,-0.087152,-0.082249,19.319803,-13.298370,-46.389725,,,,,,,
1530638884.930777,0.060175,0.447436,-0.686369,-0.213796,-0.084428,0.010374,0.054219,-0.432656,-0.899927,0.170558,-0.045692,-0.067281,19.134306,-12.865898,-46.642334,,,,,,,
1530638884.950747,0.059465,0.447106,-0.683468,0.084626,0.096384,0.189254,0.053589,-0.432358,-0.900108,0.136811,-0.038071,-0.018532,19.259607,-13.270370,-46.479996,,,,,,,
1530638884.970716,0.063075,0.453506,-0.677336,0.433730,0.424319,0.321925,0.056662,-0.438120,-0.897129,0.063455,0.018991,-0.003323,19.516279,-13.566406,-46.382614,,,,,,,
1530638884.990685,0.069572,0.465466,-0.672042,0.611064,0.385497,0.180718,0.062120,-0.448839,-0.891451,0.074324,0.023302,-0.022017,19.701147,-14.194267,-46.131943,,,,,,,
1530638885.010654,0.078237,0.475978,-0.671550,0.430103,0.497243,-0.006630,0.069470,-0.458208,-0.886126,0.074009,-0.039518,0.023806,20.000242,-14.286896,-45.642654,,,,,,,
1530638885.031863,0.088108,0.479831,-0.672587,0.054990,0.279017,-0.039276,0.078057,-0.461629,-0.883632,0.105827,-0.012309,0.029109,20.235594,-14.565086,-45.626907,,,,,,,
1530638885.051832,0.085542,0.476030,-0.673940,-0.297565,-0.353910,-0.127007,0.075939,-0.458254,-0.885571,0.096607,-0.007917,0.051556,20.079966,-14.177116,-45.577972,,,,,,,
1530638885.071802,0.079649,0.466821,-0.676475,-0.504855,-0.293927,-0.170884,0.071052,-0.450050,-0.890172,0.092278,-0.028008,0.095372,19.934950,-14.017403,-45.965485,,,,,,,
1530638885.091771,0.079785,0.457056,-0.678987,-0.434912,0.056889,-0.140821,0.071520,-0.441308,-0.894501,0.079420,-0.059592,0.065628,19.998533,-13.523514,-46.109680,,,,,,,
1530638885.111740,0.083903,0.451178,-0.680010,-0.215644,0.226039,-0.028016,0.075418,-0.436026,-0.896768,0.092184,-0.082361,-0.020453,20.084230,-13.253799,-45.847366,,,,,,,
1530638885.131709,0.090108,0.449159,-0.678479,-0.066700,0.363144,0.092929,0.081061,-0.434208,-0.897158,0.068170,-0.044643,-0.064573,20.439161,-13.307091,-45.589981,,,,,,,
1530638885.151678,0.095408,0.448808,-0.675944,-0.032107,0.246086,0.097387,0.085829,-0.433892,-0.896867,0.030260,-0.006065,-0.064665,20.668161,-13.238899,-45.806244,,,,,,,
1530638885.171647,0.097626,0.448232,-0.674072,-0.057939,0.062036,0.054713,0.087842,-0.433373,-0.896923,0.028445,-0.012626,-0.065982,20.692251,-13.165558,-45.747574,,,,,,,
1530638885.191616,0.096103,0.446358,-0.672614,-0.140721,-0.109022,0.051537,0.086554,-0.431683,-0.897863,0.027521,-0.034900,-0.032450,20.660513,-13.085793,-45.506516,,,,,,,
1530638885.211585,0.092404,0.442378,-0.670079,-0.248151,-0.146922,0.109661,0.083390,-0.428090,-0.899881,0.023086,-0.037303,0.005487,20.595213,-13.134888,-45.744217,,,,,,,
1530638885.231554,0.088284,0.437413,-0.665477,-0.254229,-0.083589,0.210332,0.079868,-0.423597,-0.902323,0.034725,-0.037066,-0.007727,20.408083,-12.887657,-45.860657,,,,,,,
1530638885.251523,0.085713,0.434360,-0.659607,-0.117132,0.025436,0.241753,0.077658,-0.420830,-0.903809,0.007608,-0.016609,-0.021697,20.363932,-13.056725,-45.733856,,,,,,,
1530638885.271493,0.085347,0.433812,-0.654596,-0.019206,0.110761,0.190427,0.077347,-0.420333,-0.904067,-0.016281,0.003814,0.001388,20.248655,-13.002579,-45.759445,,,,,,,
1530638885.291462,0.086652,0.434052,-0.650485,-0.004419,0.150594,0.176441,0.078518,-0.420550,-0.903865,-0.004757,-0.009488,-0.015156,20.448866,-13.012863,-45.928848,,,,,,,
1530638885.311431,0.087820,0.434250,-0.645858,-0.014144,0.130480,0.212038,0.079567,-0.420730,-0.903690,0.016273,-0.025971,-0.036115,20.601789,-13.266251,-45.612488,,,,,,,
1530638885.331400,0.087873,0.434069,-0.640439,-0.046865,0.100497,0.239209,0.079621,-0.420566,-0.903761,0.009475,-0.016156,-0.023332,20.467062,-13.227379,-45.657913,,,,,,,
1530638885.351369,0.087364,0.433234,-0.634686,-0.068876,0.079537,0.238262,0.079192,-0.419808,-0.904151,0.002320,-0.002524,-0.037118,20.573023,-13.254845,-45.567047,,,,,,,
1530638885.371338,0.086394,0.432210,-0.629488,-0.068588,0.046659,0.203587,0.078352,-0.418879,-0.904655,-0.007261,0.000376,-0.037132,20.547094,-13.164558,-45.703659,,,,,,,
1530638885.391307,0.085647,0.431466,-0.624980,-0.038889,0.053558,0.162322,0.077703,-0.418203,-0.905024,-0.022023,0.000814,-0.027639,20.376780,-13.232468,-45.635574,,,,,,,
1530638885.411276,0.085875,0.431661,-0.621828,0.022354,0.078186,0.110017,0.077902,-0.418380,-0.904925,-0.019568,-0.001008,-0.032438,20.597216,-13.501259,-45.451981,,,,,,,
1530638885.431245,0.087089,0.432876,-0.619824,0.069875,0.107158,0.068666,0.078957,-0.419483,-0.904323,-0.021126,0.001515,-0.035024,20.622103,-13.523369,-45.558655,,,,,,,
1530638885.451214,0.089145,0.434737,-0.618342,0.098256,0.137015,0.059881,0.080746,-0.421172,-0.903379,-0.013409,-0.002321,-0.023149,20.817671,-13.740456,-45.403229,,,,,,,
1530638885.471184,0.091120,0.437110,-0.617115,0.125671,0.104011,0.042172,0.082438,-0.423323,-0.902220,-0.009165,0.002577,-0.029420,20.810312,-13.769600,-45.327362,,,,,,,
1530638885.491153,0.092549,0.439679,-0.616588,0.125962,0.064510,0.007467,0.083627,-0.425649,-0.901016,-0.008904,0.013341,-0.020752,20.968580,-13.855347,-45.380753,,,,,,,
1530638885.511122,0.093248,0.441915,-0.616769,0.108392,0.001803,-0.022851,0.084168,-0.427672,-0.900007,-0.010956,0.020170,-0.009982,20.845461,-13.707184,-45.159042,,,,,,,
1530638885.531091,0.093259,0.443609,-0.617331,0.082287,-0.019076,-0.035610,0.084110,-0.429202,-0.899284,-0.003269,0.014239,0.007606,20.982344,-13.905472,-45.482468,,,,,,,
1530638885.551060,0.093327,0.444976,-0.618100,0.075021,-0.015694,-0.045229,0.084117,-0.430436,-0.898693,-0.004344,0.009965,0.017986,20.955637,-13.892593,-45.331314,,,,,,,
1530638885.571029,0.093821,0.446734,-0.618952,0.114848,0.015190,-0.043349,0.084489,-0.432022,-0.897897,-0.010469,0.012161,0.009576,20.934809,-14.106186,-45.093750,,,,,,,
1530638885.590998,0.095204,0.449625,-0.620418,0.174905,0.044113,-0.078355,0.085613,-0.434628,-0.896531,-0.020747,0.014813,0.015474,20.898180,-14.170990,-45.078537,,,,,,,
1530638885.610967,0.096651,0.452744,-0.622273,0.147612,0.006558,-0.073930,0.086778,-0.437435,-0.895053,-0.004396,-0.004017,0.022586,20.899878,-14.239105,-45.022919,,,,,,,
1530638885.630936,0.096489,0.454195,-0.623162,0.034000,-0.057744,-0.028813,0.086572,-0.438739,-0.894435,-0.006555,-0.005307,0.016551,20.913961,-14.285851,-45.027664,,,,,,,
1530638885.650905,0.094991,0.453915,-0.623137,-0.023814,-0.088757,-0.011088,0.085244,-0.438487,-0.894685,-0.007302,0.013835,0.005449,20.866247,-14.326065,-45.097092,,,,,,,
1530638885.670875,0.093646,0.453868,-0.623591,0.026837,-0.069735,-0.050365,0.084042,-0.438445,-0.894820,-0.005719,0.031951,0.002471,20.725592,-14.256516,-45.221085,,,,,,,
1530638885.690844,0.093877,0.455237,-0.625107,0.095234,-0.004414,-0.080983,0.084192,-0.439675,-0.894202,0.006002,0.020181,0.020819,20.751348,-14.080528,-45.197250,,,,,,,
1530638885.710813,0.094780,0.456750,-0.626446,0.058245,0.011914,-0.045991,0.084937,-0.441034,-0.893462,0.025765,-0.008780,0.038711,20.738321,-14.256546,-45.180267,,,,,,,
1530638885.730782,0.095082,0.456311,-0.626152,-0.073377,0.018123,0.020155,0.085225,-0.440639,-0.893629,0.017756,-0.017643,0.042937,20.760500,-14.189430,-45.287704,,,,,,,
1530638885.750751,0.094489,0.453552,-0.624847,-0.166823,-0.021689,0.034976,0.084810,-0.438161,-0.894886,0.015608,0.002248,-0.001751,20.707693,-14.118744,-45.410370,,,,,,,
1530638885.770720,0.093455,0.450440,-0.623730,-0.137258,-0.042507,0.010835,0.084011,-0.435362,-0.896327,0.015415,0.021498,-0.043065,20.786173,-13.960449,-45.222473,,,,,,,
1530638885.790689,0.092452,0.448659,-0.623812,-0.065462,-0.067511,-0.048291,0.083184,-0.433758,-0.897181,-0.001244,0.031430,-0.044362,20.451666,-13.862091,-44.995941,,,,,,,
1530638885.810658,0.092343,0.447885,-0.625282,-0.022060,-0.026328,-0.099246,0.083117,-0.433060,-0.897525,-0.011660,0.023285,-0.022916,20.529684,-13.941086,-45.250992,,,,,,,
1530638885.830627,0.093219,0.447784,-0.627471,0.015828,-0.006348,-0.116814,0.083907,-0.432969,-0.897495,0.002656,0.004838,-0.022397,20.702047,-13.771523,-45.116516,,,,,,,
1530638885.850597,0.094397,0.447993,-0.629838,0.028437,0.004710,-0.120131,0.084956,-0.433158,-0.897305,0.010351,0.004904,-0.013324,20.625788,-13.661140,-45.390747,,,,,,,
1530638885.870566,0.095577,0.448307,-0.632316,0.033713,-0.007413,-0.123476,0.086001,-0.433440,-0.897069,0.026746,0.010405,-0.019099,20.658972,-13.738159,-45.268417,,,,,,,
1530638885.890535,0.096207,0.448718,-0.634837,0.034783,-0.028371,-0.125748,0.086549,-0.433811,-0.896837,0.026656,0.015888,-0.015394,20.626127,-13.752968,-45.277084,,,,,,,
1530638885.910504,0.097147,0.449182,-0.637401,0.043177,-0.004081,-0.126797,0.087372,-0.434229,-0.896555,0.020324,0.017069,0.003016,20.643614,-13.796623,-45.278442,,,,,,,
1530638885.930473,0.098546,0.449888,-0.640005,0.051517,0.014646,-0.121406,0.088597,-0.434864,-0.896127,0.027691,0.013676,0.016152,20.652788,-13.700150,-45.428085,,,,,,,
1530638885.950442,0.100317,0.450635,-0.642172,0.047053,0.046435,-0.088845,0.090151,-0.435537,-0.895645,0.035719,0.006079,0.026382,20.745157,-13.657166,-45.230682,,,,,,,
1530638885.970411,0.101974,0.450941,-0.643679,0.006028,0.037511,-0.073356,0.091622,-0.435812,-0.895362,0.025978,0.005209,0.034552,20.785826,-13.668068,-45.132111,,,,,,,
1530638885.990380,0.103164,0.450056,-0.644784,-0.060153,0.026392,-0.058680,0.092726,-0.435016,-0.895635,0.020540,0.014560,0.040411,20.825693,-13.559700,-45.182495,,,,,,,
1530638886.010350,0.104263,0.448324,-0.645359,-0.086526,0.046141,-0.039968,0.093789,-0.433456,-0.896281,0.031501,0.025848,0.041026,20.831438,-13.597031,-45.253067,,,,,,,
1530638886.030319,0.106372,0.446634,-0.645821,-0.069696,0.116846,-0.048441,0.095757,-0.431932,-0.896808,0.065528,0.087740,0.061939,20.997057,-13.376167,-45.296555,,,,,,,
1530638886.050288,0.110565,0.446017,-0.648116,0.014188,0.180633,-0.177369,0.099545,-0.431375,-0.896664,0.108172,0.177896,0.122051,21.164328,-13.218742,-45.139343,,,,,,,
1530638886.070257,0.119737,0.446429,-0.654822,0.081982,0.405106,-0.394869,0.107744,-0.431747,-0.895536,0.140577,0.249176,0.278120,21.609907,-13.396431,-44.980133,,,,,,,
1530638886.090226,0.135813,0.447072,-0.666916,0.099738,0.608872,-0.648607,0.122088,-0.432327,-0.893413,0.154157,0.333114,0.421016,22.130846,-13.179527,-44.702316,,,,,,,
1530638886.110195,0.159233,0.445570,-0.685386,0.018466,0.894880,-0.977470,0.143080,-0.430972,-0.890949,0.140138,0.478717,0.590336,23.045401,-12.773346,-44.264435,,,,,,,
1530638886.130164,0.194768,0.441530,-0.712007,0.027029,1.393436,-1.396855,0.174979,-0.427323,-0.887004,0.134409,0.621003,0.710002,24.231836,-12.553291,-43.557175,,,,,,,
1530638886.150133,0.244215,0.435920,-0.748995,0.158968,1.786541,-1.897882,0.219183,-0.422244,-0.879584,0.122873,0.731876,0.787864,25.990103,-11.819901,-42.644165,,,,,,,
1530638886.170102,0.302290,0.430227,-0.797534,0.422343,1.970121,-2.436911,0.270577,-0.417077,-0.867660,0.109367,0.808892,0.843490,27.579210,-10.859451,-41.548538,,,,,,,
1530638886.190072,0.361734,0.418898,-0.863028,0.444688,1.504062,-3.365848,0.323298,-0.406754,-0.854417,0.164221,0.962220,0.705888,29.374208,-9.950485,-40.696381,,,,,,,
1530638886.210041,0.426045,0.398710,-0.945013,0.527791,1.531676,-4.170097,0.380856,-0.388230,-0.839181,0.175052,1.026414,0.644967,30.841635,-7.958206,-39.407349,,,,,,,
1530638886.230010,0.485888,0.361497,-1.034717,-0.036296,1.692285,-4.700415,0.436811,-0.353675,-0.827109,0.178271,1.007102,0.681006,32.352325,-5.564621,-38.357430,,,,,,,
1530638886.249979,0.582508,0.289901,-1.102150,-2.502840,5.180210,-4.518159,0.527164,-0.285857,-0.800239,0.056133,0.999755,0.886024,35.205170,-1.435959,-35.547058,,,,,,,
1530638886.269948,0.705141,0.188583,-1.149714,-2.480407,5.364970,-5.216389,0.636650,-0.187467,-0.748019,0.044365,0.979093,0.098346,37.839249,3.218063,-31.599731,,,,,,,
1530638886.289917,0.808065,0.078100,-1.202161,-2.256288,4.629133,-5.934153,0.720748,-0.078020,-0.688792,0.124437,0.932253,-0.074880,39.372269,8.495499,-27.492409,,,,,,,
1530638886.309886,0.904755,-0.052435,-1.234776,-3.487720,4.773704,-6.029254,0.785193,0.052411,-0.617028,0.411264,1.064135,-0.148658,39.849991,14.145561,-22.683678,,,,,,,
1530638886.329855,0.991426,-0.191202,-1.243234,-3.660365,4.229087,-5.805709,0.821557,0.190039,-0.537520,0.629737,0.699380,-0.775652,39.189552,19.860596,-17.756050,,,,,,,
1530638886.349824,1.080660,-0.322022,-1.248170,-2.687626,4.857753,-5.769910,0.836917,0.316486,-0.446548,0.732968,0.416379,-1.097641,37.357315,24.671700,-12.773575,,,,,,,
1530638886.369794,1.169780,-0.442940,-1.267966,-1.252240,4.765229,-5.867629,0.831815,0.428597,-0.352683,1.071139,0.198035,-1.332605,34.754280,29.078270,-8.374908,,,,,,,
1530638886.389763,1.242132,-0.551390,-1.296929,-0.530653,3.974511,-5.218004,0.806202,0.523872,-0.274942,1.626384,-0.196602,-1.256919,31.474951,32.595612,-5.092476,,,,,,,
1530638886.409732,1.292777,-0.633872,-1.321345,-0.033404,2.782641,-3.537930,0.774799,0.592269,-0.221136,2.024792,-0.710922,-1.261713,28.851023,34.950897,-2.863159,,,,,,,
1530638886.429701,1.317884,-0.676791,-1.347421,0.685971,1.723248,-1.709676,0.754784,0.626294,-0.195072,1.921684,-1.101239,-1.010342,27.166178,36.130951,-2.125389,,,,,,,
1530638886.449670,1.334048,-0.685924,-1.371009,0.777366,1.567144,-0.052634,0.752247,0.633388,-0.181496,1.620663,-1.202587,-0.389899,26.881704,36.423016,-1.992767,,,,,,,
1530638886.469639,1.359757,-0.670142,-1.385364,0.735666,1.927914,0.937476,0.766343,0.621098,-0.164173,1.127105,-0.922337,-0.033428,27.376562,36.304707,-1.187950,,,,,,,
1530638886.489608,1.400142,-0.643127,-1.404619,1.294559,3.153892,1.298736,0.788598,0.599701,-0.135899,0.763999,-0.790832,0.127797,28.242067,35.972496,-0.448502,,,,,,,
1530638886.509577,1.460896,-0.607721,-1.442927,1.876841,4.766572,1.610917,0.815996,0.570998,-0.090041,0.492094,-0.740905,0.460982,29.178110,34.920578,0.298660,,,,,,,
1530638886.529547,1.548003,-0.580030,-1.448894,-0.726059,4.054529,1.257761,0.836227,0.548049,-0.019063,0.085328,-0.322554,1.330114,30.008001,34.039986,2.899109,,,,,,,
1530638886.549516,1.634117,-0.548529,-1.411457,-1.826988,3.075444,1.775994,0.851580,0.521433,0.053995,0.266752,-0.638437,0.702643,30.692137,33.027512,5.869820,,,,,,,
1530638886.569485,1.706687,-0.496143,-1.377477,-1.457028,2.753344,2.840394,0.871316,0.476037,0.119138,0.467917,-0.694360,0.100313,31.931074,31.258286,8.765923,,,,,,,
1530638886.589454,1.768869,-0.431123,-1.368826,-0.518623,3.074850,3.236382,0.890732,0.417891,0.178774,0.272064,-0.161848,-0.261355,33.351151,28.934845,11.228958,,,,,,,
1530638886.609423,1.823684,-0.372857,-1.395833,1.209251,3.288885,3.012988,0.901668,0.364277,0.233009,0.163365,-0.062748,-0.558220,34.373032,27.191261,12.857574,,,,,,,
1530638886.629392,1.865855,-0.334043,-1.448422,2.031357,2.829089,2.257824,0.903897,0.327865,0.274722,0.077152,0.216859,-0.379901,34.983528,26.094345,13.927727,,,,,,,
1530638886.649361,1.900733,-0.309128,-1.495180,1.476564,2.301501,1.633493,0.901217,0.304228,0.308626,-0.072482,0.096208,-0.251664,35.074654,25.245674,14.413956,,,,,,,
1530638886.669330,1.926550,-0.292457,-1.528532,1.231397,1.521411,1.111423,0.897580,0.288306,0.333507,-0.188199,0.195352,-0.243175,35.405228,24.580132,14.908340,,,,,,,
1530638886.689299,1.947416,-0.292495,-1.561353,1.648879,1.623660,0.193953,0.890416,0.288342,0.352158,-0.519292,0.458194,-0.286041,34.517715,25.194756,14.962883,,,,,,,
1530638886.709269,1.968743,-0.320331,-1.596965,2.401569,1.527000,-1.188578,0.874964,0.314881,0.367813,-0.842371,0.529770,-0.500045,33.494644,26.676109,14.334839,,,,,,,
1530638886.729238,1.977111,-0.378384,-1.631128,2.574154,0.613324,-2.526799,0.853605,0.369419,0.367269,-0.804090,0.593746,-0.331731,31.564222,28.879272,13.390999,,,,,,,
1530638886.749207,1.972578,-0.459903,-1.640713,1.706656,-0.442920,-4.270928,0.824735,0.443861,0.350425,-0.854550,0.401293,-0.073203,28.602690,31.872398,11.935478,,,,,,,
1530638886.769176,1.963569,-0.569572,-1.626575,1.527451,-0.905743,-5.817850,0.778003,0.539272,0.322327,-0.535663,0.263173,-0.226486,24.550474,35.134922,10.316917,,,,,,,
1530638886.789145,1.963834,-0.695232,-1.600266,1.361078,-0.542987,-6.385940,0.709351,0.640563,0.294104,-0.173737,0.038041,-0.162970,19.510672,38.174515,9.198563,,,,,,,
1530638886.809114,1.991518,-0.823973,-1.559413,1.002228,0.205326,-6.507929,0.620070,0.733851,0.277443,0.178941,0.033910,0.154106,14.324598,40.149071,8.372482,,,,,,,
1530638886.829083,2.053268,-0.930337,-1.481631,-0.455517,-0.072803,-5.329999,0.529351,0.801821,0.277251,0.754691,0.034620,0.674882,9.872545,41.217594,8.550690,,,,,,,
1530638886.849052,2.124414,-1.001850,-1.377467,-0.812706,-1.117110,-4.195540,0.458269,0.842469,0.283254,0.715818,0.095015,0.106578,6.556444,41.493813,8.841393,,,,,,,
1530638886.869022,2.180551,-1.058737,-1.283767,-0.173144,-1.046579,-3.410386,0.401673,0.871737,0.280590,0.714904,0.210004,0.004108,3.659986,41.831650,8.873444,,,,,,,
1530638886.888991,2.231482,-1.110892,-1.217576,0.547707,0.007928,-2.844605,0.350459,0.896095,0.272378,0.540547,0.248909,0.045951,1.178656,42.074310,8.626465,,,,,,,
1530638886.908960,2.284251,-1.162760,-1.163869,0.825058,0.182039,-2.653672,0.300027,0.917902,0.259690,0.319525,0.168600,-0.023133,-1.055660,42.059258,7.579742,,,,,,,
1530638886.928929,2.347784,-1.205116,-1.101103,0.426157,0.384516,-2.222424,0.254967,0.933881,0.250714,0.155754,0.028384,0.142673,-3.145466,42.094837,7.176308,,,,,,,
1530638886.948898,2.435113,-1.240999,-1.021754,0.361499,0.782533,-2.147552,0.210230,0.946108,0.246337,0.028326,-0.141344,0.157731,-5.106554,41.874252,6.666351,,,,,,,
1530638886.968867,2.529000,-1.266499,-0.944093,0.206515,1.164970,-1.411740,0.172280,0.954058,0.245138,0.014351,-0.167620,0.215128,-6.483990,41.755028,6.445442,,,,,,,
1530638886.988836,2.589694,-1.277857,-0.908874,0.208064,1.454387,-0.322131,0.151402,0.957399,0.245893,0.096645,-0.145876,0.138079,-6.851561,41.556072,6.202019,,,,,,,
,,,,,,,,,,,,,,,,39.779071,-84.063505,290.672817,-1.000000,-1.000000,1530638886.443090,
1530638887.008805,2.588267,-1.275732,-0.941473,0.041403,1.456643,0.955554,0.152821,0.956783,0.247407,0.224681,-0.088146,0.164061,-6.115446,41.622620,5.864922,,,,,,,
1530638887.028774,2.533137,-1.249930,-1.027264,-0.619247,1.326516,2.244329,0.180276,0.948962,0.258785,0.231864,0.021405,0.160328,-4.469957,41.799862,6.008972,,,,,,,
1530638887.048744,2.476574,-1.208416,-1.122968,-0.645958,1.928272,2.547345,0.218752,0.935056,0.278957,-0.043001,0.281528,-0.130413,-2.547525,41.644989,6.408043,,,,,,,
,,,,,,,,,,,,,,,,39.779074,-84.063514,290.560696,-1.000000,-1.000000,1530638887.000091,
1530638887.068713,2.438262,-1.175633,-1.206722,-0.034399,1.877688,2.011030,0.248975,0.922934,0.293603,-0.129270,0.312113,-0.450815,-1.138481,41.851376,6.602943,,,,,,,
1530638887.088682,2.394545,-1.160117,-1.289146,0.769296,1.407895,1.584960,0.271267,0.916850,0.292915,-0.026013,0.150014,-0.231010,0.004845,41.890366,5.761978,,,,,,,
1530638887.108651,2.341517,-1.152877,-1.362537,0.646128,0.225283,1.157790,0.291167,0.913935,0.282742,-0.003249,0.113698,0.023013,1.153170,41.892277,5.219559,,,,,,,
1530638887.128620,2.299171,-1.142712,-1.399740,-0.040245,-0.675659,0.732590,0.309792,0.909763,0.276333,-0.066063,0.175366,0.069431,1.881617,41.789028,5.118546,,,,,,,
1530638887.148589,2.278873,-1.132403,-1.407922,-0.210706,-0.524369,0.413738,0.322444,0.905435,0.276073,-0.103236,0.032523,-0.002071,2.320963,41.809341,5.133430,,,,,,,
1530638887.168558,2.263155,-1.125814,-1.419411,0.094284,-0.149216,0.425235,0.331328,0.902618,0.274773,-0.082473,-0.104401,-0.031396,2.753283,41.722057,5.023819,,,,,,,
1530638887.188527,2.244910,-1.121211,-1.436826,0.114491,-0.151190,0.390496,0.339528,0.900627,0.271273,-0.103414,-0.140175,0.072355,3.140333,41.595451,4.940918,,,,,,,
1530638887.208497,2.235837,-1.115481,-1.441807,-0.237580,-0.271402,0.230817,0.346030,0.898123,0.271361,-0.125754,-0.169256,0.160585,3.473555,41.457527,5.124832,,,,,,,
1530638887.228466,2.238755,-1.107911,-1.431426,-0.480031,-0.345688,0.129503,0.350565,0.894768,0.276573,-0.115595,-0.169212,0.191490,3.552626,41.467209,5.159775,,,,,,,
1530638887.248435,2.241140,-1.099849,-1.419860,-0.428030,-0.426672,0.184643,0.355546,0.891139,0.281881,-0.057496,-0.181880,0.178553,3.810617,41.092960,5.622940,,,,,,,
1530638887.268404,2.239234,-1.090632,-1.412391,-0.424802,-0.396577,0.302310,0.362512,0.886919,0.286281,0.018240,-0.235308,0.163624,4.173773,41.010155,6.107857,,,,,,,
1530638887.288373,2.236458,-1.080353,-1.409740,-0.297684,-0.170970,0.396949,0.370457,0.882124,0.290889,0.090084,-0.242674,0.103169,4.543413,40.747936,5.985359,,,,,,,
1530638887.308342,2.227481,-1.072515,-1.417858,0.045894,-0.080876,0.442260,0.378518,0.878405,0.291764,0.166022,-0.164019,0.094497,4.989504,40.764297,6.017105,,,,,,,
1530638887.328311,2.208248,-1.067292,-1.436155,0.229096,-0.217005,0.483866,0.387742,0.875897,0.287158,0.220397,-0.063672,0.216291,5.374643,40.471687,5.621651,,,,,,,
1530638887.348280,2.191071,-1.061423,-1.450847,0.022090,-0.155680,0.405484,0.396793,0.873050,0.283439,0.216030,-0.016803,0.329080,5.799326,40.314152,5.346947,,,,,,,
1530638887.368250,2.190340,-1.055747,-1.454845,-0.123224,0.319302,0.209797,0.401028,0.870268,0.286022,0.227100,-0.051360,0.304509,5.870710,40.123123,5.521973,,,,,,,
1530638887.388219,2.201049,-1.052454,-1.453476,-0.107490,0.512305,0.075745,0.400255,0.868642,0.291987,0.225919,-0.082478,0.291677,5.855131,39.918987,5.494537,,,,,,,
1530638887.408188,2.208633,-1.051077,-1.455579,0.096773,0.393907,0.106429,0.398991,0.867958,0.295727,0.074932,-0.073861,0.290226,6.006910,39.721195,5.274445,,,,,,,
1530638887.428157,2.196782,-1.053172,-1.471013,0.546516,-0.125285,0.135801,0.400993,0.868997,0.289911,-0.118156,0.058981,0.095022,6.141928,39.393066,4.747391,,,,,,,
1530638887.448126,2.170933,-1.062087,-1.494029,0.759063,-0.353722,-0.204068,0.401942,0.873374,0.275064,-0.303874,0.297875,0.069113,6.133451,39.268917,3.856049,,,,,,,
1530638887.468095,2.154428,-1.078246,-1.503233,0.517034,-0.496747,-0.741441,0.394598,0.881130,0.260582,-0.344107,0.428563,0.044945,5.528719,39.384613,3.235840,,,,,,,
1530638887.488064,2.150454,-1.096543,-1.491174,0.093224,-0.923349,-0.969783,0.382077,0.889634,0.250138,-0.285733,0.395614,0.023712,4.682188,39.215939,2.669884,,,,,,,
1530638887.508033,2.141174,-1.104904,-1.467762,-0.340734,-1.980816,-0.323140,0.378106,0.893421,0.242556,0.082541,0.192013,0.109251,4.550989,39.066730,2.679779,,,,,,,
1530638887.528003,2.094739,-1.100598,-1.459872,-0.183440,-2.949422,0.216246,0.392286,0.891478,0.226666,0.004305,-0.032942,-0.213376,4.726137,38.967789,2.427986,,,,,,,
1530638887.547972,2.041885,-1.097643,-1.458828,-0.066435,-2.354050,-0.001069,0.406058,0.890136,0.206820,-0.249167,-0.118316,-0.350802,5.034388,38.930721,2.058342,,,,,,,
1530638887.567941,2.015390,-1.101771,-1.452087,-0.005712,-1.233022,-0.402918,0.408073,0.892009,0.194408,-0.339653,-0.218807,-0.399913,4.754988,38.753094,2.035820,,,,,,,
1530638887.587910,2.006245,-1.115597,-1.442855,0.169217,-0.759338,-0.905089,0.398613,0.898173,0.185447,-0.378624,-0.244975,-0.419304,4.173662,38.885956,1.578651,,,,,,,
1530638887.607879,2.002028,-1.138324,-1.429825,0.248760,-0.841843,-1.269794,0.380746,0.907932,0.175186,-0.256783,-0.202518,-0.397201,3.174368,38.878231,1.137451,,,,,,,
1530638887.627848,1.998034,-1.166431,-1.414304,0.342787,-0.976197,-1.480680,0.358069,0.919352,0.163022,-0.127768,-0.128047,-0.378400,2.179876,38.711494,0.823235,,,,,,,
1530638887.647817,1.980685,-1.198984,-1.405672,0.643626,-1.487817,-1.581267,0.333209,0.931671,0.144779,0.018781,-0.047515,-0.370121,0.896856,38.527992,0.097046,,,,,,,
1530638887.667786,1.928993,-1.234094,-1.422852,1.112433,-1.867522,-1.450047,0.309406,0.943849,0.115824,0.201459,0.035185,-0.298518,-0.192797,38.358070,-0.852173,,,,,,,
1530638887.687756,1.846665,-1.266215,-1.474932,1.342720,-1.436926,-1.151672,0.288552,0.953973,0.081685,0.373466,0.217780,-0.141042,-1.325874,38.338448,-1.719048,,,,,,,
1530638887.707725,1.750116,-1.290505,-1.551470,1.342916,-1.119240,-0.797463,0.272198,0.960975,0.049340,0.565510,0.444131,-0.060327,-2.185534,38.328220,-2.896027,,,,,,,
1530638887.727694,1.638905,-1.304003,-1.638675,1.174626,-1.473386,-0.341167,0.263026,0.964621,0.017942,0.523031,0.152658,0.051409,-2.673077,38.196388,-3.831551,,,,,,,
1530638887.747663,1.531975,-1.305473,-1.718347,1.001297,-1.529252,0.083194,0.262021,0.965008,-0.010177,0.262607,-0.151852,0.084869,-2.867233,37.953327,-5.004585,,,,,,,
1530638887.767632,1.443921,-1.301272,-1.782124,0.756408,-1.121120,0.140621,0.264130,0.963898,-0.033693,0.025467,-0.250504,0.199067,-2.981371,37.809364,-5.548409,,,,,,,
1530638887.787601,1.380509,-1.296258,-1.830316,0.647085,-0.690706,0.162199,0.266206,0.962550,-0.051276,-0.047243,-0.232280,0.147147,-3.035339,37.556538,-6.205284,,,,,,,
1530638887.807570,1.335543,-1.289783,-1.868620,0.555278,-0.246206,0.221403,0.269688,0.960775,-0.064642,0.002254,-0.142797,0.131765,-2.942051,37.219631,-6.631256,,,,,,,
1530638887.827539,1.303690,-1.284127,-1.902319,0.511151,0.215040,0.091439,0.272729,0.959191,-0.074631,0.030784,-0.078851,0.119263,-2.902052,37.036289,-7.197548,,,,,,,
1530638887.847509,1.271628,-1.282656,-1.942852,0.629972,0.369419,-0.208909,0.271544,0.958774,-0.083751,0.035935,-0.093067,0.051418,-3.124289,36.813450,-7.816719,,,,,,,
1530638887.867478,1.221855,-1.284375,-2.001413,0.842351,0.271336,-0.402545,0.265492,0.959261,-0.096594,0.059657,-0.152453,0.016348,-3.458387,36.783638,-8.582939,,,,,,,
1530638887.887447,1.152077,-1.284695,-2.076439,1.055289,-0.015749,-0.402966,0.257831,0.959351,-0.114745,0.082898,-0.120896,0.006316,-3.930923,36.633049,-9.552612,,,,,,,
1530638887.907416,1.066279,-1.281016,-2.160091,1.186009,-0.427933,-0.348107,0.250137,0.958307,-0.138121,0.113510,-0.032373,0.029616,-4.277414,36.160378,-10.438881,,,,,,,
1530638887.927385,0.974322,-1.274846,-2.244427,1.209425,-0.623071,-0.385971,0.241284,0.956526,-0.163825,0.121692,-0.014143,0.113288,-4.861635,35.723679,-11.337845,,,,,,,
1530638887.947354,0.875217,-1.264214,-2.329161,1.445676,-1.196813,-0.280170,0.231686,0.953371,-0.193402,0.199680,0.055418,0.126751,-5.467901,35.146503,-12.544334,,,,,,,
1530638887.967323,0.770612,-1.248296,-2.408469,1.300753,-1.447574,-0.248558,0.220769,0.948446,-0.227397,0.305430,0.283274,0.373637,-6.020990,34.622353,-13.501945,,,,,,,
1530638887.987293,0.710166,-1.242411,-2.448315,0.177930,-0.914778,-0.297645,0.210265,0.946564,-0.244546,0.304932,0.236343,0.658136,-6.746557,34.241859,-14.200661,,,,,,,
1530638888.007262,0.702551,-1.253155,-2.441968,-0.741505,-0.661220,-0.204647,0.201814,0.949975,-0.238365,0.379333,0.119010,0.609215,-7.493795,34.382713,-13.754158,,,,,,,
1530638888.027231,0.721352,-1.265158,-2.403949,-0.851809,-0.955502,0.212497,0.198714,0.953655,-0.225949,0.510728,0.179707,0.481748,-7.979240,34.528900,-12.877907,,,,,,,
1530638888.047200,0.768323,-1.274759,-2.341620,-1.114446,-0.321846,0.383368,0.202732,0.956500,-0.209776,0.675137,0.323438,0.494581,-8.034237,34.885994,-12.184029,,,,,,,
,,,,,,,,,,,,,,,,39.779076,-84.063520,290.497524,-1.000000,-1.000000,1530638888.000086,
1530638888.067169,0.856913,-1.290422,-2.253023,-1.671377,0.458650,0.246389,0.209146,0.960952,-0.181184,0.858160,0.268418,0.509034,-8.245636,35.332821,-11.278511,,,,,,,
1530638888.087138,1.003463,-1.309826,-2.117728,-2.226847,1.029251,0.450278,0.217594,0.966140,-0.138654,0.890866,0.055512,0.461270,-7.945946,35.701534,-10.053680,,,,,,,
1530638888.107107,1.231895,-1.314085,-1.912261,-2.575972,1.747495,1.323519,0.239455,0.967230,-0.084408,0.709794,-0.125052,0.343564,-7.119408,36.295353,-8.619301,,,,,,,
1530638888.127076,1.497877,-1.289396,-1.684088,-2.778133,2.749362,2.042328,0.276960,0.960667,-0.020232,0.323626,0.118953,0.228804,-5.600800,37.262360,-6.929375,,,,,,,
1530638888.147046,1.745409,-1.245912,-1.500609,-2.869775,4.039530,1.931972,0.314342,0.947688,0.055453,0.117726,0.324163,-0.182452,-3.993526,37.735653,-5.174103,,,,,,,
1530638888.167015,1.955206,-1.198983,-1.364351,-2.875937,3.888629,1.404990,0.336790,0.931670,0.136243,0.066332,0.420457,-0.498853,-2.914358,38.299473,-3.276581,,,,,,,
1530638888.186984,2.102141,-1.153971,-1.262830,-2.611308,1.700977,1.028154,0.349039,0.914379,0.205139,0.018546,0.637547,-0.763763,-2.167202,38.546783,-1.414131,,,,,,,
1530638888.206953,2.159057,-1.117109,-1.196417,-1.871783,-1.264248,0.688884,0.364609,0.898837,0.243208,-0.133469,0.769254,-0.834975,-1.701567,38.741055,0.226936,,,,,,,
1530638888.226922,2.135666,-1.092559,-1.164105,-0.926254,-3.182912,0.652290,0.388723,0.887807,0.246355,-0.213232,0.641383,-0.510057,-1.181257,38.915291,1.034523,,,,,,,
1530638888.246891,2.078561,-1.072306,-1.160402,-0.524962,-2.602150,0.937699,0.417779,0.878305,0.232463,-0.185265,0.336386,0.128788,-0.246181,39.336498,1.630890,,,,,,,
1530638888.266860,2.061537,-1.046031,-1.153586,-0.973732,-0.271864,1.130605,0.441882,0.865441,0.236115,-0.186816,0.073997,0.223434,0.706579,39.367832,2.645782,,,,,,,
1530638888.286829,2.096842,-1.016047,-1.134966,-1.208944,1.562763,0.994196,0.455515,0.850032,0.264480,-0.292491,-0.067760,-0.237457,1.461409,39.336094,3.624962,,,,,,,
1530638888.306799,2.159073,-0.991546,-1.116190,-0.958735,2.687866,0.632419,0.455378,0.836873,0.303766,-0.336664,-0.176336,-0.498330,1.666510,39.700424,4.620071,,,,,,,
1530638888.326768,2.226556,-0.976934,-1.108680,-0.358228,3.163896,0.409370,0.443504,0.828785,0.341202,-0.253135,-0.283635,-0.648453,1.536551,39.610268,4.743523,,,,,,,
1530638888.346737,2.278257,-0.971103,-1.120157,0.274677,2.848608,0.476593,0.428944,0.825509,0.366800,-0.080250,-0.322442,-0.579584,1.617929,39.538914,4.829041,,,,,,,
1530638888.366706,2.298090,-0.966774,-1.147936,0.478755,1.626374,0.814729,0.424251,0.823058,0.377607,0.069066,-0.342726,-0.454587,2.152594,39.960979,4.592644,,,,,,,
1530638888.386675,2.289685,-0.959210,-1.183411,0.537713,0.803103,0.935239,0.432082,0.818738,0.378117,-0.136214,-0.374814,-0.489567,2.785185,39.928112,3.980019,,,,,,,
1530638888.406644,2.280367,-0.958352,-1.216755,0.792407,0.996374,0.431944,0.436119,0.818245,0.374531,-0.457145,-0.364205,-0.539173,3.033197,40.022995,3.508003,,,,,,,
1530638888.426613,2.282218,-0.971112,-1.242586,1.068799,1.165750,-0.288482,0.427481,0.825514,0.368490,-0.585058,-0.418776,-0.597158,2.692320,40.336555,2.683372,,,,,,,
1530638888.446583,2.287585,-0.997975,-1.258082,1.250928,0.622006,-1.005955,0.408627,0.840375,0.356079,-0.651227,-0.462644,-0.643005,1.823088,40.452248,1.428970,,,,,,,
1530638888.466552,2.285141,-1.035443,-1.258692,1.183010,-0.577894,-1.649501,0.385426,0.860089,0.334207,-0.715199,-0.493405,-0.499856,0.470198,40.980240,0.400131,,,,,,,
1530638888.486521,2.289451,-1.077322,-1.233708,0.705855,-0.806053,-2.156730,0.356542,0.880692,0.311864,-0.829732,-0.504716,0.281397,-1.237949,40.972389,-0.247337,,,,,,,
1530638888.506490,2.336025,-1.112916,-1.193089,0.353905,1.467724,-1.618930,0.318816,0.896991,0.306208,-0.304854,0.015209,1.836782,-2.738085,41.283249,-0.526794,,,,,,,
1530638888.526459,2.378516,-1.123337,-1.171561,-0.031625,0.155748,-0.088565,0.299044,0.901549,0.312701,0.905943,0.815690,1.378202,-2.907803,41.262447,-0.432243,,,,,,,
1530638888.546428,2.318316,-1.108609,-1.200048,-0.211892,-2.643759,1.512247,0.327018,0.895079,0.303137,1.081826,1.410081,0.011972,-1.662348,41.407421,-0.054131,,,,,,,
1530638888.566397,2.216201,-1.074287,-1.237751,-0.497217,-3.760456,1.937002,0.380543,0.879251,0.286540,0.900997,0.885504,0.090047,0.170031,41.211853,0.699356,,,,,,,
1530638888.586366,2.118109,-1.042114,-1.275773,0.183792,-2.718252,1.729843,0.430717,0.863472,0.262485,0.381706,-0.249474,0.080365,1.927073,41.189217,0.536095,,,,,,,
1530638888.606336,2.045551,-1.026570,-1.326417,1.032647,-0.695361,0.976662,0.460495,0.855528,0.236677,-0.248093,-0.647673,-0.328657,2.862314,41.088459,0.069519,,,,,,,
1530638888.626305,2.015696,-1.036346,-1.373600,1.369804,1.234815,-0.552362,0.459783,0.860549,0.219215,-0.567419,-0.464064,-0.471001,2.546926,41.076309,-0.882782,,,,,,,
1530638888.646274,2.051345,-1.077335,-1.389344,1.111984,3.065063,-2.289071,0.420029,0.880699,0.218965,-0.363876,0.100381,-0.495683,0.661242,41.316868,-1.997246,,,,,,,
1530638888.666243,2.112834,-1.133947,-1.361631,0.846733,-0.603496,-2.720244,0.362441,0.906089,0.218263,0.351426,1.366662,0.033003,-1.344143,41.170033,-2.460106,,,,,,,
1530638888.686212,2.079680,-1.169150,-1.330669,-0.085904,-3.226721,-1.193604,0.341398,0.920419,0.190464,0.314928,1.140540,0.103024,-2.483397,41.115826,-2.271439,,,,,,,
1530638888.706181,2.071083,-1.167489,-1.302661,-0.648423,-0.953406,0.218964,0.344365,0.919768,0.188255,-0.210286,0.190843,-0.256798,-2.472633,41.103073,-1.666801,,,,,,,
1530638888.726150,2.077012,-1.158276,-1.285829,-0.383417,-0.440557,0.115074,0.350638,0.916113,0.194394,-0.553885,-0.276068,-0.567151,-2.510279,41.020344,-1.169487,,,,,,,
1530638888.746120,2.070939,-1.163317,-1.277323,0.181288,-0.905090,-0.581286,0.347755,0.918123,0.190044,-0.642174,-0.454332,-0.610149,-2.676849,40.990601,-1.172356,,,,,,,
1530638888.766089,2.052081,-1.184010,-1.273905,0.524407,-1.206201,-1.113795,0.334363,0.926126,0.174619,-0.527890,-0.498590,-0.444853,-3.511011,40.879974,-1.199837,,,,,,,
1530638888.786058,2.031173,-1.209663,-1.272234,0.519276,-1.006263,-1.132184,0.316548,0.935497,0.156982,-0.353276,-0.315532,-0.300766,-4.270027,40.648415,-1.502960,,,,,,,
1530638888.806027,2.030662,-1.228057,-1.265105,0.114824,0.093595,-0.685771,0.301155,0.941838,0.149157,-0.157219,0.147289,-0.191912,-5.057240,40.470863,-1.315948,,,,,,,
1530638888.825996,2.049760,-1.236490,-1.261639,0.575723,0.879560,-0.384906,0.291192,0.944638,0.151215,-0.041940,0.519977,-0.369248,-5.370037,40.455708,-2.102135,,,,,,,
1530638888.845965,1.966565,-1.264377,-1.357358,2.595104,0.148152,-0.710876,0.278331,0.953420,0.116290,0.017690,0.242015,-0.361774,-6.013983,40.507931,-3.967094,,,,,,,
1530638888.865934,1.809775,-1.295169,-1.531370,2.802961,0.838554,-0.626718,0.264417,0.962255,0.064421,0.015353,-0.033376,-0.035963,-6.373051,40.171005,-6.323425,,,,,,,
1530638888.885904,1.654391,-1.314134,-1.720146,2.518848,1.390976,-0.520721,0.252968,0.967243,0.021196,-0.003823,-0.289798,-0.010790,-6.530476,39.815777,-8.789597,,,,,,,
1530638888.905873,1.474267,-1.325860,-1.922527,2.471849,0.305606,-0.646253,0.241366,0.970153,-0.023372,0.041761,-0.362975,0.003337,-7.117764,39.053631,-10.853539,,,,,,,
1530638888.925842,1.283551,-1.330268,-2.111813,1.957843,-0.737744,-0.600505,0.228455,0.971212,-0.067489,0.150634,-0.222982,0.135635,-7.683487,38.753738,-12.479492,,,,,,,
1530638888.945811,1.141852,-1.327685,-2.234257,1.061677,-1.392274,-0.252214,0.218914,0.970594,-0.100119,0.209187,-0.089857,0.246512,-7.973442,38.037560,-13.043640,,,,,,,
1530638888.965780,1.061739,-1.325110,-2.280033,0.311815,-2.064272,-0.098624,0.212382,0.969971,-0.118535,0.191656,-0.093338,0.237965,-8.463316,37.874737,-13.120583,,,,,,,
1530638888.985749,0.993185,-1.324918,-2.301724,0.272527,-2.536343,-0.155481,0.203919,0.969924,-0.132906,0.160430,-0.124190,0.206622,-8.974579,37.769180,-12.727852,,,,,,,
1530638889.005718,0.901501,-1.321827,-2.347250,0.721803,-2.194940,-0.219024,0.193245,0.969167,-0.152877,0.160545,-0.075124,0.226638,-9.593473,37.713501,-12.552902,,,,,,,
1530638889.025688,0.803634,-1.313166,-2.416576,1.014547,-1.137162,-0.265575,0.183418,0.966996,-0.176847,0.164193,0.036666,0.310193,-9.893702,37.358154,-12.981880,,,,,,,
1530638889.045657,0.722447,-1.302671,-2.489700,1.025675,-0.301915,-0.365208,0.175172,0.964269,-0.198742,0.147490,0.089304,0.368709,-10.255991,37.118546,-13.458405,,,,,,,
,,,,,,,,,,,,,,,,39.779079,-84.063519,290.506985,-1.000000,-1.000000,1530638889.000084,
1530638889.065626,0.648058,-1.293398,-2.562037,0.903186,-0.291979,-0.519160,0.165308,0.961771,-0.218331,0.223714,0.233557,0.422921,-10.618370,36.465771,-14.313530,,,,,,,
1530638889.085595,0.585658,-1.292159,-2.620811,0.192381,-0.276344,-0.671123,0.152031,0.961431,-0.229209,0.352150,0.258402,0.505728,-10.963581,36.163101,-14.330299,,,,,,,
1530638889.105564,0.558087,-1.306581,-2.649900,-0.680979,0.205483,-0.704788,0.138297,0.965298,-0.221527,0.462045,0.025379,0.403031,-11.577612,36.199863,-14.022278,,,,,,,
1530638889.125533,0.553761,-1.323802,-2.659789,-0.515377,0.135121,-0.435106,0.128575,0.969652,-0.207952,0.578380,-0.028444,0.148321,-11.788851,35.934422,-13.328499,,,,,,,
1530638889.145502,0.549185,-1.326360,-2.661913,0.110099,-0.234592,0.159335,0.126327,0.970274,-0.206422,0.692322,0.187166,0.158036,-11.842911,35.603249,-13.263596,,,,,,,
1530638889.165472,0.574162,-1.318999,-2.632988,0.005284,-0.144226,0.665640,0.135318,0.968466,-0.209194,0.731930,0.411905,0.436809,-11.497047,35.703815,-13.273430,,,,,,,
1530638889.185441,0.653786,-1.320152,-2.546438,-1.262602,-0.165512,0.930355,0.150849,0.968753,-0.196881,0.797118,0.465360,0.944287,-10.732059,35.528267,-12.452744,,,,,,,
1530638889.205410,0.867796,-1.342673,-2.336116,-3.234869,0.947626,1.127156,0.172530,0.974093,-0.146207,0.660401,0.201429,0.967817,-9.786428,35.920696,-10.623138,,,,,,,
1530638889.225379,1.270009,-1.354838,-1.960378,-4.152136,2.366934,1.697066,0.204662,0.976771,-0.063486,0.350529,0.200414,0.523386,-8.547735,36.369312,-7.900955,,,,,,,
1530638889.245348,1.716357,-1.321797,-1.576122,-4.287624,4.281961,2.061501,0.243828,0.969160,0.035745,0.179939,0.321078,-0.171441,-6.937006,36.728184,-5.334351,,,,,,,
1530638889.265317,2.044592,-1.258680,-1.330566,-4.054148,4.482085,1.845351,0.273247,0.951686,0.140107,0.119941,0.514013,-0.605653,-5.336885,36.964237,-2.819481,,,,,,,
1530638889.285286,2.221933,-1.194467,-1.208090,-3.022635,1.983085,1.438351,0.292315,0.930020,0.222744,-0.012285,0.792377,-0.956340,-4.071362,36.945889,-0.500977,,,,,,,
1530638889.305255,2.269172,-1.149805,-1.153919,-1.799491,-1.322630,0.826960,0.312991,0.912684,0.262761,-0.217425,0.840611,-0.997258,-3.258738,36.845066,1.182877,,,,,,,
1530638889.325225,2.246838,-1.127822,-1.119345,-0.939166,-3.259121,0.179667,0.334354,0.903481,0.268197,-0.314533,0.595451,-0.747765,-2.675776,36.394478,1.994751,,,,,,,
1530638889.345194,2.188162,-1.121769,-1.109187,-0.041031,-3.254590,0.120498,0.353958,0.900870,0.251289,-0.190994,0.289880,-0.222160,-2.577299,36.468605,2.465393,,,,,,,
1530638889.365163,2.135612,-1.118027,-1.120430,0.055601,-1.204628,0.436733,0.369514,0.899239,0.234153,-0.007575,0.065940,0.309960,-2.247797,36.492878,2.352318,,,,,,,
1530638889.385132,2.139274,-1.101981,-1.128709,-0.485071,1.509779,0.959259,0.380766,0.892104,0.243242,-0.038801,-0.174712,0.120009,-1.375917,36.331463,2.547943,,,,,,,
1530638889.405101,2.190690,-1.076389,-1.126006,-0.888455,2.860748,1.011055,0.386222,0.880250,0.275665,-0.213874,-0.256761,-0.305145,-0.921150,36.438923,2.987534,,,,,,,
1530638889.425070,2.258918,-1.051074,-1.120775,-0.795228,3.321930,0.883945,0.383623,0.867957,0.315408,-0.185137,-0.343116,-0.540948,-0.556795,36.315071,3.222450,,,,,,,
1530638889.445040,2.320691,-1.030520,-1.124245,-0.503151,3.084917,0.822526,0.376397,0.857567,0.350575,-0.083718,-0.426567,-0.581578,-0.306742,36.246307,3.478867,,,,,,,
1530638889.465009,2.359769,-1.013486,-1.136703,-0.284004,2.058006,0.850827,0.372653,0.848681,0.375326,-0.043078,-0.489321,-0.609442,0.192394,36.073944,3.446594,,,,,,,
1530638889.484978,2.373636,-1.001185,-1.153221,-0.017806,1.057032,0.638244,0.374636,0.842110,0.387938,-0.267993,-0.513879,-0.658186,0.387074,36.179504,3.190521,,,,,,,
1530638889.504947,2.373825,-0.999551,-1.169219,0.416993,0.505855,0.185517,0.375518,0.841228,0.388998,-0.462402,-0.481579,-0.701117,0.429085,36.363491,2.886856,,,,,,,
1530638889.524916,2.366042,-1.012740,-1.183956,0.955761,0.047303,-0.416709,0.370733,0.848286,0.378108,-0.596456,-0.469319,-0.742595,0.229549,36.191055,2.096703,,,,,,,
1530638889.544885,2.348622,-1.043379,-1.195614,1.500944,-0.663101,-1.156105,0.358572,0.864110,0.353182,-0.700750,-0.451314,-0.782351,-0.645729,36.393658,0.962624,,,,,,,
1530638889.564854,2.322632,-1.091198,-1.199990,1.816958,-1.290207,-1.957367,0.337039,0.887180,0.315142,-0.799853,-0.452762,-0.506747,-2.008839,36.246498,-0.491631,,,,,,,
1530638889.584824,2.339427,-1.146862,-1.174638,1.124462,0.957693,-2.609983,0.295702,0.911478,0.285949,-0.995165,-0.462564,1.243913,-3.923937,36.093151,-1.359238,,,,,,,
1530638889.604793,2.510186,-1.160065,-1.073391,-1.800878,4.223787,-1.456473,0.235686,0.916829,0.322296,0.942201,0.536433,3.292038,-4.954477,35.748283,-1.063965,,,,,,,
1530638889.624762,2.556437,-1.149720,-1.026671,-0.272415,-2.197358,0.177677,0.225759,0.912650,0.340737,1.029825,1.358514,-0.330910,-4.608583,35.845196,-0.677979,,,,,,,
1530638889.644731,2.426360,-1.141389,-1.082946,0.596368,-4.496931,1.589597,0.273026,0.909213,0.314304,0.883590,1.349058,-0.297626,-3.394970,35.978939,-0.776031,,,,,,,
1530638889.664700,2.263376,-1.126095,-1.164719,0.758550,-4.054331,1.751783,0.331072,0.902739,0.274685,0.625562,0.347230,0.288350,-1.908911,36.050694,-1.374649,,,,,,,
1530638889.684669,2.153725,-1.111472,-1.233386,0.743215,-1.325282,1.249573,0.370125,0.896352,0.244046,-0.063286,-0.484731,0.061984,-0.969105,36.192760,-1.994720,,,,,,,
1530638889.704638,2.126020,-1.109214,-1.267743,0.433668,0.987829,-0.071184,0.378462,0.895349,0.234766,-0.448653,-0.288659,-0.409418,-1.049055,36.291191,-2.479759,,,,,,,
1530638889.724608,2.191629,-1.127493,-1.245582,-0.090796,2.912197,-1.517706,0.348884,0.903340,0.249510,-0.292747,0.273250,-0.564497,-2.131916,36.391632,-2.349686,,,,,,,
1530638889.744577,2.264391,-1.154268,-1.195774,0.287333,-0.577488,-1.506210,0.311108,0.914499,0.258654,0.307178,1.322775,-0.157168,-2.973740,36.290962,-2.857704,,,,,,,
1530638889.764546,2.215013,-1.168630,-1.196452,0.431665,-2.637977,0.007344,0.312961,0.920215,0.235071,0.047009,0.472653,-0.031625,-3.135199,36.494289,-3.016663,,,,,,,
1530638889.784515,2.160220,-1.164937,-1.218563,0.171781,-1.229144,0.464496,0.328187,0.918763,0.219466,-0.417985,-0.164979,-0.407851,-2.818550,36.270767,-3.020844,,,,,,,
1530638889.804484,2.127902,-1.164020,-1.233446,0.298391,-0.879171,-0.024817,0.335822,0.918401,0.209192,-0.594459,-0.316884,-0.580790,-2.841969,36.355549,-3.133240,,,,,,,
1530638889.824453,2.101354,-1.175948,-1.241335,0.510218,-1.022744,-0.664093,0.331784,0.923055,0.194647,-0.591642,-0.338719,-0.558340,-3.198462,36.417892,-3.671165,,,,,,,
1530638889.844422,2.082626,-1.196491,-1.239712,0.431200,-0.980613,-1.006019,0.318770,0.930762,0.179073,-0.482878,-0.264792,-0.425289,-3.977768,36.340302,-3.753036,,,,,,,
1530638889.864392,2.084561,-1.216535,-1.222385,0.066095,-0.480477,-0.997558,0.302113,0.937903,0.170486,-0.330326,-0.017493,-0.323394,-4.813433,36.449932,-3.969513,,,,,,,
1530638889.884361,2.120298,-1.228744,-1.186117,-0.383057,0.432919,-0.723047,0.286041,0.942068,0.175177,-0.174499,0.258508,-0.303976,-5.274433,36.532383,-3.957993,,,,,,,
1530638889.904330,2.163607,-1.236418,-1.155898,0.398710,0.494038,-0.658827,0.272185,0.944614,0.183353,-0.062605,0.323925,-0.502292,-5.634153,36.279011,-4.432808,,,,,,,
1530638889.924299,2.067690,-1.276930,-1.241604,2.998764,-1.197700,-1.183281,0.254624,0.957131,0.138076,0.077438,0.138282,-0.407745,-6.564442,35.997726,-6.634689,,,,,,,
1530638889.944268,1.865485,-1.321530,-1.437788,3.235242,-0.096998,-0.889291,0.236057,0.969094,0.071650,0.155376,-0.018929,0.019781,-7.181492,35.663158,-9.103523,,,,,,,
1530638889.964237,1.647881,-1.346012,-1.671839,2.768399,0.562578,-0.625528,0.222233,0.974842,0.017165,0.162579,-0.256367,0.168077,-7.541422,35.431095,-11.105499,,,,,,,
1530638889.984206,1.415030,-1.356750,-1.907182,2.315692,-0.572029,-0.635876,0.209843,0.977179,-0.032953,0.200145,-0.334952,0.282007,-8.147514,34.745552,-12.780434,,,,,,,
1530638890.004176,1.236316,-1.360007,-2.075435,1.276718,-0.664006,-0.535725,0.197636,0.977866,-0.068686,0.168270,-0.243338,0.372763,-8.698820,34.235428,-13.758751,,,,,,,
1530638890.024145,1.150407,-1.362411,-2.153970,0.445635,-0.376913,-0.347522,0.188866,0.978366,-0.084431,0.137626,-0.169269,0.255039,-8.933460,33.994713,-14.343765,,,,,,,
1530638890.044114,1.103614,-1.364946,-2.191293,0.284504,-0.650157,-0.256525,0.182495,0.978887,-0.092055,0.154633,-0.178122,0.114104,-9.284258,34.013367,-14.238152,,,,,,,
,,,,,,,,,,,,,,,,39.779082,-84.063517,290.517544,-1.000000,-1.000000,1530638890.000078,
1530638890.064083,1.033401,-1.365236,-2.246412,0.656294,-0.856267,-0.320805,0.175344,0.978947,-0.104486,0.180110,-0.131077,0.056894,-9.545137,33.737434,-14.644127,,,,,,,
1530638890.084052,0.919114,-1.361281,-2.348964,1.176724,-0.542838,-0.493089,0.165361,0.978132,-0.126148,0.166136,-0.093992,0.096012,-10.079922,33.384903,-15.361198,,,,,,,
1530638890.104021,0.789792,-1.350883,-2.476756,1.449184,-0.076055,-0.480798,0.154927,0.975916,-0.153572,0.180186,-0.060557,0.152427,-10.311594,33.298332,-16.259789,,,,,,,
1530638890.123990,0.673253,-1.333391,-2.593157,1.565573,-0.317685,-0.345161,0.146642,0.971952,-0.183863,0.191996,0.069476,0.189906,-10.697340,32.611534,-17.306831,,,,,,,
1530638890.143960,0.573041,-1.313866,-2.681411,1.248700,-0.974674,-0.307203,0.137777,0.967175,-0.213519,0.253932,0.300831,0.402774,-11.095095,32.206467,-18.132881,,,,,,,
1530638890.163929,0.501998,-1.307642,-2.732294,0.131192,-1.039355,-0.478944,0.125167,0.965574,-0.228033,0.327408,0.312822,0.610021,-11.762314,32.147766,-18.367126,,,,,,,
1530638890.183898,0.473852,-1.323370,-2.748572,-0.918110,-0.364059,-0.545381,0.111756,0.969546,-0.217923,0.462753,0.074598,0.479245,-12.075377,32.240555,-17.755768,,,,,,,
1530638890.203867,0.470650,-1.341449,-2.744495,-0.606181,-0.462480,-0.215927,0.103091,0.973815,-0.202622,0.654249,0.100678,0.197831,-12.420361,32.352280,-17.469330,,,,,,,
1530638890.223836,0.479123,-1.344749,-2.726619,-0.116418,-0.318220,0.290770,0.103322,0.974560,-0.198888,0.754146,0.264744,0.292471,-12.347967,32.617508,-17.096893,,,,,,,
1530638890.243805,0.535248,-1.345645,-2.670356,-0.621777,0.267844,0.650585,0.113871,0.974760,-0.192029,0.826696,0.398409,0.593884,-11.761526,32.969475,-16.986961,,,,,,,
1530638890.263775,0.679521,-1.360319,-2.532284,-2.016481,0.592247,0.897825,0.131292,0.977931,-0.162516,0.857417,0.381581,0.802409,-10.913593,33.588875,-16.046936,,,,,,,
1530638890.283744,0.981046,-1.381197,-2.242748,-3.193034,1.083750,1.394841,0.156627,0.982080,-0.104814,0.632298,0.110816,0.591768,-9.810625,34.749252,-14.023064,,,,,,,
1530638890.303713,1.420288,-1.372595,-1.831009,-3.664372,2.331098,2.067014,0.194678,0.980422,-0.029524,0.250498,0.150544,0.330397,-7.918488,35.821526,-11.581436,,,,,,,
1530638890.323682,1.811842,-1.323660,-1.501339,-3.736815,4.081481,2.291938,0.237555,0.969617,0.058397,0.111994,0.352023,-0.231828,-5.456991,36.596775,-8.911026,,,,,,,
1530638890.343651,2.079113,-1.257640,-1.313129,-3.478357,4.164193,1.972492,0.269112,0.951366,0.149936,0.065040,0.561741,-0.608829,-3.384058,37.246288,-6.396889,,,,,,,
1530638890.363620,2.219282,-1.197805,-1.226027,-2.420375,1.924867,1.527629,0.290428,0.931241,0.220091,-0.074867,0.802767,-0.925063,-1.745016,37.656334,-4.415527,,,,,,,
1530638890.383589,2.246507,-1.159058,-1.197052,-1.211189,-1.080806,0.949115,0.312262,0.916427,0.250307,-0.267478,0.880692,-0.932848,-0.828041,37.980560,-3.054451,,,,,,,
1530638890.403559,2.203262,-1.141260,-1.192954,-0.257340,-2.858846,0.531311,0.335896,0.909159,0.246177,-0.346684,0.683325,-0.536247,-0.336573,37.956612,-2.614334,,,,,,,
1530638890.423528,2.134158,-1.133758,-1.210619,0.163882,-2.235455,0.557871,0.357849,0.906009,0.226033,-0.263672,0.343670,0.187069,0.175774,37.879593,-2.360291,,,,,,,
1530638890.443497,2.105476,-1.118908,-1.217976,-0.584242,-0.421098,0.822657,0.375720,0.899624,0.222509,-0.147891,0.007816,0.302622,0.924261,37.877419,-2.071716,,,,,,,
1530638890.463466,2.131784,-1.092545,-1.201331,-1.166600,1.093842,0.956970,0.389688,0.887801,0.244851,-0.286264,-0.191619,-0.209955,1.588614,37.812042,-1.319046,,,,,,,
1530638890.483435,2.184751,-1.065681,-1.180298,-1.087582,2.062216,0.759113,0.395535,0.875119,0.278782,-0.363857,-0.298749,-0.522113,2.340300,37.560368,-0.368965,,,,,,,
1530638890.503404,2.246767,-1.045794,-1.168146,-0.669716,2.868285,0.549311,0.390997,0.865323,0.313587,-0.295127,-0.415479,-0.603108,2.798548,37.134289,0.524101,,,,,,,
1530638890.523374,2.308488,-1.032421,-1.168624,-0.326738,3.117757,0.534992,0.379441,0.858543,0.344861,-0.133881,-0.479972,-0.537106,3.001558,37.396488,1.145615,,,,,,,
1530638890.543343,2.353634,-1.018684,-1.175756,-0.376901,2.101253,0.667596,0.371816,0.851419,0.369917,-0.055074,-0.491098,-0.508116,3.293818,37.254902,1.553558,,,,,,,
1530638890.563312,2.376088,-1.006191,-1.181624,-0.262529,1.039798,0.428298,0.370759,0.844800,0.385811,-0.323533,-0.470761,-0.609352,3.611353,37.254551,1.976692,,,,,,,
1530638890.583281,2.388760,-1.004219,-1.185870,0.204790,0.740357,-0.032192,0.366978,0.843743,0.391693,-0.485204,-0.468728,-0.686005,3.789751,37.103043,1.924141,,,,,,,
1530638890.603250,2.397605,-1.018328,-1.190598,0.848240,0.551013,-0.618051,0.355402,0.851232,0.386126,-0.598413,-0.488500,-0.757327,3.384642,37.217896,1.649513,,,,,,,
1530638890.623219,2.399123,-1.050043,-1.191956,1.380489,-0.179555,-1.314270,0.336387,0.867445,0.366583,-0.687950,-0.507200,-0.764151,2.676107,37.384468,0.751808,,,,,,,
1530638890.643189,2.394934,-1.096498,-1.181812,1.567753,-0.839328,-2.015094,0.310196,0.889613,0.335211,-0.776443,-0.544978,-0.423147,1.291945,37.616638,-0.344315,,,,,,,
1530638890.663158,2.438664,-1.142842,-1.132689,0.420244,0.965391,-2.412624,0.268285,0.909817,0.316633,-0.872030,-0.535808,1.483736,-0.378828,37.808857,-0.977097,,,,,,,
1530638890.683127,2.564525,-1.145337,-1.037631,-1.676008,1.397733,-1.139254,0.225178,0.910849,0.345903,0.757397,0.561486,2.792098,-1.607122,37.645439,-0.295555,,,,,,,
1530638890.703096,2.565841,-1.137136,-1.007700,0.139155,-2.644018,0.256332,0.228782,0.907434,0.352452,0.912362,1.245673,-0.162786,-1.908875,37.557022,0.368835,,,,,,,
1530638890.723065,2.430203,-1.136053,-1.078686,0.995917,-3.868604,1.701611,0.274981,0.906978,0.319023,0.885831,1.337055,-0.220100,-0.053482,37.688690,0.135315,,,,,,,
1530638890.743034,2.278029,-1.117085,-1.163599,0.407374,-3.448630,1.978465,0.333183,0.898826,0.284780,0.660256,0.544960,0.393458,1.446783,37.593189,-0.293434,,,,,,,
1530638890.763004,2.182663,-1.096652,-1.220232,0.387834,-1.501723,1.239566,0.373743,0.889684,0.262256,-0.020380,-0.275899,0.127789,2.448473,37.476028,-0.533569,,,,,,,
1530638890.782973,2.152643,-1.096687,-1.238911,0.321336,-0.205317,-0.412239,0.381421,0.889700,0.250903,-0.453717,0.120585,-0.256045,1.932901,37.502884,-0.764023,,,,,,,
1530638890.802942,2.191914,-1.118502,-1.215338,0.071836,1.579564,-1.495668,0.355406,0.899447,0.254327,-0.219419,0.768644,-0.349863,0.813448,37.575695,-0.711761,,,,,,,
1530638890.822911,2.252474,-1.137880,-1.181230,0.012082,1.009850,-0.840964,0.325765,0.907746,0.264338,0.455973,1.022262,-0.185679,0.307171,37.235279,-0.754448,,,,,,,
1530638890.842880,2.251333,-1.141595,-1.178905,0.136960,-0.646987,0.090188,0.323442,0.909298,0.261842,-0.069307,-0.026776,-0.248598,0.360723,37.026947,-0.662743,,,,,,,
1530638890.862850,2.222969,-1.142540,-1.192668,0.326997,-0.875404,0.067645,0.330055,0.909691,0.252042,-0.484931,-0.362725,-0.624952,0.402016,36.950462,-0.826157,,,,,,,
1530638890.882819,2.186626,-1.151742,-1.205369,0.583620,-1.514772,-0.394389,0.332147,0.913474,0.235038,-0.564019,-0.488548,-0.706427,0.014244,36.990513,-1.282013,,,,,,,
1530638890.902788,2.137531,-1.170630,-1.216241,0.742305,-2.166601,-0.805830,0.328664,0.920996,0.209153,-0.561086,-0.440543,-0.618225,-0.619463,36.902294,-1.794838,,,,,,,
1530638890.922757,2.090543,-1.193749,-1.217950,0.512608,-2.280713,-1.055224,0.319557,0.929756,0.182859,-0.522651,-0.173927,-0.469770,-1.297466,36.750767,-1.894676,,,,,,,
1530638890.942726,2.070838,-1.214855,-1.197184,-0.047156,-1.641066,-1.097934,0.305806,0.937319,0.167079,-0.404439,0.269834,-0.327098,-2.141457,36.872387,-1.999161,,,,,,,
1530638890.962695,2.104597,-1.227554,-1.144789,-0.680268,-0.210373,-0.910646,0.289721,0.941668,0.171235,-0.238681,0.514188,-0.252168,-2.948301,36.845863,-1.418823,,,,,,,
1530638890.982665,2.131947,-1.246213,-1.120373,1.314823,0.114713,-1.242049,0.270006,0.947784,0.169713,-0.007112,0.383958,-0.320531,-3.868717,36.527401,-2.529922,,,,,,,
1530638891.002634,2.021412,-1.297524,-1.234945,3.123945,0.084247,-1.391986,0.242942,0.962893,0.117539,0.142770,0.093397,-0.044297,-4.958540,36.214798,-4.677391,,,,,,,
1530638891.022603,1.858632,-1.339654,-1.421197,2.692448,1.396289,-0.977694,0.219664,0.973405,0.065033,0.171434,-0.102754,0.114441,-5.433983,35.778934,-7.104378,,,,,,,
1530638891.042572,1.699322,-1.366602,-1.615652,2.171308,1.292925,-0.851839,0.201104,0.979225,0.025990,0.201133,-0.361946,0.084880,-6.120653,35.568394,-8.740067,,,,,,,
,,,,,,,,,,,,,,,,39.779084,-84.063516,290.528042,-1.000000,-1.000000,1530638891.000075,
1530638891.062541,1.512445,-1.384704,-1.814374,1.810424,-0.058506,-0.800581,0.184704,0.982735,-0.010790,0.281986,-0.400307,0.097307,-6.622398,35.121635,-10.278572,,,,,,,
1530638891.082510,1.335352,-1.394016,-1.988582,1.281362,-0.279394,-0.600793,0.171007,0.984415,-0.041023,0.291701,-0.338770,0.159020,-7.134508,34.762634,-11.076324,,,,,,,
1530638891.102480,1.210653,-1.395932,-2.111631,0.868720,-0.182111,-0.282071,0.162811,0.984750,-0.061309,0.217651,-0.289987,0.136566,-7.309168,34.910431,-11.757195,,,,,,,
1530638891.122449,1.117580,-1.391562,-2.197693,0.774309,-0.610072,-0.010262,0.160276,0.983981,-0.078059,0.143023,-0.216418,0.069331,-7.578400,34.694984,-12.128609,,,,,,,
1530638891.142418,1.019286,-1.383225,-2.278879,0.917055,-1.053860,-0.015004,0.158824,0.982460,-0.097706,0.112615,-0.145714,0.058018,-7.546860,34.321167,-12.276131,,,,,,,
1530638891.162387,0.902825,-1.372901,-2.376902,1.161667,-0.917011,-0.180890,0.154351,0.980483,-0.121776,0.109230,-0.092650,0.113704,-7.965126,34.006508,-13.176041,,,,,,,
1530638891.182356,0.778775,-1.359829,-2.491197,1.363243,-0.398164,-0.350943,0.147088,0.977829,-0.149049,0.118674,-0.029907,0.178728,-8.273323,33.866867,-13.748047,,,,,,,
1530638891.202326,0.666357,-1.344692,-2.603201,1.374304,-0.109510,-0.428400,0.138573,0.974547,-0.176225,0.149833,0.053254,0.217073,-8.600210,33.493423,-14.516273,,,,,,,
1530638891.222295,0.562603,-1.326769,-2.699786,1.352061,-0.808588,-0.384080,0.128873,0.970373,-0.204372,0.237460,0.248026,0.253521,-8.929724,33.070091,-15.252831,,,,,,,
1530638891.242264,0.470989,-1.313367,-2.768529,0.691923,-1.410774,-0.432792,0.115527,0.967048,-0.226875,0.349270,0.365396,0.450615,-9.636560,32.739792,-15.388206,,,,,,,
1530638891.262233,0.414357,-1.317571,-2.802838,-0.391005,-0.917698,-0.486814,0.100863,0.968109,-0.229327,0.422682,0.142059,0.524264,-10.159885,32.697823,-15.102341,,,,,,,
1530638891.282202,0.394499,-1.331441,-2.809941,-0.577805,-0.604865,-0.220153,0.091119,0.971491,-0.218866,0.560721,0.079656,0.331430,-10.525385,32.665047,-14.450508,,,,,,,
1530638891.302171,0.398053,-1.336516,-2.794104,-0.176841,-0.543098,0.247187,0.089984,0.972682,-0.213993,0.678555,0.242742,0.319935,-10.590815,32.573891,-14.095474,,,,,,,
