timestamp(unix),attitude_roll(radians),attitude_pitch(radians),attitude_yaw(radians),rotation_rate_x(radians/s),rotation_rate_y(radians/s),rotation_rate_z(radians/s),gravity_x(G),gravity_y(G),gravity_z(G),user_acc_x(G),user_acc_y(G),user_acc_z(G),magnetic_field_x(microteslas),magnetic_field_y(microteslas),magnetic_field_z(microteslas),latitude(degree),longitude(degree),altitude(meter),speed(m/s),course(degree),timestamp(unix),User Mark
,,,,,,,,,,,,,,,,39.779299,-84.063519,291.476650,-1.000000,-1.000000,1530639051.999769,
1530639091.768069,0.002193,0.183292,-1.255234,-0.013570,-0.028266,0.020422,0.002157,-0.182267,-0.983247,-0.001867,-0.004073,0.005463,6.068197,12.382294,-44.672699,,,,,,,
,,,,,,,,,,,,,,,,39.779162,-84.063634,290.999477,-1.000000,-1.000000,1530639069.000001,
1530639091.788038,0.002539,0.182168,-1.254627,-0.076644,0.048910,0.037649,0.002497,-0.181163,-0.983450,-0.001398,0.002574,-0.004007,6.218206,12.371155,-44.482269,,,,,,,
1530639091.808007,0.003427,0.180785,-1.253819,-0.056777,0.041125,0.044948,0.003371,-0.179801,-0.983697,0.006150,0.005027,-0.017325,6.139631,12.446655,-44.200928,,,,,,,
1530639091.827976,0.003703,0.180127,-1.252938,-0.020061,0.009103,0.044407,0.003643,-0.179155,-0.983814,0.008289,0.006578,-0.006878,6.178480,12.414642,-44.315262,,,,,,,
,,,,,,,,,,,,,,,,39.779162,-84.063634,290.999481,-1.000000,-1.000000,1530639091.828355,
1530639091.847944,0.003739,0.179985,-1.252084,-0.001187,0.016826,0.044240,0.003679,-0.179015,-0.983839,0.003279,0.001021,-0.007219,6.101366,12.642166,-44.173355,,,,,,,
,,,,,,,,,,,,,,,,39.779162,-84.063634,290.999481,-1.000000,-1.000000,1530639091.834893,
1530639091.867913,0.004096,0.180292,-1.251248,0.026089,0.023450,0.042905,0.004029,-0.179317,-0.983783,0.007934,-0.000844,-0.028210,6.183798,12.481888,-44.180557,,,,,,,
1530639091.887882,0.003803,0.180826,-1.250268,0.023869,-0.021921,0.058885,0.003741,-0.179842,-0.983688,0.014982,-0.006895,-0.039734,6.147978,12.680328,-44.490936,,,,,,,
,,,,,,,,,,,,,,,,39.779162,-84.063634,290.999481,-1.000000,-1.000000,1530639091.883959,
,,,,,,,,,,,,,,,,39.779162,-84.063634,290.999481,-1.000000,-1.000000,1530639091.889697,
1530639091.907851,0.003144,0.180937,-1.248913,-0.002457,-0.012069,0.072156,0.003092,-0.179951,-0.983671,0.013067,-0.005641,-0.044696,6.260019,12.533913,-44.273026,,,,,,,
1530639091.927820,0.003001,0.180930,-1.247261,0.006809,0.016488,0.092690,0.002952,-0.179945,-0.983672,0.019951,-0.005266,-0.060044,6.150263,12.429573,-44.412094,,,,,,,
1530639091.947788,0.003141,0.181702,-1.245161,0.061163,0.036195,0.113774,0.003089,-0.180704,-0.983533,0.027612,-0.006338,-0.060474,6.276499,12.295830,-44.461578,,,,,,,
1530639091.967757,0.003691,0.183627,-1.242664,0.113447,0.055925,0.131648,0.003629,-0.182597,-0.983181,0.028674,-0.005636,-0.040165,6.401056,12.031616,-44.437485,,,,,,,
1530639091.987726,0.004607,0.186210,-1.239770,0.134241,0.069017,0.153056,0.004527,-0.185135,-0.982702,0.035024,-0.009216,-0.008783,6.362711,12.073776,-44.484116,,,,,,,
1530639092.007695,0.004887,0.188790,-1.236437,0.123588,0.030235,0.174554,0.004800,-0.187670,-0.982220,0.038077,-0.008573,0.007184,6.503038,12.212509,-44.490051,,,,,,,
1530639092.027663,0.004429,0.190984,-1.232753,0.100407,0.002546,0.188688,0.004349,-0.189825,-0.981808,0.033097,0.001638,0.022198,6.632681,11.897697,-44.591492,,,,,,,
1530639092.047632,0.003585,0.192698,-1.229039,0.078459,-0.011739,0.180228,0.003518,-0.191508,-0.981485,0.029670,0.011287,0.022165,6.710855,11.623611,-44.569382,,,,,,,
1530639092.067601,0.002494,0.194117,-1.225424,0.065870,-0.030509,0.181352,0.002447,-0.192900,-0.981215,0.031794,0.018828,0.012374,6.806677,11.783546,-44.327454,,,,,,,
1530639092.087570,0.001312,0.195261,-1.221889,0.051254,-0.026030,0.172894,0.001287,-0.194022,-0.980996,0.024149,0.026298,0.010049,6.738894,11.712685,-44.632156,,,,,,,
1530639092.107538,0.000433,0.196159,-1.218583,0.042951,-0.012707,0.162268,0.000425,-0.194904,-0.980822,0.023226,0.034518,0.004458,6.635820,11.594635,-44.707870,,,,,,,
1530639092.127507,-0.000384,0.196779,-1.215465,0.027289,-0.015955,0.153785,-0.000376,-0.195512,-0.980701,0.021922,0.037904,-0.002117,6.625841,11.583267,-44.454590,,,,,,,
1530639092.147476,-0.001147,0.197101,-1.212507,0.010590,-0.016987,0.144255,-0.001125,-0.195828,-0.980638,0.014247,0.041454,0.002992,6.843374,11.619949,-44.582062,,,,,,,
1530639092.167445,-0.001951,0.196908,-1.209652,-0.016654,-0.013646,0.141324,-0.001913,-0.195638,-0.980674,0.008642,0.043737,0.015739,6.801836,11.671577,-44.504547,,,,,,,
1530639092.187414,-0.002673,0.196360,-1.206955,-0.028093,-0.013561,0.129584,-0.002622,-0.195101,-0.980780,0.004224,0.043596,0.021810,6.889105,11.460136,-44.729492,,,,,,,
1530639092.207382,-0.003561,0.195396,-1.204464,-0.052141,-0.026742,0.121147,-0.003493,-0.194155,-0.980965,0.003523,0.042772,0.022621,6.896349,11.542725,-44.686661,,,,,,,
,,,,,,,,,,,,,,,,39.779336,-84.063576,291.748535,-1.000000,-1.000000,1530639092.163763,
1530639092.227351,-0.004508,0.194190,-1.202151,-0.060444,-0.016731,0.110502,-0.004423,-0.192971,-0.981194,-0.002230,0.044046,0.016122,6.895876,11.896690,-44.652283,,,,,,,
1530639092.247320,-0.005208,0.192825,-1.200073,-0.065645,-0.014484,0.105174,-0.005111,-0.191632,-0.981453,-0.003373,0.039441,0.014260,6.813307,11.703712,-44.898773,,,,,,,
1530639092.267289,-0.006066,0.191399,-1.198035,-0.069804,-0.026596,0.100843,-0.005956,-0.190233,-0.981721,-0.007426,0.033433,0.014695,6.963545,11.472321,-44.821487,,,,,,,
1530639092.287257,-0.007071,0.189904,-1.196012,-0.072947,-0.032115,0.100853,-0.006944,-0.188765,-0.981998,-0.007369,0.029433,0.011035,6.780588,11.567619,-44.821564,,,,,,,
1530639092.307226,-0.007796,0.188465,-1.194064,-0.064537,-0.005601,0.097656,-0.007658,-0.187351,-0.982263,-0.011095,0.021580,0.007715,6.739458,11.719040,-44.800781,,,,,,,
1530639092.327195,-0.008225,0.187245,-1.192038,-0.055162,-0.001240,0.105123,-0.008081,-0.186152,-0.982487,-0.006552,0.012446,0.008015,6.958632,11.704506,-44.746841,,,,,,,
1530639092.347164,-0.008765,0.186152,-1.189904,-0.048887,-0.005672,0.107191,-0.008614,-0.185079,-0.982686,-0.000785,0.005574,0.005360,6.890966,11.597145,-44.906143,,,,,,,
1530639092.367132,-0.009669,0.185193,-1.187685,-0.042620,-0.034405,0.111304,-0.009504,-0.184136,-0.982855,0.001722,-0.002815,-0.002466,6.886644,11.819511,-44.868484,,,,,,,
1530639092.387101,-0.011051,0.184245,-1.185485,-0.045763,-0.056481,0.111228,-0.010863,-0.183204,-0.983015,0.000060,-0.010460,-0.016360,6.861883,11.833954,-44.834229,,,,,,,
1530639092.407070,-0.012791,0.183299,-1.183347,-0.043608,-0.070788,0.104668,-0.012576,-0.182274,-0.983167,0.003742,-0.014305,-0.025988,6.726709,12.083488,-44.731506,,,,,,,
1530639092.427039,-0.014469,0.182407,-1.181372,-0.042491,-0.063001,0.096064,-0.014228,-0.181397,-0.983307,0.002647,-0.018691,-0.039734,6.794760,11.981537,-44.821274,,,,,,,
1530639092.447008,-0.015708,0.181562,-1.179590,-0.040302,-0.038634,0.084297,-0.015449,-0.180567,-0.983441,0.000694,-0.023596,-0.038089,6.765398,12.234703,-44.867905,,,,,,,
1530639092.466976,-0.016352,0.180887,-1.178129,-0.024491,-0.009863,0.073479,-0.016084,-0.179902,-0.983553,0.003572,-0.029494,-0.034758,6.615129,12.074173,-44.822800,,,,,,,
1530639092.486945,-0.016936,0.180612,-1.176659,-0.004553,-0.025315,0.072111,-0.016659,-0.179632,-0.983593,0.001660,-0.034800,-0.023533,6.647585,12.052124,-44.736145,,,,,,,
1530639092.506914,-0.017688,0.180683,-1.175293,0.010149,-0.030823,0.069772,-0.017399,-0.179702,-0.983567,0.005116,-0.037843,-0.020858,6.749193,12.185051,-44.604065,,,,,,,
1530639092.526883,-0.018681,0.181188,-1.173978,0.035365,-0.033000,0.064102,-0.018374,-0.180198,-0.983458,0.005084,-0.039818,-0.019929,6.609003,12.212471,-45.104141,,,,,,,
1530639092.546851,-0.019364,0.182218,-1.172784,0.064779,-0.015301,0.057404,-0.019043,-0.181211,-0.983260,0.006408,-0.036257,-0.027391,6.688349,11.909714,-44.876709,,,,,,,
1530639092.566820,-0.019486,0.183836,-1.171817,0.086873,0.014566,0.047602,-0.019157,-0.182802,-0.982963,0.008628,-0.032393,-0.022561,6.637796,12.027428,-44.871658,,,,,,,
1530639092.586789,-0.019120,0.185813,-1.170948,0.106828,0.039980,0.043197,-0.018789,-0.184746,-0.982607,0.016638,-0.032356,-0.021742,6.822817,11.645691,-44.804108,,,,,,,
1530639092.606758,-0.018180,0.188523,-1.169941,0.158132,0.064185,0.052473,-0.017857,-0.187408,-0.982120,0.023823,-0.031983,-0.025006,6.994699,11.439011,-44.861786,,,,,,,
1530639092.626727,-0.017148,0.192534,-1.168621,0.226135,0.057403,0.072206,-0.016831,-0.191347,-0.981378,0.033142,-0.031599,-0.028906,6.928167,11.432251,-45.154694,,,,,,,
1530639092.646695,-0.016657,0.197422,-1.166673,0.247884,0.036185,0.106387,-0.016333,-0.196142,-0.980439,0.037924,-0.026972,-0.027587,6.915529,11.222870,-44.960510,,,,,,,
1530639092.666664,-0.016398,0.201836,-1.164135,0.203623,0.047056,0.132798,-0.016064,-0.200468,-0.979568,0.038129,-0.022112,-0.017121,6.849817,11.157997,-45.128830,,,,,,,
1530639092.686633,-0.015633,0.205259,-1.161183,0.159415,0.076745,0.151739,-0.015304,-0.203820,-0.978888,0.035949,-0.017737,-0.013467,6.862635,11.117905,-45.062073,,,,,,,
1530639092.706602,-0.014379,0.208506,-1.157754,0.174940,0.103063,0.176511,-0.014067,-0.206998,-0.978240,0.040373,-0.012103,-0.014558,7.089319,10.893074,-44.858261,,,,,,,
1530639092.726570,-0.012933,0.212783,-1.153900,0.245045,0.115053,0.195235,-0.012641,-0.211181,-0.977365,0.039405,-0.008164,-0.011786,7.291239,10.734886,-45.161850,,,,,,,
1530639092.746539,-0.011520,0.218221,-1.149690,0.283719,0.111620,0.210985,-0.011246,-0.216493,-0.976219,0.040269,-0.005019,-0.001167,7.419779,10.485481,-45.279236,,,,,,,
1530639092.766508,-0.010322,0.223570,-1.145124,0.256311,0.109300,0.228521,-0.010065,-0.221712,-0.975060,0.043558,-0.006254,0.007103,7.497190,10.267365,-45.261017,,,,,,,
1530639092.786477,-0.008933,0.227963,-1.140261,0.204765,0.126848,0.247484,-0.008702,-0.225994,-0.974090,0.040044,-0.004414,0.008346,7.643160,10.000992,-45.415924,,,,,,,
1530639092.806446,-0.007677,0.231612,-1.134801,0.177247,0.116704,0.279010,-0.007472,-0.229547,-0.973269,0.037394,-0.003821,0.003557,7.862795,9.763237,-45.482590,,,,,,,
1530639092.826414,-0.006970,0.234957,-1.128708,0.164412,0.092206,0.310304,-0.006779,-0.232801,-0.972501,0.039814,-0.001757,0.003018,7.929430,9.471550,-45.391464,,,,,,,
1530639092.846383,-0.006804,0.237813,-1.121983,0.131667,0.077662,0.339704,-0.006613,-0.235578,-0.971833,0.034155,0.001203,0.007966,8.157892,9.252441,-45.468781,,,,,,,
1530639092.866352,-0.006840,0.240013,-1.114840,0.102152,0.078647,0.358358,-0.006644,-0.237715,-0.971312,0.029242,0.002882,0.005034,8.204332,9.382507,-45.321167,,,,,,,
1530639092.886321,-0.007219,0.241692,-1.107304,0.078972,0.058686,0.372533,-0.007009,-0.239346,-0.970909,0.027822,0.007733,0.002662,8.224760,9.206398,-45.502808,,,,,,,
1530639092.906290,-0.008051,0.242753,-1.099638,0.043272,0.042099,0.378222,-0.007815,-0.240376,-0.970648,0.020754,0.013966,-0.002008,8.540541,8.791611,-45.305496,,,,,,,
1530639092.926258,-0.008847,0.243162,-1.091818,0.014882,0.060813,0.387246,-0.008587,-0.240772,-0.970543,0.012890,0.014729,-0.000938,8.671911,8.732285,-45.487305,,,,,,,
1530639092.946227,-0.009052,0.243216,-1.083870,0.004361,0.091702,0.390742,-0.008785,-0.240826,-0.970528,0.004009,0.015560,0.009026,8.753965,8.893929,-45.774872,,,,,,,
1530639092.966196,-0.009076,0.243230,-1.075735,0.004263,0.089412,0.402593,-0.008809,-0.240839,-0.970525,-0.001368,0.013910,0.019002,8.843306,9.029747,-45.715195,,,,,,,
1530639092.986165,-0.009358,0.243083,-1.067335,-0.006320,0.080502,0.414525,-0.009083,-0.240696,-0.970558,-0.006603,0.011677,0.028999,8.810858,9.007164,-45.422180,,,,,,,
1530639093.006134,-0.009992,0.242583,-1.058871,-0.031469,0.063965,0.412555,-0.009699,-0.240211,-0.970672,-0.012746,0.011985,0.031112,9.117361,8.786942,-45.625107,,,,,,,
1530639093.026103,-0.010615,0.241378,-1.050476,-0.069198,0.070620,0.409756,-0.010307,-0.239041,-0.970954,-0.020165,0.009381,0.031837,9.366640,8.446663,-45.342194,,,,,,,
1530639093.046071,-0.011053,0.239308,-1.042262,-0.115229,0.081767,0.396286,-0.010738,-0.237031,-0.971442,-0.035008,0.005204,0.039344,9.391584,8.883896,-45.599396,,,,,,,
1530639093.066040,-0.010981,0.236264,-1.034240,-0.168733,0.110474,0.398069,-0.010676,-0.234072,-0.972160,-0.030599,-0.000608,0.047356,9.481226,8.809166,-45.506287,,,,,,,
1530639093.086009,-0.010606,0.232441,-1.026225,-0.190716,0.119348,0.392952,-0.010321,-0.230354,-0.973052,-0.032068,-0.006905,0.041976,9.700304,8.931740,-45.335144,,,,,,,
1530639093.105978,-0.010153,0.228941,-1.018332,-0.157120,0.113850,0.388252,-0.009888,-0.226946,-0.973857,-0.026626,-0.010405,0.020396,9.779802,8.905975,-45.221802,,,,,,,
1530639093.125947,-0.009939,0.226465,-1.010350,-0.101610,0.101626,0.397311,-0.009685,-0.224534,-0.974418,-0.022572,-0.018890,0.012016,9.943411,9.077347,-45.464066,,,,,,,
1530639093.145915,-0.009972,0.224713,-1.002016,-0.083948,0.092649,0.417569,-0.009721,-0.222826,-0.974809,-0.018889,-0.025312,0.020128,10.097898,9.064133,-45.411636,,,,,,,
1530639093.165884,-0.010060,0.222647,-0.993352,-0.116592,0.095857,0.434109,-0.009812,-0.220812,-0.975267,-0.018066,-0.030958,0.021669,10.254576,9.119598,-45.250748,,,,,,,
1530639093.185853,-0.010557,0.219588,-0.984318,-0.172324,0.064828,0.453972,-0.010303,-0.217827,-0.975933,-0.013973,-0.038063,0.009853,10.195299,9.485031,-45.250931,,,,,,,
1530639093.205822,-0.011772,0.215625,-0.974978,-0.204935,0.034942,0.467115,-0.011499,-0.213958,-0.976775,-0.012518,-0.032380,-0.005021,10.431944,9.354340,-45.333069,,,,,,,
1530639093.225791,-0.013367,0.211449,-0.965465,-0.209172,0.021660,0.472487,-0.013069,-0.209877,-0.977640,-0.013374,-0.025642,-0.009771,10.485167,9.529831,-45.273010,,,,,,,
1530639093.245760,-0.014755,0.207214,-0.955828,-0.212403,0.041463,0.482322,-0.014438,-0.205735,-0.978501,-0.019711,-0.025878,0.002213,10.582922,9.680733,-45.256958,,,,,,,
1530639093.265728,-0.015604,0.203212,-0.946104,-0.187255,0.066831,0.484336,-0.015283,-0.201816,-0.979304,-0.022346,-0.026120,0.004664,10.922579,9.696388,-45.277748,,,,,,,
1530639093.285697,-0.016114,0.200059,-0.936323,-0.136952,0.076723,0.488163,-0.015792,-0.198727,-0.979927,-0.018769,-0.025074,0.009057,11.084955,9.692200,-45.201515,,,,,,,
1530639093.305666,-0.016582,0.197838,-0.926433,-0.091935,0.076645,0.497389,-0.016258,-0.196550,-0.980359,-0.014702,-0.023817,0.011761,11.210909,9.738976,-45.108940,,,,,,,
1530639093.325635,-0.017215,0.196256,-0.916399,-0.064675,0.065592,0.498120,-0.016884,-0.194999,-0.980658,-0.011223,-0.018167,0.001257,11.411463,9.608902,-45.352425,,,,,,,
1530639093.345604,-0.017653,0.194984,-0.906347,-0.057332,0.094298,0.497101,-0.017318,-0.193750,-0.980898,-0.005860,-0.016897,0.003893,11.559481,9.897392,-45.287163,,,,,,,
1530639093.365573,-0.017123,0.193797,-0.896360,-0.053149,0.143972,0.497296,-0.016801,-0.192586,-0.981136,0.000352,-0.019359,0.002041,11.835707,9.691986,-45.089867,,,,,,,
1530639093.385541,-0.015965,0.192982,-0.886295,-0.025927,0.151655,0.502437,-0.015668,-0.191786,-0.981311,0.010129,-0.026536,-0.011868,11.977858,9.868385,-44.977501,,,,,,,
1530639093.405510,-0.015392,0.192718,-0.876090,0.000268,0.108567,0.506264,-0.015106,-0.191527,-0.981371,0.011627,-0.027909,-0.020384,12.103514,9.599358,-45.039024,,,,,,,
1530639093.425479,-0.015259,0.192331,-0.866007,-0.033190,0.111977,0.493691,-0.014977,-0.191148,-0.981447,0.003868,-0.024184,-0.005736,12.176592,9.403564,-45.047829,,,,,,,
1530639093.445448,-0.014447,0.190659,-0.856446,-0.107404,0.148640,0.463385,-0.014185,-0.189506,-0.981777,-0.003454,-0.030419,0.006618,12.434553,9.471443,-44.998161,,,,,,,
1530639093.465417,-0.012401,0.187860,-0.847554,-0.147016,0.207372,0.432814,-0.012183,-0.186757,-0.982330,-0.003824,-0.038143,0.014359,12.905329,9.490410,-44.708168,,,,,,,
1530639093.485386,-0.009590,0.185208,-0.839305,-0.114269,0.215292,0.403382,-0.009426,-0.184151,-0.982853,-0.006519,-0.045784,0.010929,12.924543,9.805038,-44.793892,,,,,,,
1530639093.505354,-0.006994,0.183786,-0.831420,-0.044932,0.192190,0.388510,-0.006876,-0.182753,-0.983135,-0.009710,-0.058809,0.012294,13.209909,9.568481,-44.755074,,,,,,,
1530639093.525323,-0.004984,0.183498,-0.823744,-0.004993,0.166858,0.378257,-0.004900,-0.182470,-0.983199,-0.016386,-0.065165,0.011214,13.532640,9.468040,-44.535866,,,,,,,
1530639093.545292,-0.002794,0.183557,-0.816093,0.000200,0.194416,0.383726,-0.002747,-0.182528,-0.983197,-0.015883,-0.069227,0.007870,13.661215,9.469940,-44.333076,,,,,,,
1530639093.565261,0.000080,0.183778,-0.808258,0.013745,0.236293,0.393492,0.000079,-0.182746,-0.983160,-0.021563,-0.075631,-0.007776,13.868322,9.688072,-44.304375,,,,,,,
1530639093.585230,0.003812,0.184699,-0.800225,0.056604,0.268183,0.409366,0.003747,-0.183651,-0.982984,-0.019143,-0.080265,-0.018175,14.122595,9.181084,-44.140358,,,,,,,
1530639093.605199,0.007274,0.186787,-0.791720,0.118302,0.242621,0.431233,0.007148,-0.185703,-0.982580,-0.013129,-0.084133,-0.029917,14.424883,9.143669,-44.427132,,,,,,,
1530639093.625167,0.010101,0.189991,-0.782864,0.170611,0.225938,0.446771,0.009919,-0.188850,-0.981956,-0.010056,-0.078194,-0.040078,14.716269,9.074799,-44.405495,,,,,,,
1530639093.645136,0.012978,0.194247,-0.773750,0.219803,0.237986,0.458169,0.012734,-0.193028,-0.981110,-0.010140,-0.066906,-0.054122,15.193207,8.658142,-44.200722,,,,,,,
1530639093.665105,0.015770,0.199100,-0.764486,0.236533,0.231314,0.464431,0.015458,-0.197787,-0.980123,-0.006516,-0.059064,-0.060771,15.373650,8.401482,-44.163399,,,,,,,
1530639093.685074,0.018255,0.203953,-0.755272,0.229215,0.204837,0.462224,0.017876,-0.202542,-0.979110,-0.012444,-0.047931,-0.070710,15.732483,7.961052,-44.182976,,,,,,,
1530639093.705043,0.019792,0.208571,-0.746130,0.213565,0.156330,0.453526,0.019362,-0.207062,-0.978136,-0.018172,-0.041367,-0.075758,15.720890,7.900528,-43.976891,,,,,,,
1530639093.725012,0.020414,0.212682,-0.737237,0.186416,0.105648,0.440631,0.019952,-0.211082,-0.977264,-0.026910,-0.032326,-0.073349,16.001293,7.529594,-44.365181,,,,,,,
1530639093.744980,0.020090,0.216133,-0.728810,0.147904,0.058430,0.406301,0.019621,-0.214454,-0.976537,-0.042952,-0.014443,-0.061229,15.971855,7.678635,-44.294975,,,,,,,
1530639093.764949,0.019488,0.218587,-0.721516,0.093934,0.044570,0.337782,0.019023,-0.216851,-0.976019,-0.058726,0.003853,-0.030680,16.137947,7.202225,-44.121727,,,,,,,
1530639093.784918,0.019068,0.219920,-0.715906,0.044349,0.047432,0.245571,0.018608,-0.218152,-0.975737,-0.076515,0.024243,0.008025,16.271225,6.987450,-44.181297,,,,,,,
1530639093.804887,0.019013,0.220447,-0.712445,0.006478,0.038298,0.131606,0.018552,-0.218665,-0.975623,-0.099927,0.026969,0.051780,16.395145,6.824669,-44.112846,,,,,,,
1530639093.824856,0.019972,0.220059,-0.711617,-0.030221,0.082261,0.001713,0.019489,-0.218287,-0.975690,-0.107029,0.026988,0.095822,16.507168,7.179314,-44.223839,,,,,,,
1530639093.844825,0.021992,0.218866,-0.713007,-0.078586,0.098518,-0.112018,0.021465,-0.217123,-0.975908,-0.119686,0.036352,0.120622,16.576775,7.180817,-44.173714,,,,,,,
1530639093.864793,0.025224,0.216300,-0.717052,-0.147798,0.150217,-0.241526,0.024633,-0.214618,-0.976387,-0.118505,0.026568,0.121834,16.552048,7.318878,-44.319771,,,,,,,
1530639093.884762,0.030277,0.212556,-0.723273,-0.187929,0.221547,-0.337829,0.029591,-0.210959,-0.977047,-0.114521,0.031211,0.096691,16.765110,7.642670,-44.054237,,,,,,,
1530639093.904731,0.036889,0.208711,-0.731346,-0.169353,0.265235,-0.430564,0.036080,-0.207199,-0.977633,-0.093468,0.044540,0.047396,16.980968,7.869308,-43.850639,,,,,,,
1530639093.924700,0.044494,0.205547,-0.741142,-0.117431,0.299904,-0.497826,0.043543,-0.204103,-0.977980,-0.060725,0.041246,0.001525,17.050827,8.347923,-43.738548,,,,,,,
1530639093.944669,0.053591,0.203608,-0.751857,-0.040599,0.380714,-0.533843,0.052459,-0.202204,-0.977937,-0.052123,0.040538,-0.036956,17.311085,8.423363,-43.680946,,,,,,,
1530639093.964638,0.064260,0.203515,-0.763143,0.071741,0.445934,-0.551985,0.062890,-0.202113,-0.977340,-0.037225,0.032939,-0.075974,17.499741,8.697823,-43.509285,,,,,,,
1530639093.984607,0.075704,0.205430,-0.774856,0.163033,0.462514,-0.559346,0.074041,-0.203988,-0.976169,-0.023855,0.025720,-0.071087,17.749733,8.650558,-43.233589,,,,,,,
1530639094.004575,0.086062,0.207704,-0.785989,0.145830,0.383770,-0.505622,0.084108,-0.206213,-0.974885,-0.010179,0.004477,-0.040343,18.040325,8.804626,-43.237495,,,,,,,
1530639094.024544,0.094425,0.208468,-0.795567,0.040336,0.297149,-0.426178,0.092243,-0.206962,-0.973990,-0.012730,-0.005853,0.007575,18.182816,8.739868,-43.136833,,,,,,,
1530639094.044513,0.100376,0.206650,-0.802920,-0.102049,0.197135,-0.323764,0.098075,-0.205182,-0.973797,-0.004691,-0.006701,0.030483,18.357151,8.756874,-42.972435,,,,,,,
1530639094.064482,0.104172,0.202754,-0.808239,-0.191860,0.121512,-0.239045,0.101854,-0.201367,-0.974206,-0.004686,-0.005878,0.017327,18.405411,9.113693,-42.852867,,,,,,,
1530639094.084451,0.106663,0.198282,-0.811707,-0.206116,0.074616,-0.161466,0.104375,-0.196986,-0.974834,-0.013432,0.005579,-0.011997,18.516171,9.368164,-42.665306,,,,,,,
1530639094.104420,0.107674,0.194146,-0.814023,-0.184469,0.001418,-0.113514,0.105447,-0.192928,-0.975530,-0.017709,0.018719,-0.029124,18.425663,9.792107,-42.484810,,,,,,,
1530639094.124389,0.107405,0.191240,-0.816064,-0.105829,-0.046091,-0.111351,0.105244,-0.190076,-0.976112,-0.022801,0.024579,-0.038811,18.432144,9.755325,-42.585609,,,,,,,
1530639094.144357,0.106544,0.190307,-0.818728,0.002437,-0.075721,-0.141767,0.104423,-0.189160,-0.976378,-0.026451,0.033902,-0.044069,18.339371,9.764648,-42.923286,,,,,,,
1530639094.164326,0.105579,0.190376,-0.822295,0.016404,-0.072130,-0.182883,0.103479,-0.189228,-0.976465,-0.027673,0.032764,-0.027945,18.264008,10.031723,-42.829552,,,,,,,
1530639094.184295,0.105614,0.189547,-0.826550,-0.043081,-0.013348,-0.219713,0.103529,-0.188414,-0.976617,-0.028593,0.030913,-0.009879,18.122318,10.079140,-42.812477,,,,,,,
1530639094.204264,0.106770,0.187905,-0.831198,-0.053446,0.026506,-0.235588,0.104692,-0.186802,-0.976803,-0.019120,0.026691,-0.017948,18.179764,10.246162,-42.678261,,,,,,,
1530639094.224233,0.108164,0.186968,-0.836090,0.010561,0.032039,-0.240558,0.106072,-0.185881,-0.976830,-0.007393,0.023558,-0.021202,18.229801,10.251480,-42.705788,,,,,,,
1530639094.244202,0.109922,0.187749,-0.841091,0.103799,0.055115,-0.229575,0.107773,-0.186648,-0.976497,0.000977,0.023959,-0.018086,18.017078,10.416046,-42.697289,,,,,,,
1530639094.264170,0.112163,0.190326,-0.845996,0.186494,0.085876,-0.211973,0.109907,-0.189180,-0.975772,0.013430,0.019776,-0.021359,18.135910,10.394829,-42.560463,,,,,,,
1530639094.284139,0.115183,0.194152,-0.850547,0.231339,0.130922,-0.183120,0.112769,-0.192935,-0.974710,0.017221,0.015399,-0.023032,18.130642,10.333305,-42.423012,,,,,,,
1530639094.304108,0.119442,0.198313,-0.854573,0.233176,0.207984,-0.152561,0.116823,-0.197015,-0.973415,0.026656,0.017130,-0.029240,18.347897,9.995903,-42.616325,,,,,,,
1530639094.324077,0.124686,0.202408,-0.858031,0.222530,0.243184,-0.133944,0.121825,-0.201029,-0.971980,0.029527,0.022989,-0.033040,18.537968,9.774216,-42.663124,,,,,,,
1530639094.344046,0.130159,0.205648,-0.861329,0.156465,0.245416,-0.134310,0.127057,-0.204202,-0.970648,0.038119,0.021111,-0.007318,18.674519,9.562363,-42.489510,,,,,,,
1530639094.364015,0.135739,0.207247,-0.864615,0.072689,0.243334,-0.148525,0.132427,-0.205767,-0.969599,0.043919,0.023623,0.005137,18.910564,9.640533,-42.349670,,,,,,,
1530639094.383984,0.140884,0.207486,-0.868123,0.025703,0.212609,-0.172983,0.137407,-0.206000,-0.968856,0.049392,0.026542,-0.005845,19.209068,9.604897,-42.267975,,,,,,,
1530639094.403952,0.145721,0.207520,-0.871994,0.034194,0.201650,-0.184986,0.142090,-0.206034,-0.968173,0.050903,0.026392,-0.010876,19.240723,9.762161,-42.181107,,,,,,,
1530639094.423921,0.150431,0.207750,-0.876116,0.044771,0.187372,-0.195956,0.146642,-0.206259,-0.967446,0.048564,0.027716,-0.006003,19.304077,9.887505,-42.230453,,,,,,,
1530639094.443890,0.154834,0.207663,-0.880478,0.017605,0.165383,-0.207638,0.150903,-0.206174,-0.966809,0.051718,0.028638,0.005063,19.372753,10.023918,-42.144577,,,,,,,
1530639094.463859,0.158540,0.207037,-0.884792,-0.007607,0.124501,-0.201093,0.154505,-0.205561,-0.966370,0.052221,0.029459,-0.000625,19.455467,10.050316,-42.018921,,,,,,,
1530639094.483828,0.161688,0.205894,-0.888783,-0.030746,0.112305,-0.192276,0.157585,-0.204443,-0.966110,0.044411,0.030676,-0.011185,19.601681,9.972816,-42.085419,,,,,,,
1530639094.503797,0.164947,0.204596,-0.892544,-0.031905,0.134293,-0.179214,0.160776,-0.203172,-0.965853,0.036017,0.035097,-0.015684,19.599953,10.267685,-41.778534,,,,,,,
1530639094.523766,0.168360,0.203379,-0.895921,-0.032098,0.130817,-0.155502,0.164112,-0.201980,-0.965541,0.033474,0.032379,-0.011097,19.764610,10.316025,-41.913589,,,,,,,
1530639094.543734,0.171548,0.202037,-0.898793,-0.047996,0.122953,-0.134880,0.167235,-0.200665,-0.965280,0.025697,0.029889,0.006005,19.882591,10.203484,-41.428383,,,,,,,
1530639094.563703,0.174169,0.200358,-0.901100,-0.064981,0.091869,-0.108969,0.169823,-0.199020,-0.965168,0.020362,0.029907,0.012486,19.921272,10.353317,-41.656807,,,,,,,
1530639094.583672,0.175829,0.198609,-0.902844,-0.067284,0.047528,-0.082186,0.171486,-0.197305,-0.965226,0.009529,0.032282,0.007234,19.932571,10.465919,-41.889481,,,,,,,
1530639094.603641,0.176696,0.196981,-0.904082,-0.069537,0.028628,-0.062844,0.172379,-0.195710,-0.965392,-0.000687,0.033249,-0.001389,19.951069,10.130219,-41.703094,,,,,,,
1530639094.623610,0.177640,0.195379,-0.905151,-0.068543,0.038518,-0.056335,0.173345,-0.194138,-0.965536,-0.011953,0.031144,-0.006631,19.922318,10.480667,-41.851929,,,,,,,
1530639094.643579,0.178840,0.193734,-0.906265,-0.070615,0.050684,-0.059487,0.174560,-0.192524,-0.965641,-0.017822,0.027012,-0.002346,19.990360,10.741020,-41.532387,,,,,,,
1530639094.663548,0.179769,0.192115,-0.907419,-0.063228,0.027538,-0.065077,0.175513,-0.190935,-0.965784,-0.022956,0.018633,-0.001975,20.101032,10.988464,-41.484238,,,,,,,
1530639094.683517,0.180343,0.190734,-0.908839,-0.047359,0.009984,-0.081506,0.176114,-0.189580,-0.965941,-0.029508,0.017415,0.003539,19.961098,11.044983,-41.608818,,,,,,,
1530639094.703485,0.180875,0.189547,-0.910829,-0.033481,0.020124,-0.111802,0.176668,-0.188414,-0.966068,-0.032915,0.015395,0.003788,19.959511,11.362389,-41.386086,,,,,,,
1530639094.723454,0.182346,0.188672,-0.913539,-0.008054,0.074439,-0.145250,0.178119,-0.187555,-0.965969,-0.033390,0.013208,0.012966,19.974022,11.317886,-41.613594,,,,,,,
1530639094.743423,0.184911,0.188126,-0.916898,0.011007,0.115442,-0.168983,0.180615,-0.187019,-0.965609,-0.027692,0.003089,0.018649,20.055840,11.274841,-41.458649,,,,,,,
1530639094.763392,0.187854,0.188043,-0.920589,0.044603,0.114359,-0.173660,0.183459,-0.186937,-0.965089,-0.011706,-0.006331,0.006700,20.086605,11.204346,-41.382896,,,,,,,
1530639094.783361,0.190565,0.188545,-0.924515,0.069839,0.096743,-0.181564,0.186056,-0.187429,-0.964496,0.004679,-0.001764,-0.008603,20.088177,11.337143,-41.305786,,,,,,,
1530639094.803330,0.193263,0.188887,-0.928576,0.040548,0.114480,-0.190873,0.188646,-0.187766,-0.963927,0.016005,-0.002786,-0.013124,20.150398,11.133461,-41.070038,,,,,,,
1530639094.823299,0.196454,0.188478,-0.932537,0.006949,0.136536,-0.186092,0.191736,-0.187364,-0.963396,0.024970,-0.000456,-0.039259,20.211277,11.401482,-41.262825,,,,,,,
1530639094.843267,0.199922,0.187947,-0.936207,0.013107,0.147461,-0.169927,0.195095,-0.186842,-0.962822,0.028110,0.002608,-0.056434,20.285362,11.378288,-41.138298,,,,,,,
1530639094.863236,0.203582,0.187934,-0.939462,0.043274,0.154972,-0.140012,0.198619,-0.186830,-0.962104,0.041555,0.009522,-0.054314,20.406788,11.593613,-41.039360,,,,,,,
1530639094.883205,0.207425,0.188889,-0.942115,0.089045,0.174517,-0.095109,0.202278,-0.187768,-0.961159,0.054421,0.008340,-0.041313,20.423912,11.571007,-41.032639,,,,,,,
1530639094.903174,0.211484,0.190717,-0.943957,0.113797,0.192926,-0.044594,0.206105,-0.189563,-0.959992,0.060558,0.008227,-0.028106,20.748451,11.330521,-40.983070,,,,,,,
1530639094.923143,0.215612,0.192959,-0.944700,0.119579,0.193596,0.017902,0.209975,-0.191763,-0.958716,0.061693,0.009665,-0.028787,20.952991,11.363472,-41.104668,,,,,,,
1530639094.943112,0.218648,0.195682,-0.944120,0.132615,0.119110,0.092899,0.212770,-0.194436,-0.957561,0.073378,0.015313,-0.050267,21.126053,11.050369,-41.037720,,,,,,,
1530639094.963081,0.219304,0.199128,-0.942295,0.154145,0.013796,0.155792,0.213251,-0.197814,-0.956761,0.075644,0.029464,-0.057490,20.991093,11.052589,-40.934364,,,,,,,
1530639094.983050,0.217905,0.202766,-0.939353,0.140161,-0.065993,0.200854,0.211756,-0.201380,-0.956350,0.066183,0.037378,-0.069575,21.150375,10.735558,-40.986565,,,,,,,
1530639095.003019,0.215139,0.205802,-0.935671,0.085453,-0.120226,0.223823,0.208978,-0.204352,-0.956330,0.053702,0.038504,-0.062179,21.088531,10.647789,-41.143661,,,,,,,
1530639095.022987,0.211054,0.207516,-0.931302,0.008772,-0.189870,0.241565,0.204996,-0.206030,-0.956832,0.044486,0.037207,-0.051942,20.818008,10.578323,-41.579811,,,,,,,
1530639095.042956,0.205160,0.207791,-0.926322,-0.062609,-0.283756,0.252658,0.199341,-0.206299,-0.957968,0.025711,0.039734,-0.043817,20.710831,10.726234,-41.443069,,,,,,,
1530639095.062925,0.197414,0.206913,-0.920955,-0.109832,-0.356638,0.258197,0.191950,-0.205439,-0.959661,0.005697,0.042063,-0.034861,20.574375,10.554253,-41.487816,,,,,,,
1530639095.082894,0.189181,0.205359,-0.915581,-0.133874,-0.347733,0.248794,0.184103,-0.203919,-0.961521,-0.014425,0.042343,-0.018567,20.289978,10.687187,-41.833405,,,,,,,
1530639095.102863,0.182340,0.203469,-0.910276,-0.141212,-0.251672,0.246099,0.177590,-0.202068,-0.963135,-0.030206,0.034206,0.023453,20.080177,10.902397,-41.822769,,,,,,,
1530639095.122832,0.178134,0.201506,-0.905451,-0.132507,-0.132164,0.204522,0.173608,-0.200145,-0.964262,-0.050912,0.028590,0.060011,20.052162,10.905121,-41.652748,,,,,,,
1530639095.142801,0.174721,0.199777,-0.900909,-0.109600,-0.141143,0.224726,0.170376,-0.198451,-0.965188,-0.022533,0.005443,0.073205,20.109459,10.756645,-41.812317,,,,,,,
1530639095.162770,0.169730,0.198951,-0.896464,-0.050734,-0.234890,0.209624,0.165584,-0.197642,-0.966188,-0.026165,-0.005346,0.068345,19.907558,10.543961,-41.796707,,,,,,,
1530639095.182739,0.163990,0.199510,-0.892274,0.019467,-0.255941,0.217402,0.160018,-0.198190,-0.967013,-0.016707,0.001565,0.052905,19.716854,10.698547,-41.814743,,,,,,,
1530639095.202707,0.158500,0.201200,-0.888111,0.068734,-0.215126,0.219235,0.154653,-0.199845,-0.967545,-0.005223,0.002472,0.037705,19.564342,10.614281,-41.941376,,,,,,,
1530639095.222676,0.154108,0.203705,-0.884119,0.100143,-0.154450,0.223500,0.150325,-0.202300,-0.967717,0.009266,-0.004564,0.016927,19.666759,10.423904,-41.977341,,,,,,,
1530639095.242645,0.150742,0.206493,-0.879922,0.110507,-0.101563,0.237672,0.146982,-0.205029,-0.967656,0.023017,-0.007572,-0.003794,19.562115,10.254494,-42.277344,,,,,,,
1530639095.262614,0.148502,0.209438,-0.875389,0.111402,-0.049800,0.255167,0.144723,-0.207910,-0.967382,0.037665,-0.004904,-0.023005,19.531277,10.051025,-42.189087,,,,,,,
1530639095.282583,0.146504,0.212219,-0.870457,0.096594,-0.049901,0.270420,0.142705,-0.210630,-0.967093,0.040919,-0.005969,-0.029168,19.438690,9.981911,-42.173203,,,,,,,
1530639095.302552,0.144254,0.214389,-0.865179,0.050373,-0.062099,0.280561,0.140463,-0.212751,-0.966957,0.035639,-0.007617,-0.012611,19.321472,9.797462,-42.299454,,,,,,,
1530639095.322521,0.141665,0.215291,-0.859567,-0.024120,-0.080876,0.285577,0.137932,-0.213632,-0.967127,0.027977,-0.005622,0.013438,19.434185,9.759087,-42.246872,,,,,,,
1530639095.342490,0.138817,0.214686,-0.854204,-0.084646,-0.085022,0.249536,0.135195,-0.213040,-0.967644,0.006834,-0.006595,0.027138,19.412205,9.763351,-42.430664,,,,,,,
1530639095.362459,0.136107,0.213303,-0.848967,-0.112943,-0.092728,0.247644,0.132612,-0.211690,-0.968298,0.006502,-0.002391,0.035803,19.527294,9.424225,-42.323532,,,,,,,
1530639095.382428,0.133035,0.211452,-0.844325,-0.127260,-0.115600,0.203466,0.129688,-0.209880,-0.969087,-0.007618,-0.006673,0.050630,19.458794,9.520226,-42.403198,,,,,,,
1530639095.402396,0.129583,0.209503,-0.840630,-0.119448,-0.173719,0.147018,0.126395,-0.207973,-0.969933,-0.053183,0.001522,0.051018,19.349926,9.916473,-42.220734,,,,,,,
1530639095.422365,0.125851,0.208039,-0.837064,-0.081945,-0.143029,0.176967,0.122813,-0.206541,-0.970699,-0.001353,-0.025270,0.046047,19.240952,9.802704,-41.909393,,,,,,,
1530639095.442334,0.122392,0.206910,-0.834360,-0.075066,-0.140323,0.104643,0.119483,-0.205437,-0.971349,-0.020499,-0.009773,0.044423,19.216446,9.831062,-42.354111,,,,,,,
1530639095.462303,0.119667,0.205592,-0.832663,-0.076906,-0.102567,0.072495,0.116867,-0.204147,-0.971939,-0.019379,-0.019043,0.026291,19.098042,9.784889,-42.285294,,,,,,,
1530639095.482272,0.117503,0.204361,-0.831734,-0.063965,-0.091226,0.028188,0.114793,-0.202941,-0.972438,-0.016160,-0.027634,0.003582,18.908936,9.976204,-42.176376,,,,,,,
1530639095.502241,0.115843,0.203398,-0.831651,-0.046881,-0.082138,-0.009701,0.113201,-0.201998,-0.972821,-0.011547,-0.031202,-0.005938,18.875217,10.036095,-42.442459,,,,,,,
1530639095.522210,0.114320,0.202410,-0.832321,-0.056045,-0.084112,-0.043044,0.111742,-0.201031,-0.973190,-0.009691,-0.033024,-0.003387,18.909355,9.792236,-42.196762,,,,,,,
1530639095.542179,0.112693,0.200958,-0.833634,-0.075678,-0.098212,-0.078494,0.110192,-0.199608,-0.973660,-0.009926,-0.045357,-0.002506,18.723145,9.984329,-42.024429,,,,,,,
1530639095.562148,0.110511,0.199086,-0.835446,-0.096458,-0.142205,-0.101134,0.108108,-0.197773,-0.974268,-0.007873,-0.052593,-0.001044,18.639328,10.315071,-42.146927,,,,,,,
1530639095.582117,0.106975,0.196591,-0.837412,-0.131082,-0.237159,-0.096915,0.104715,-0.195327,-0.975131,0.000754,-0.073319,-0.009793,18.460449,10.436554,-42.260147,,,,,,,
1530639095.602086,0.102338,0.193797,-0.839763,-0.132824,-0.249003,-0.140091,0.100247,-0.192586,-0.976146,-0.013440,-0.049678,0.006541,18.200417,10.571175,-42.432343,,,,,,,
1530639095.622054,0.097698,0.191163,-0.842752,-0.112724,-0.268737,-0.160890,0.095766,-0.190000,-0.977102,-0.018190,-0.043032,-0.010081,17.891850,10.689865,-42.417557,,,,,,,
1530639095.642023,0.092800,0.189219,-0.846155,-0.071743,-0.276407,-0.171073,0.091013,-0.188092,-0.977925,-0.012018,-0.051135,-0.007762,17.681648,10.786987,-42.252838,,,,,,,
1530639095.661992,0.088240,0.188438,-0.849552,-0.007883,-0.246708,-0.158670,0.086565,-0.187325,-0.978476,-0.010836,-0.056282,0.012060,17.451599,10.983047,-42.462631,,,,,,,
1530639095.681961,0.084511,0.189074,-0.852962,0.063400,-0.212528,-0.156026,0.082906,-0.187950,-0.978673,-0.007970,-0.061501,0.015981,17.139168,11.038544,-42.462479,,,,,,,
1530639095.701930,0.080000,0.190799,-0.856386,0.109556,-0.294235,-0.155833,0.078465,-0.189643,-0.978712,0.001156,-0.057519,-0.001344,16.766205,11.108696,-42.511963,,,,,,,
1530639095.721899,0.073815,0.193264,-0.859622,0.137692,-0.355119,-0.132702,0.072375,-0.192063,-0.978710,0.011869,-0.071899,0.012615,16.646805,11.172134,-42.802658,,,,,,,
1530639095.741868,0.066270,0.195618,-0.862474,0.098786,-0.434693,-0.117569,0.064958,-0.194373,-0.978774,0.006743,-0.047235,0.035125,16.295841,11.211700,-42.965805,,,,,,,
1530639095.761837,0.057222,0.196584,-0.865028,0.015892,-0.479976,-0.110433,0.056090,-0.195320,-0.979134,0.010103,-0.071769,0.064629,15.898357,11.161133,-43.091644,,,,,,,
1530639095.781806,0.048243,0.196500,-0.867162,-0.012558,-0.473457,-0.093921,0.047296,-0.195238,-0.979614,0.001867,-0.079664,0.050080,15.543991,10.948357,-43.202209,,,,,,,
1530639095.801775,0.039364,0.196256,-0.869456,-0.016622,-0.463410,-0.110005,0.038598,-0.194998,-0.980043,0.001609,-0.070199,0.049776,15.046387,11.181267,-43.202942,,,,,,,
1530639095.821744,0.030895,0.195755,-0.871875,-0.039684,-0.441311,-0.111812,0.030300,-0.194507,-0.980433,0.014637,-0.070812,0.078196,14.721600,11.092140,-43.305237,,,,,,,
1530639095.841712,0.022891,0.194776,-0.873757,-0.065088,-0.418317,-0.083389,0.022456,-0.193547,-0.980834,0.031651,-0.077419,0.054473,14.279434,11.227272,-43.598755,,,,,,,
1530639095.861681,0.014078,0.193190,-0.877155,-0.090394,-0.523530,-0.192559,0.013816,-0.191990,-0.981299,0.039285,-0.070644,-0.009927,13.857502,11.201859,-43.540939,,,,,,,
1530639095.881650,0.002430,0.192638,-0.880882,0.023680,-0.666190,-0.161031,0.002385,-0.191448,-0.981499,0.051372,-0.050541,-0.121024,13.322754,11.356224,-43.647446,,,,,,,
1530639095.901619,-0.008836,0.195844,-0.884017,0.220646,-0.521774,-0.141939,-0.008667,-0.194595,-0.980845,0.028885,-0.031266,-0.090841,12.696220,11.393578,-43.688507,,,,,,,
1530639095.921588,-0.015225,0.201941,-0.886936,0.318067,-0.266847,-0.135275,-0.014915,-0.200571,-0.979565,0.033103,-0.021124,-0.027652,12.162804,11.498009,-44.047760,,,,,,,
1530639095.941557,-0.017287,0.207975,-0.889631,0.262342,-0.057170,-0.122890,-0.016913,-0.206479,-0.978305,0.050696,-0.025302,0.065356,11.970055,10.954254,-43.922424,,,,,,,
1530639095.961526,-0.016673,0.211842,-0.891806,0.142490,0.007750,-0.086781,-0.016299,-0.210262,-0.977509,0.072940,-0.033498,0.106507,12.029900,10.903320,-43.835251,,,,,,,
1530639095.981495,-0.017862,0.213174,-0.892960,0.017205,-0.144993,-0.022552,-0.017456,-0.211563,-0.977208,0.097092,-0.048340,0.125508,11.766453,10.809044,-44.218719,,,,,,,
1530639096.001464,-0.024080,0.212007,-0.892577,-0.101964,-0.404986,0.065900,-0.023538,-0.210423,-0.977327,0.113290,-0.059307,0.116365,11.474113,10.816345,-44.007034,,,,,,,
1530639096.021433,-0.035900,0.208785,-0.890215,-0.189744,-0.674990,0.163682,-0.035113,-0.207271,-0.977653,0.114856,-0.053379,0.068214,11.071953,10.980530,-43.964005,,,,,,,
1530639096.041402,-0.053864,0.204537,-0.886540,-0.212152,-0.973420,0.218567,-0.052715,-0.203114,-0.977735,0.111889,-0.049938,0.015714,10.420120,11.018883,-44.157120,,,,,,,
1530639096.061371,-0.077406,0.200243,-0.881896,-0.198919,-1.246477,0.274270,-0.075783,-0.198907,-0.977083,0.108697,-0.037589,-0.018369,9.259178,11.370018,-44.310684,,,,,,,
1530639096.081339,-0.105993,0.196283,-0.876350,-0.144574,-1.444286,0.301855,-0.103763,-0.195025,-0.975294,0.094333,-0.022580,-0.049639,8.300583,11.329384,-44.367859,,,,,,,
1530639096.101308,-0.136932,0.193815,-0.871198,-0.059228,-1.514636,0.254233,-0.133948,-0.192604,-0.972091,0.087867,-0.009086,-0.049851,6.758419,11.429817,-44.200455,,,,,,,
1530639096.121277,-0.167015,0.193089,-0.867306,0.037953,-1.406973,0.165279,-0.163151,-0.191891,-0.967760,0.060551,-0.004108,-0.059905,5.541534,11.288536,-44.296585,,,,,,,
1530639096.141246,-0.192396,0.194684,-0.864790,0.130836,-1.140401,0.084680,-0.187599,-0.193456,-0.963006,0.050788,-0.012843,-0.043128,4.626209,11.253639,-44.360565,,,,,,,
1530639096.161215,-0.212616,0.197213,-0.863615,0.131367,-0.933484,0.014491,-0.206928,-0.195937,-0.958534,0.053729,-0.018754,-0.031715,3.650705,11.172211,-44.282761,,,,,,,
1530639096.181184,-0.230052,0.199022,-0.863169,0.072630,-0.844039,0.013388,-0.223527,-0.197711,-0.954434,0.065416,-0.020139,-0.016010,2.965433,11.218689,-44.381989,,,,,,,
1530639096.201153,-0.247848,0.199914,-0.862662,0.045305,-0.923579,0.023007,-0.240433,-0.198585,-0.950134,0.060043,-0.023522,-0.036591,2.124245,11.539948,-44.429901,,,,,,,
1530639096.221122,-0.267353,0.201353,-0.862653,0.091969,-1.000437,-0.039340,-0.258842,-0.199995,-0.944987,0.041603,-0.019274,-0.038442,1.318327,11.052223,-43.978897,,,,,,,
1530639096.241091,-0.287531,0.203987,-0.863829,0.119835,-1.039684,-0.112087,-0.277705,-0.202575,-0.939064,0.023769,-0.010423,-0.024437,0.282650,11.088951,-44.222061,,,,,,,
1530639096.261060,-0.309166,0.207141,-0.866126,0.117078,-1.159701,-0.156855,-0.297760,-0.205663,-0.932223,0.025009,-0.019450,-0.017393,-0.647963,10.997505,-44.391846,,,,,,,
1530639096.281029,-0.334362,0.209975,-0.868451,0.097959,-1.356433,-0.122008,-0.320958,-0.208436,-0.923871,0.042882,-0.004592,-0.010562,-1.763222,10.903320,-43.909241,,,,,,,
1530639096.300997,-0.363479,0.212720,-0.869615,0.129113,-1.537775,-0.080074,-0.347514,-0.211119,-0.913597,0.007655,0.036315,-0.047478,-3.147055,10.742607,-43.634567,,,,,,,
1530639096.320966,-0.396058,0.216035,-0.870130,0.160643,-1.679050,-0.085410,-0.376816,-0.214359,-0.901142,-0.031097,0.019748,-0.076535,-4.483698,10.601143,-43.193420,,,,,,,
1530639096.340935,-0.428638,0.220227,-0.871131,0.159009,-1.583706,-0.144245,-0.405593,-0.218451,-0.887564,-0.106339,0.004690,-0.087152,-5.798222,10.505707,-42.946930,,,,,,,
1530639096.360904,-0.459216,0.223022,-0.874653,-0.015205,-1.576247,-0.256679,-0.432267,-0.221178,-0.874198,-0.118041,0.004381,-0.086679,-7.246277,10.399498,-42.570343,,,,,,,
1530639096.380873,-0.489709,0.224289,-0.881911,-0.133766,-1.627264,-0.376454,-0.458586,-0.222413,-0.860364,-0.055086,0.026200,-0.076251,-8.502178,10.578033,-42.143188,,,,,,,
1530639096.400842,-0.521411,0.226184,-0.892240,-0.164810,-1.773960,-0.552631,-0.485415,-0.224260,-0.845029,-0.033307,0.038347,-0.069186,-10.059591,10.768532,-41.519577,,,,,,,
1530639096.420811,-0.557663,0.230269,-0.905925,-0.156953,-2.090620,-0.736509,-0.515235,-0.228239,-0.826096,-0.003152,0.025404,-0.049240,-11.777449,10.545143,-40.897682,,,,,,,
1530639096.440780,-0.599468,0.236937,-0.921892,-0.128495,-2.398766,-0.875271,-0.548439,-0.234727,-0.802566,0.023872,0.054444,-0.034074,-13.793010,10.310219,-40.193878,,,,,,,
1530639096.460749,-0.647027,0.246267,-0.939515,-0.109514,-2.700316,-1.009589,-0.584628,-0.243785,-0.773804,0.041567,0.090739,-0.009949,-16.010803,10.291397,-39.249336,,,,,,,
1530639096.480718,-0.694681,0.255764,-0.959144,-0.383710,-2.346229,-0.957502,-0.619314,-0.252985,-0.743263,-0.072108,0.037622,0.239678,-18.072742,10.045715,-37.839661,,,,,,,
1530639096.500687,-0.718801,0.249996,-0.982057,-1.171386,-1.166041,-0.455918,-0.638010,-0.247400,-0.729197,-0.014365,-0.048605,0.348627,-19.273296,10.485977,-37.214157,,,,,,,
1530639096.520656,-0.725789,0.231991,-1.002658,-1.406106,-0.270631,0.014672,-0.645942,-0.229915,-0.727935,-0.092263,-0.021870,0.186584,-19.773041,11.410385,-36.557037,,,,,,,
1530639096.540624,-0.721933,0.208973,-1.022421,-1.543473,-0.030987,0.007581,-0.646457,-0.207455,-0.734198,0.007755,0.098874,0.022650,-20.091351,12.583977,-36.099701,,,,,,,
1530639096.560593,-0.724669,0.188893,-1.045717,-1.423481,-0.616253,-0.289878,-0.651094,-0.187772,-0.735398,0.160493,0.211347,-0.031860,-20.389833,13.375313,-35.699921,,,,,,,
1530639096.580562,-0.734243,0.172799,-1.066958,-1.237892,-0.661387,-0.157262,-0.660044,-0.171940,-0.731279,0.367808,0.066258,0.149080,-21.059799,14.496704,-34.978279,,,,,,,
1530639096.600531,-0.749330,0.153854,-1.080253,-1.053707,-1.013125,0.412854,-0.673099,-0.153247,-0.723494,0.501163,-0.065655,-0.011156,-21.410500,15.023262,-34.196815,,,,,,,
1530639096.620500,-0.774690,0.130559,-1.080297,-0.695678,-1.428051,1.013165,-0.693538,-0.130189,-0.708553,0.587596,-0.023788,-0.042699,-22.102837,15.918953,-33.535286,,,,,,,
1530639096.640469,-0.807893,0.105734,-1.069464,-0.376784,-1.667017,1.392563,-0.718792,-0.105537,-0.687160,0.657422,0.089867,0.050182,-22.796743,16.750748,-32.439812,,,,,,,
1530639096.660438,-0.843574,0.080258,-1.053513,-0.222602,-1.746328,1.519963,-0.744615,-0.080171,-0.662653,0.703691,0.232180,0.129816,-23.318577,17.661919,-31.409302,,,,,,,
1530639096.680407,-0.876854,0.053879,-1.036363,-0.233927,-1.373847,1.613553,-0.767611,-0.053852,-0.638641,0.758486,0.344990,0.365081,-23.853729,18.932007,-30.338264,,,,,,,
1530639096.700376,-0.888053,0.021375,-1.023057,-0.717545,-0.077411,1.732816,-0.775663,-0.021373,-0.630776,0.620069,0.445766,0.543129,-23.557156,19.845963,-29.654243,,,,,,,
1530639096.720345,-0.880507,-0.019894,-1.018871,-1.421211,0.600729,1.717705,-0.770905,0.019893,-0.636631,0.447357,0.597706,0.446369,-22.895931,21.265114,-29.358940,,,,,,,
1530639096.740314,-0.880230,-0.071502,-1.024721,-2.184910,-0.140996,1.898068,-0.768911,0.071441,-0.635342,0.400259,0.527817,0.274075,-22.208073,23.400124,-28.498878,,,,,,,
1530639096.760283,-0.875982,-0.138069,-1.042995,-3.170791,0.503114,2.028173,-0.760858,0.137631,-0.634146,0.309716,0.739170,0.509177,-21.176796,25.588417,-27.322403,,,,,,,
1530639096.780251,-0.882087,-0.216923,-1.073149,-3.938292,-0.522031,2.167303,-0.753968,0.215225,-0.620643,0.158753,0.706009,0.221732,-20.273058,28.577957,-25.600151,,,,,,,
1530639096.800220,-0.922111,-0.311020,-1.113252,-4.713441,-2.070146,2.744042,-0.758640,0.306030,-0.575150,0.066242,0.704514,0.215958,-19.425354,31.691658,-22.504044,,,,,,,
1530639096.820189,-0.998986,-0.420953,-1.160888,-5.070869,-3.562457,3.532287,-0.767503,0.408630,-0.493907,-0.195510,0.740921,-0.000966,-18.786274,35.098137,-18.055717,,,,,,,
1530639096.840158,-1.115989,-0.537964,-1.219750,-5.200449,-4.981268,3.897838,-0.771447,0.512389,-0.377236,-0.472663,0.737977,-0.049491,-17.702641,38.210003,-12.528389,,,,,,,
1530639096.860127,-1.269552,-0.646842,-1.306165,-5.448283,-5.255945,3.561581,-0.762041,0.602670,-0.236766,-0.728285,0.763816,0.216533,-16.025896,40.730812,-6.038010,,,,,,,
1530639096.880096,-1.441483,-0.730623,-1.428763,-5.464308,-4.292484,2.801723,-0.738521,0.667334,-0.096037,-1.018590,0.823831,0.283293,-13.932723,42.297680,-0.022873,,,,,,,
1530639096.900065,-1.601987,-0.782413,-1.569570,-5.070727,-2.451751,2.071931,-0.708846,0.704993,0.022117,-1.255112,0.776453,0.413750,-11.779173,42.926193,5.853920,,,,,,,
1530639096.920034,-1.729350,-0.803001,-1.711751,-4.775110,-0.671409,1.140129,-0.685814,0.719443,0.109659,-1.624993,0.682610,0.305838,-10.434202,42.830986,10.509468,,,,,,,
1530639096.940003,-1.823071,-0.793713,-1.843980,-4.469001,0.313764,0.098684,-0.678982,0.712962,0.175019,-1.939487,0.487340,-0.066788,-9.982143,42.119465,14.508888,,,,,,,
1530639096.959972,-1.892373,-0.764462,-1.947814,-3.472869,0.026324,-0.525928,-0.684730,0.692149,0.228111,-1.974175,-0.091090,-0.802040,-10.288067,41.382645,18.003036,,,,,,,
1530639096.979941,-1.943959,-0.730555,-2.011563,-2.314155,-0.747835,-1.014410,-0.693520,0.667283,0.271518,-1.904761,-0.441255,-1.217395,-10.647768,39.963703,20.365387,,,,,,,
1530639096.999910,-1.997527,-0.722057,-1.997041,1.995812,-4.423561,-0.147333,-0.683125,0.660930,0.310596,-0.961650,-1.126384,-2.802464,-10.430279,39.835896,21.250732,,,,,,,
1530639097.019879,-2.014555,-0.735273,-1.933714,2.452021,-1.978045,-0.856546,-0.669789,0.670790,0.318405,-1.387004,-1.015455,-0.702224,-9.363598,40.422813,20.499657,,,,,,,
1530639097.039847,-2.003071,-0.717877,-1.867411,1.696638,-1.842433,-2.232656,-0.683895,0.657787,0.315534,-0.818332,-0.354000,-0.803373,-9.975552,40.726448,19.290970,,,,,,,
1530639097.059816,-1.997873,-0.708474,-1.801792,2.233723,-1.640269,-0.842877,-0.691125,0.650676,0.314523,0.270166,-0.809169,-0.498528,-10.637642,41.052860,18.059532,,,,,,,
1530639097.079785,-1.992616,-0.729876,-1.758076,1.667016,-0.902331,0.864318,-0.679907,0.666777,0.305113,0.801825,-0.533034,-0.361128,-10.303804,41.663437,16.936752,,,,,,,
1530639097.099754,-1.975267,-0.755020,-1.748461,0.433731,1.776801,0.933527,-0.669470,0.685303,0.286582,0.986883,0.153137,0.355492,-9.428736,42.286148,15.994728,,,,,,,
1530639097.119723,-1.891922,-0.762872,-1.745249,0.232669,5.114211,-0.213038,-0.685877,0.691000,0.228150,0.905009,0.416986,0.026840,-9.816391,42.469639,14.851624,,,,,,,
1530639097.139692,-1.779637,-0.740597,-1.743034,-0.539749,5.464911,-1.563125,-0.722005,0.674729,0.153015,0.587728,0.008301,-0.384308,-11.833345,42.674862,13.444916,,,,,,,
1530639097.159661,-1.689253,-0.703721,-1.756192,-0.808965,4.627016,-1.706661,-0.757075,0.647059,0.090102,0.067698,-0.130564,-0.535430,-14.141132,41.928413,12.364708,,,,,,,
1530639097.179630,-1.617003,-0.666754,-1.767444,-0.372702,3.545542,-1.939785,-0.784973,0.618439,0.036297,-0.333160,-0.314987,-0.463665,-16.575790,41.133396,11.159843,,,,,,,
1530639097.199599,-1.551899,-0.627317,-1.766795,0.219982,3.167014,-1.824978,-0.809442,0.586974,-0.015298,-0.179572,-0.176299,-0.143272,-18.469288,40.486023,9.934486,,,,,,,
1530639097.219568,-1.483631,-0.599510,-1.759355,0.404103,3.161023,-1.127008,-0.822460,0.564238,-0.071872,-0.218495,0.086870,0.005634,-20.215052,39.562794,8.457794,,,,,,,
1530639097.239537,-1.426848,-0.582228,-1.759392,-0.137111,2.678153,-0.715881,-0.826584,0.549886,-0.119814,-0.236679,0.270975,0.217959,-21.348816,39.132896,6.579750,,,,,,,
1530639097.259506,-1.389283,-0.571374,-1.773697,-0.661828,1.865375,-0.648415,-0.827324,0.540789,-0.151842,-0.203514,0.292692,0.089296,-27.066355,40.655800,6.974945,,,,,,,
1530639097.279475,-1.376480,-0.565970,-1.790368,-0.573121,0.675824,0.077221,-0.828168,0.536234,-0.162983,0.311414,-0.121409,-0.050976,-27.576195,40.239563,6.682701,,,,,,,
1530639097.299444,-1.368898,-0.580333,-1.792569,0.029292,0.317596,0.927569,-0.819278,0.548302,-0.167696,0.035602,-0.442437,-0.155486,-27.482388,40.449390,6.839302,,,,,,,
1530639097.319412,-1.352214,-0.598584,-1.770719,1.186739,0.095057,0.967003,-0.806462,0.563473,-0.179141,-0.244472,-0.310269,-0.305479,-26.644915,40.876247,6.609032,,,,,,,
1530639097.339381,-1.326507,-0.603323,-1.722007,2.220761,-0.276654,0.713671,-0.798991,0.567382,-0.199163,0.065226,-0.407378,-0.363734,-25.765970,41.543404,5.100525,,,,,,,
1530639097.359350,-1.315632,-0.607477,-1.663488,2.289577,-1.644998,0.795853,-0.794491,0.570798,-0.207243,-0.261158,0.034854,-0.478182,-25.039955,41.776592,3.781105,,,,,,,
1530639097.379319,-1.340359,-0.615940,-1.612346,1.519001,-3.073298,0.807969,-0.794640,0.577726,-0.186426,0.092354,0.032915,0.195841,-24.245979,42.166790,3.708229,,,,,,,
1530639097.399288,-1.369473,-0.620019,-1.587636,0.815676,-1.358756,0.339482,-0.797414,0.581051,-0.162743,0.604527,-0.092815,0.684547,-23.819477,42.222321,3.756485,,,,,,,
1530639097.419257,-1.357358,-0.607986,-1.554691,1.706883,-0.296959,-0.954819,-0.802160,0.571215,-0.173859,-0.645777,-0.335909,0.520173,-24.035568,42.034523,2.813148,,,,,,,
1530639097.439226,-1.309035,-0.592104,-1.523820,1.429323,2.842106,0.084646,-0.801489,0.558108,-0.214725,0.829123,-0.337206,0.896198,-23.978224,41.489323,0.723175,,,,,,,
1530639097.459195,-1.218064,-0.579528,-1.490963,1.569328,3.793183,-0.647816,-0.785194,0.547629,-0.289052,0.208335,0.083840,0.416829,-23.979843,41.273682,-1.934959,,,,,,,
1530639097.479164,-1.139277,-0.544913,-1.460106,1.986525,2.527844,-1.110268,-0.776769,0.518344,-0.357672,0.683264,-0.121173,-0.234293,-24.338133,40.555988,-4.592300,,,,,,,
1530639097.499133,-1.077507,-0.520367,-1.429424,1.663045,2.216780,-0.012536,-0.764188,0.497198,-0.410843,0.905942,-0.227789,-0.506347,-24.208704,40.171219,-7.155899,,,,,,,
1530639097.519102,-1.019827,-0.514959,-1.389671,1.552429,1.798326,0.960528,-0.741514,0.492499,-0.455615,0.465406,-0.211906,-0.873746,-23.113617,39.587849,-9.084129,,,,,,,
1530639097.539071,-0.959175,-0.520905,-1.345408,1.526234,1.849999,1.471196,-0.710124,0.497665,-0.498035,0.083323,-0.094040,-0.778683,-21.590517,39.374275,-10.527122,,,,,,,
1530639097.559040,-0.902144,-0.529257,-1.295971,1.261749,1.383289,1.767280,-0.677296,0.504892,-0.535107,-0.024852,0.117315,-0.461109,-20.001568,39.333252,-12.077202,,,,,,,
1530639097.579009,-0.874621,-0.562454,-1.274948,-1.300186,0.765781,1.789468,-0.649091,0.533264,-0.542491,-0.218783,0.726196,-0.328984,-18.283592,39.816166,-11.846947,,,,,,,
1530639097.598978,-0.856629,-0.603891,-1.277385,-1.145651,0.703798,1.486611,-0.621984,0.567850,-0.539137,-0.319560,1.053610,-0.588930,-17.146187,40.974663,-11.139435,,,,,,,
1530639097.618947,-0.815504,-0.640274,-1.265663,-0.973781,2.116012,1.594050,-0.583858,0.597415,-0.549720,-0.218617,0.647336,0.399864,-15.388998,41.726315,-10.861023,,,,,,,
1530639097.638915,-0.774440,-0.683801,-1.276810,-2.159634,3.124179,1.289078,-0.542088,0.631744,-0.554100,-0.194637,0.015854,0.619027,-13.882015,42.397404,-10.109665,,,,,,,
1530639097.658884,-0.708493,-0.743209,-1.291761,-2.863437,3.935336,1.673666,-0.479098,0.676654,-0.559098,-0.004941,0.144864,0.420121,-11.686163,43.358109,-8.958572,,,,,,,
1530639097.678853,-0.661581,-0.811454,-1.327891,-3.628484,3.158735,0.991059,-0.422950,0.725289,-0.543190,-0.080330,0.204246,0.324806,-10.059416,43.924152,-6.498634,,,,,,,
1530639097.698822,-0.639175,-0.888319,-1.347358,-3.341252,1.497911,2.331376,-0.376237,0.776012,-0.506197,0.067506,-0.135998,0.214892,-8.189171,44.891022,-3.987633,,,,,,,
1530639097.718791,-0.604439,-0.972817,-1.358612,-3.798239,2.231630,1.770327,-0.319930,0.826475,-0.463215,0.163405,-0.199308,0.315372,-6.301342,45.090984,-0.978806,,,,,,,
1530639097.738760,-0.625761,-1.043737,-1.425727,-3.954268,1.501267,-0.040213,-0.294601,0.864290,-0.407672,0.192062,-0.355684,0.251406,-5.686811,45.072296,2.347054,,,,,,,
1530639097.758729,-0.709712,-1.097025,-1.543962,-3.656844,0.451752,-0.737621,-0.297283,0.889854,-0.346069,0.254711,-0.386726,-0.117936,-6.098156,44.717129,5.428810,,,,,,,
1530639097.778698,-0.823738,-1.134783,-1.654033,-2.642103,-1.849880,0.007285,-0.309841,0.906443,-0.286949,0.190410,-0.390574,-0.300225,-6.402506,44.573071,8.090210,,,,,,,
1530639097.798667,-0.950927,-1.186834,-1.702898,-2.259689,-4.728807,2.051459,-0.304881,0.927188,-0.217597,0.297450,-0.812304,0.165381,-4.766518,44.169903,10.541374,,,,,,,
1530639097.818636,-1.053552,-1.249619,-1.710462,-1.371621,-4.635196,2.839470,-0.274354,0.948864,-0.156083,0.132447,-0.320767,0.046540,-1.870317,43.559792,12.284538,,,,,,,
1530639097.838605,-1.056641,-1.311974,-1.646610,-0.370094,-1.909687,3.279813,-0.222808,0.966692,-0.125848,-0.031571,0.042738,0.356576,1.472088,43.199856,13.052818,,,,,,,
1530639097.858574,-0.961305,-1.372684,-1.554512,-1.520767,0.712269,2.993032,-0.161326,0.980440,-0.112632,-0.032842,-0.176241,1.012443,3.913506,42.673180,13.713142,,,,,,,
1530639097.878543,-1.053339,-1.448832,-1.683901,-3.635635,2.651369,2.524505,-0.105638,0.992572,-0.060128,-0.229109,0.561902,1.015100,5.828354,41.669075,16.395401,,,,,,,
1530639097.898512,-2.058563,-1.507340,-2.774934,-5.504834,4.735910,2.403498,-0.055818,0.997987,0.029612,-0.132659,0.989378,0.853856,6.466278,39.719193,20.696754,,,,,,,
1530639097.918481,-2.985213,-1.421777,2.485345,-6.181758,4.211045,1.710380,-0.023106,0.988917,0.146551,-0.271724,1.054693,0.394236,5.983913,37.307938,25.678024,,,,,,,
1530639097.938450,-3.060300,-1.327290,2.366666,-3.605824,0.494238,-0.179286,-0.019573,0.970498,0.240242,-0.396275,0.482947,-0.548882,5.496925,34.714920,29.455517,,,,,,,
1530639097.958419,-3.035978,-1.289315,2.416976,-1.066057,-1.679730,-0.886622,-0.029277,0.960645,0.276169,-0.072362,-0.271116,-0.279495,5.586761,33.735840,31.211380,,,,,,,
1530639097.978388,-3.044021,-1.279830,2.431235,-0.184238,-0.644955,0.130329,-0.027941,0.957967,0.285452,0.194323,-0.331716,-0.138784,6.071590,33.119431,31.341526,,,,,,,
1530639097.998357,-3.085540,-1.284064,2.379828,0.354029,1.001957,1.081630,-0.015841,0.959173,0.282313,0.216570,-0.252691,-0.188869,6.356911,32.906250,31.529648,,,,,,,
1530639098.018326,3.135786,-1.297577,2.273147,0.790436,2.528901,1.666737,0.001566,0.962907,0.269764,0.066854,-0.190523,-0.227284,6.043854,33.060509,31.508427,,,,,,,
1530639098.038295,3.056378,-1.315450,2.122317,1.098275,3.672897,2.082049,0.021492,0.967576,0.251599,0.015923,-0.113786,-0.259609,5.524055,33.067688,31.194496,,,,,,,
1530639098.058263,2.933021,-1.332400,1.909298,1.264214,4.283591,2.679648,0.048882,0.971718,0.230960,0.039146,0.006584,-0.312487,4.651817,33.535088,30.930256,,,,,,,
1530639098.078232,2.863618,-1.308440,1.847766,-3.048874,-4.717411,-0.835903,0.071152,0.965781,0.249340,0.142669,1.242501,-1.470821,5.287682,33.156837,31.548256,,,,,,,
1530639098.098201,2.878519,-1.250128,1.973208,-2.895805,-4.669371,-0.446882,0.081953,0.949025,0.304303,0.233827,0.216685,-0.423840,7.490456,31.546219,32.911198,,,,,,,
1530639098.118170,2.823042,-1.209470,1.983516,-1.447482,-2.494722,0.771207,0.110702,0.935429,0.335683,-0.048904,0.283718,-0.400975,9.640446,30.090240,33.791874,,,,,,,
1530639098.138139,2.762586,-1.193564,1.948679,-0.003670,-0.980528,0.757720,0.136271,0.929688,0.342164,-0.266489,0.355301,-0.504411,10.977497,29.569489,33.799187,,,,,,,
1530639098.158108,2.713272,-1.207976,1.916120,1.422561,-1.305953,-0.141291,0.147391,0.934900,0.322807,-0.335776,0.588431,-0.832588,11.771023,29.880562,33.424194,,,,,,,
1530639098.178077,2.647915,-1.253573,1.908939,2.405230,-4.095118,-1.367770,0.147789,0.950105,0.274638,-0.199058,0.802748,-1.029384,12.785168,31.214302,31.898235,,,,,,,
1530639098.198046,2.537378,-1.321018,1.901150,3.327583,-5.610188,-1.658862,0.140397,0.968967,0.203373,0.192306,0.494198,-0.768070,14.348701,33.022110,28.736954,,,,,,,
1530639098.218015,2.233574,-1.395753,1.711090,4.399436,-6.136915,-0.888747,0.137217,0.984719,0.107107,0.334112,0.358009,-0.680578,16.030163,35.295212,24.403332,,,,,,,
1530639098.237984,1.605389,-1.446664,1.203287,4.283034,-6.166228,-1.273756,0.123638,0.992305,0.004279,0.087086,0.397572,-0.279715,17.541164,37.360619,19.167809,,,,,,,
1530639098.257953,0.755782,-1.446174,0.438833,4.222663,-3.371300,-2.041559,0.085190,0.992245,-0.090392,-0.199646,0.463352,0.420394,17.875648,39.005562,14.367828,,,,,,,
1530639098.277922,0.215293,-1.398807,-0.083371,3.521103,-0.029370,-2.381428,0.036549,0.985246,-0.167133,-0.208546,0.516066,0.697590,16.584164,40.401646,10.568359,,,,,,,
1530639098.297891,-0.006788,-1.344350,-0.339496,2.438635,2.060169,-2.145180,-0.001524,0.974470,-0.224469,-0.119067,0.664644,0.548932,14.640343,41.879547,8.259468,,,,,,,
1530639098.317860,-0.114501,-1.318224,-0.505448,0.528018,2.926880,-1.914627,-0.028547,0.968273,-0.248224,0.070112,0.698292,0.437936,12.764931,42.972866,7.740028,,,,,,,
1530639098.337829,-0.114539,-1.299763,-0.578644,1.171245,3.682575,-0.438109,-0.030594,0.963495,-0.265940,0.612717,0.420554,-0.164557,11.222233,43.723000,7.800560,,,,,,,
1530639098.357798,-0.020931,-1.269444,-0.543449,1.664062,2.191756,0.892205,-0.006212,0.954936,-0.296718,0.582033,0.334279,0.020748,10.948643,43.799713,7.383789,,,,,,,
1530639098.377767,0.074355,-1.234693,-0.450517,1.671012,-0.888854,1.788627,0.024499,0.944047,-0.328875,0.444328,0.143508,0.196856,11.885746,43.642002,6.295181,,,,,,,
1530639098.397736,0.114901,-1.198851,-0.365531,1.655527,-2.206480,1.404952,0.041664,0.931622,-0.361011,0.035454,-0.058926,0.545612,13.308052,43.532276,4.155556,,,,,,,
1530639098.417705,0.108090,-1.166969,-0.337420,1.385313,-1.214120,0.309292,0.042388,0.919564,-0.390629,-0.154556,-0.250939,0.850453,14.271416,43.278324,2.228432,,,,,,,
1530639098.437674,0.093405,-1.144782,-0.351424,1.003209,0.511424,-0.328657,0.038542,0.910620,-0.411426,-0.062177,-0.487647,0.872546,14.220322,43.260410,0.946358,,,,,,,
1530639098.457643,0.095769,-1.129899,-0.372553,0.644375,1.212486,-0.322528,0.040805,0.904369,-0.424780,0.063977,-0.640224,0.734640,13.973927,43.247265,0.252602,,,,,,,
1530639098.477612,0.111297,-1.121697,-0.382212,0.302227,1.116730,-0.028143,0.048219,0.900839,-0.431453,0.109710,-0.706640,0.655833,13.762379,43.613846,0.225555,,,,,,,
1530639098.497581,0.136670,-1.119047,-0.377865,0.012013,0.993818,0.199770,0.059474,0.899685,-0.432455,0.092671,-0.705288,0.654348,13.795311,43.672005,0.324890,,,,,,,
1530639098.517550,0.167969,-1.121519,-0.364164,-0.285941,0.870355,0.347954,0.072606,0.900761,-0.428187,0.130229,-0.691487,0.665355,14.084869,43.488640,0.673927,,,,,,,
1530639098.537519,0.206905,-1.130074,-0.341733,-0.667311,0.959315,0.432259,0.087633,0.904444,-0.417480,0.126372,-0.674372,0.726623,14.400013,43.562077,1.168434,,,,,,,
1530639098.557487,0.256925,-1.147268,-0.313852,-1.174154,1.374122,0.335049,0.104429,0.911645,-0.397474,0.063052,-0.640404,0.762800,14.670967,43.484455,2.030502,,,,,,,
1530639098.577456,0.316868,-1.175259,-0.285620,-1.701195,1.841272,0.012897,0.120052,0.922790,-0.366105,-0.014858,-0.556960,0.700990,14.847149,43.321083,3.578178,,,,,,,
1530639098.597425,0.372620,-1.214080,-0.272204,-1.984852,2.281285,-0.706727,0.127121,0.937049,-0.325216,-0.130646,-0.320212,0.514318,14.609283,43.347458,5.612595,,,,,,,
1530639098.617394,0.396786,-1.252789,-0.297631,-1.207230,2.325922,-1.291814,0.120825,0.949860,-0.288359,-0.027304,0.078612,-0.128877,13.544006,43.575901,7.754135,,,,,,,
