timestamp(unix),attitude_roll(radians),attitude_pitch(radians),attitude_yaw(radians),rotation_rate_x(radians/s),rotation_rate_y(radians/s),rotation_rate_z(radians/s),gravity_x(G),gravity_y(G),gravity_z(G),user_acc_x(G),user_acc_y(G),user_acc_z(G),magnetic_field_x(microteslas),magnetic_field_y(microteslas),magnetic_field_z(microteslas),latitude(degree),longitude(degree),altitude(meter),speed(m/s),course(degree),timestamp(unix),User Mark
,,,,,,,,,,,,,,,,39.779247,-84.064432,292.701752,-1.000000,-1.000000,1530638558.879922,
,,,,,,,,,,,,,,,,39.779247,-84.064432,292.701752,-1.000000,-1.000000,1530638567.879922,
1530638595.944862,-0.011421,0.284287,1.898063,0.047683,-0.343484,0.104552,-0.010962,-0.280473,-0.959799,-0.013055,-0.010848,-0.019586,2.484175,-6.436806,-22.025444,,,,,,,
1530638595.964831,-0.015522,0.283231,1.900657,-0.101510,-0.027901,0.131391,-0.014903,-0.279460,-0.960042,-0.010136,-0.018651,0.035817,2.570719,-6.456596,-22.159912,,,,,,,
1530638595.984800,-0.015203,0.278950,1.903211,-0.274521,0.089207,0.126251,-0.014615,-0.275346,-0.961234,-0.033908,-0.031493,0.005195,2.445486,-6.448380,-22.218185,,,,,,,
1530638596.004768,-0.012064,0.271755,1.906132,-0.402742,0.236958,0.157450,-0.011621,-0.268423,-0.963231,-0.031637,-0.011790,0.023870,2.582537,-6.387848,-22.544884,,,,,,,
,,,,,,,,,,,,,,,,39.779116,-84.064888,292.701752,-1.000000,-1.000000,1530638596.006747,
1530638596.024737,-0.007026,0.263749,1.909011,-0.373193,0.346414,0.131777,-0.006783,-0.260702,-0.965396,-0.061134,0.037359,0.009555,2.640577,-6.378387,-22.324615,,,,,,,
,,,,,,,,,,,,,,,,39.779116,-84.064888,292.701752,-1.000000,-1.000000,1530638596.013932,
1530638596.044706,0.000100,0.258332,1.911544,-0.233637,0.381769,0.120756,0.000097,-0.255468,-0.966817,-0.061254,-0.017741,0.005712,2.772284,-6.015839,-22.260025,,,,,,,
,,,,,,,,,,,,,,,,39.779116,-84.064888,292.701752,-1.000000,-1.000000,1530638596.042196,
1530638596.064674,0.004881,0.255453,1.914326,-0.077535,0.214872,0.143091,0.004722,-0.252684,-0.967537,-0.023445,-0.064165,-0.032829,2.950949,-5.857208,-22.077080,,,,,,,
,,,,,,,,,,,,,,,,39.779116,-84.064889,292.701752,-1.000000,-1.000000,1530638596.059969,
1530638596.084643,0.008202,0.257091,1.916677,0.165199,0.222941,0.082300,0.007932,-0.254268,-0.967101,-0.027112,-0.006398,-0.054902,2.936388,-5.944016,-22.433495,,,,,,,
1530638596.104612,0.014004,0.262127,1.917632,0.271450,0.367828,0.037650,0.013525,-0.259135,-0.965746,-0.053442,0.039058,-0.009641,3.280111,-6.110458,-22.230423,,,,,,,
1530638596.124580,0.026831,0.267639,1.918973,0.292959,0.892941,0.087405,0.025873,-0.264455,-0.964051,-0.111338,0.048589,-0.041671,3.356173,-6.177902,-22.367325,,,,,,,
1530638596.144549,0.045045,0.274186,1.920668,0.310818,0.838861,0.084796,0.043348,-0.270763,-0.961669,-0.102903,0.032085,-0.042664,3.871759,-6.557671,-22.275986,,,,,,,
1530638596.164518,0.052188,0.275954,1.922392,-0.079380,0.008619,0.117311,0.050191,-0.272465,-0.960856,0.007548,0.065205,0.069849,4.018393,-6.385498,-22.124138,,,,,,,
1530638596.184486,0.039895,0.271362,1.925993,-0.268263,-0.790796,0.152138,0.038425,-0.268044,-0.962640,-0.064701,0.032891,0.058618,4.108004,-6.475960,-22.468834,,,,,,,
1530638596.204455,0.020913,0.267781,1.926782,-0.086126,-0.975951,-0.059928,0.020166,-0.264592,-0.964150,-0.062524,-0.027995,0.020714,3.915941,-6.385460,-22.358093,,,,,,,
1530638596.224424,0.003264,0.269244,1.923286,0.182424,-0.879012,-0.202534,0.003147,-0.266003,-0.963967,0.026333,-0.110081,0.008096,3.463896,-6.412582,-22.262032,,,,,,,
1530638596.244393,-0.011944,0.273807,1.918330,0.191441,-0.740470,-0.282849,-0.011499,-0.270398,-0.962680,0.031869,-0.129031,0.013202,3.142508,-6.183990,-22.220100,,,,,,,
1530638596.264361,-0.020855,0.274605,1.910569,-0.061298,-0.481143,-0.416962,-0.020072,-0.271167,-0.962323,-0.072763,-0.028180,0.050687,3.209475,-6.437645,-22.198509,,,,,,,
1530638596.284330,-0.028092,0.271222,1.902667,-0.225532,-0.524697,-0.336684,-0.027062,-0.267909,-0.963064,-0.069176,0.003032,0.032812,2.952742,-6.106705,-22.334908,,,,,,,
1530638596.304299,-0.045171,0.269272,1.896867,-0.006652,-1.211769,-0.284092,-0.043528,-0.266029,-0.962982,-0.051427,0.016213,-0.121155,2.774187,-6.444214,-22.346085,,,,,,,
1530638596.324267,-0.069500,0.271158,1.887627,0.049966,-1.286198,-0.538508,-0.066907,-0.267848,-0.961135,-0.067889,0.024439,-0.055680,2.313459,-6.210457,-22.312973,,,,,,,
1530638596.344236,-0.085888,0.271278,1.876003,-0.087595,-0.813755,-0.527211,-0.082645,-0.267963,-0.959878,-0.003338,-0.019147,0.044457,1.894587,-6.321594,-22.215820,,,,,,,
,,,,,,,,,,,,,,,,39.779198,-84.064400,292.705231,-1.000000,-1.000000,1530638596.333636,
1530638596.364205,-0.095653,0.269420,1.867756,-0.157649,-0.470855,-0.303714,-0.092062,-0.266172,-0.959519,0.057363,-0.039751,0.052369,1.699770,-6.232590,-22.339417,,,,,,,
1530638596.384173,-0.098830,0.265474,1.862864,-0.263608,-0.061021,-0.179814,-0.095212,-0.262367,-0.960259,0.054655,-0.074562,0.069451,1.724840,-6.237526,-22.383751,,,,,,,
1530638596.404142,-0.094420,0.257826,1.857892,-0.503434,0.253997,-0.226425,-0.091164,-0.254979,-0.962640,-0.014763,-0.033489,0.083596,1.742472,-5.777786,-22.350220,,,,,,,
1530638596.424111,-0.086773,0.245890,1.851776,-0.668947,0.301677,-0.249239,-0.084058,-0.243420,-0.966272,0.007504,-0.047214,0.040445,1.935911,-5.769104,-22.346001,,,,,,,
1530638596.444080,-0.081079,0.233850,1.845370,-0.566063,0.150479,-0.259695,-0.078786,-0.231724,-0.969586,0.009022,-0.021953,-0.058872,2.120455,-5.738220,-22.383186,,,,,,,
1530638596.464048,-0.078008,0.226529,1.839461,-0.272394,0.042217,-0.262267,-0.075938,-0.224596,-0.971488,0.017756,-0.008802,-0.111947,2.071226,-5.584030,-22.473000,,,,,,,
1530638596.484017,-0.078597,0.224900,1.833591,-0.017339,-0.165243,-0.285400,-0.076539,-0.223009,-0.971807,0.026520,-0.006468,-0.128962,2.208643,-5.489105,-22.581810,,,,,,,
1530638596.503986,-0.081535,0.226202,1.827588,0.036289,-0.213716,-0.302389,-0.079369,-0.224278,-0.971288,0.011544,-0.000239,-0.089107,2.104563,-5.558304,-22.803276,,,,,,,
1530638596.523954,-0.083414,0.225907,1.821519,-0.085553,-0.129931,-0.280193,-0.081200,-0.223991,-0.971203,0.003807,0.003868,-0.066624,1.940744,-5.435860,-22.654251,,,,,,,
1530638596.543923,-0.082721,0.224457,1.815959,-0.083680,0.037701,-0.256753,-0.080554,-0.222577,-0.971582,-0.010586,0.012906,-0.088798,2.098917,-5.432442,-22.932823,,,,,,,
1530638596.563892,-0.080056,0.224118,1.810928,-0.006242,0.081703,-0.237955,-0.077971,-0.222247,-0.971868,-0.001665,0.014529,-0.087321,2.217760,-5.507500,-22.790382,,,,,,,
1530638596.583860,-0.077937,0.225388,1.806305,0.074429,0.023094,-0.227236,-0.075889,-0.223485,-0.971749,0.007407,0.010640,-0.049705,2.356062,-5.638000,-22.825722,,,,,,,
1530638596.603821,-0.077882,0.227873,1.801715,0.122769,-0.086142,-0.236904,-0.075792,-0.225906,-0.971196,-0.001189,-0.000137,0.000127,2.348097,-5.674812,-22.943977,,,,,,,
1530638596.623790,-0.079176,0.230519,1.796641,0.093685,-0.126747,-0.270227,-0.077001,-0.228483,-0.970498,-0.001231,-0.001086,0.033044,2.545790,-5.767349,-23.164909,,,,,,,
1530638596.643759,-0.079775,0.231544,1.790739,-0.001493,-0.063571,-0.302340,-0.077564,-0.229481,-0.970218,0.005009,-0.001217,0.031650,2.582670,-5.716492,-23.219765,,,,,,,
1530638596.663727,-0.077999,0.231416,1.784315,-0.039159,0.049132,-0.315411,-0.075843,-0.229356,-0.970383,0.020652,0.004106,0.010575,2.496984,-5.773232,-23.207420,,,,,,,
1530638596.683696,-0.074149,0.231441,1.777920,-0.009868,0.162786,-0.309787,-0.072106,-0.229381,-0.970662,0.035638,0.011241,0.016851,2.635038,-5.790184,-23.141815,,,,,,,
1530638596.703665,-0.068826,0.231595,1.771713,-0.022571,0.213479,-0.296466,-0.066935,-0.229530,-0.970997,0.054210,0.006431,0.037541,2.817877,-5.846710,-23.128990,,,,,,,
1530638596.723634,-0.063403,0.230956,1.765855,-0.074067,0.188006,-0.282017,-0.061678,-0.228908,-0.971492,0.062792,0.007686,0.046214,3.009905,-5.869759,-23.053886,,,,,,,
1530638596.743602,-0.059203,0.229435,1.759793,-0.101196,0.120780,-0.297154,-0.057618,-0.227428,-0.972089,0.068284,0.009517,0.045163,3.066553,-5.885857,-23.216484,,,,,,,
1530638596.763571,-0.055653,0.227377,1.753402,-0.136777,0.096564,-0.305518,-0.054192,-0.225423,-0.972753,0.077294,0.015050,0.045720,3.020567,-5.686447,-23.012939,,,,,,,
1530638596.783540,-0.052354,0.224288,1.747408,-0.191682,0.097368,-0.259632,-0.051020,-0.222412,-0.973617,0.095469,0.016358,0.047530,3.175821,-5.623306,-22.928520,,,,,,,
1530638596.803509,-0.049434,0.219953,1.742882,-0.246839,0.088021,-0.182513,-0.048223,-0.218184,-0.974715,0.088751,0.014220,0.018279,3.156538,-5.442360,-22.940491,,,,,,,
1530638596.823477,-0.047263,0.215692,1.739667,-0.189609,0.065541,-0.127148,-0.046151,-0.214023,-0.975738,0.064904,0.013462,-0.023698,3.178007,-5.476265,-23.177299,,,,,,,
1530638596.843446,-0.045242,0.213839,1.737346,-0.046169,0.073031,-0.099521,-0.044197,-0.212213,-0.976224,0.052253,0.010553,-0.028079,3.277094,-5.396713,-23.235878,,,,,,,
1530638596.863415,-0.043990,0.214406,1.735630,0.056399,0.023144,-0.073897,-0.042969,-0.212767,-0.976158,0.040711,0.003035,-0.015130,3.247705,-5.491150,-23.271545,,,,,,,
1530638596.883383,-0.043151,0.215851,1.734500,0.067698,0.028459,-0.044869,-0.042137,-0.214178,-0.975885,0.031227,-0.000589,0.007151,3.332026,-5.570351,-23.126556,,,,,,,
1530638596.903352,-0.042090,0.216623,1.734016,0.017132,0.053674,-0.017246,-0.041094,-0.214933,-0.975764,0.018359,-0.009112,0.019785,3.401442,-5.518501,-22.921097,,,,,,,
1530638596.923321,-0.040292,0.216051,1.733658,-0.056274,0.093448,-0.018430,-0.039345,-0.214374,-0.975959,0.005852,-0.011593,0.014289,3.504602,-5.464401,-23.011383,,,,,,,
1530638596.943290,-0.038107,0.214377,1.733181,-0.090865,0.095679,-0.020208,-0.037225,-0.212739,-0.976400,0.008981,-0.010971,-0.009822,3.344290,-5.250397,-23.060089,,,,,,,
1530638596.963258,-0.036366,0.212646,1.732868,-0.082617,0.066849,-0.002097,-0.035539,-0.211048,-0.976830,0.015031,-0.009228,-0.014748,3.365854,-5.246468,-23.184105,,,,,,,
1530638596.983227,-0.035471,0.211134,1.733281,-0.073505,0.035655,0.038638,-0.034676,-0.209568,-0.977179,0.016457,-0.008449,-0.007776,3.413584,-5.193237,-23.140755,,,,,,,
1530638597.003196,-0.035325,0.209599,1.734539,-0.072800,0.009967,0.081652,-0.034544,-0.208068,-0.977504,0.006926,-0.009279,-0.023213,3.360548,-5.186661,-23.075294,,,,,,,
1530638597.023165,-0.035411,0.209034,1.736641,0.006646,0.020769,0.112128,-0.034633,-0.207515,-0.977619,0.000606,-0.009343,-0.034543,3.521399,-5.419540,-22.835365,,,,,,,
1530638597.043133,-0.035869,0.209732,1.739222,0.047387,-0.008083,0.132047,-0.035075,-0.208197,-0.977458,-0.007344,-0.015527,-0.015172,3.554430,-5.371658,-22.941719,,,,,,,
1530638597.063102,-0.036352,0.210387,1.742033,0.022159,0.009540,0.138870,-0.035542,-0.208838,-0.977304,-0.010143,-0.014779,-0.001028,3.546801,-5.491074,-22.745560,,,,,,,
1530638597.083071,-0.036752,0.210200,1.745023,-0.018848,0.011669,0.152260,-0.035935,-0.208656,-0.977329,-0.006362,-0.012719,0.000827,3.402243,-5.187668,-22.764778,,,,,,,
1530638597.103040,-0.037240,0.209452,1.748322,-0.032612,0.010457,0.168582,-0.036418,-0.207924,-0.977467,-0.007222,-0.011238,-0.001568,3.495363,-5.329987,-22.718925,,,,,,,
1530638597.123008,-0.037890,0.208522,1.751845,-0.046314,-0.003950,0.177285,-0.037061,-0.207014,-0.977636,-0.007739,-0.011492,0.003042,3.338236,-5.216415,-22.889763,,,,,,,
1530638597.142977,-0.038757,0.207237,1.755387,-0.064098,-0.005012,0.172078,-0.037918,-0.205757,-0.977868,-0.014877,-0.005944,0.001092,3.403849,-5.230583,-22.810516,,,,,,,
1530638597.162946,-0.039480,0.206035,1.758641,-0.040878,0.001732,0.153527,-0.038635,-0.204580,-0.978087,-0.015366,-0.002863,-0.011995,3.302374,-5.117668,-22.960060,,,,,,,
1530638597.182915,-0.039893,0.206053,1.761558,0.034751,0.016168,0.137689,-0.039038,-0.204598,-0.978067,-0.005410,-0.002327,-0.008734,3.392519,-5.204224,-22.986343,,,,,,,
1530638597.202883,-0.040206,0.207134,1.764541,0.059851,0.012790,0.146031,-0.039336,-0.205656,-0.977834,0.000213,-0.009188,0.018758,3.326136,-5.490791,-22.972282,,,,,,,
1530638597.222852,-0.040900,0.207686,1.767549,0.014832,-0.009216,0.137781,-0.040010,-0.206196,-0.977692,-0.013579,-0.010127,0.017701,3.320063,-5.275719,-22.847412,,,,,,,
1530638597.242821,-0.042141,0.207349,1.769807,-0.023594,-0.049737,0.092695,-0.041226,-0.205866,-0.977711,-0.017200,-0.005972,0.000783,3.296648,-5.408653,-22.796509,,,,,,,
1530638597.262789,-0.043247,0.206778,1.771255,-0.024403,-0.027450,0.062611,-0.042313,-0.205307,-0.977782,-0.014923,0.000840,-0.009797,3.421919,-5.496521,-22.893692,,,,,,,
1530638597.282758,-0.043372,0.206322,1.772298,-0.019065,0.022313,0.049852,-0.042439,-0.204861,-0.977870,-0.004650,-0.000507,-0.010106,3.304857,-5.317215,-22.941559,,,,,,,
1530638597.302727,-0.043051,0.206036,1.773162,-0.009530,0.023496,0.037894,-0.042127,-0.204581,-0.977943,-0.002078,0.001548,-0.010751,3.212206,-5.395760,-22.881203,,,,,,,
1530638597.322696,-0.042558,0.205832,1.773791,-0.014698,0.034603,0.028294,-0.041647,-0.204382,-0.978005,0.003256,0.002325,-0.004188,3.324675,-5.208855,-22.812233,,,,,,,
1530638597.342665,-0.042213,0.205064,1.774302,-0.050324,0.016973,0.025356,-0.041316,-0.203629,-0.978176,0.001429,0.004319,-0.004933,3.349314,-5.412338,-22.880196,,,,,,,
1530638597.362633,-0.042140,0.203812,1.774667,-0.061770,0.008219,0.014649,-0.041256,-0.202404,-0.978433,-0.007389,0.008648,-0.023795,3.330797,-5.247200,-22.903603,,,,,,,
1530638597.382602,-0.041833,0.202630,1.774779,-0.055428,0.022613,0.008181,-0.040965,-0.201247,-0.978684,-0.005010,0.013274,-0.027664,3.317385,-5.300171,-23.014320,,,,,,,
1530638597.402571,-0.041398,0.201858,1.775057,-0.027233,0.020293,0.022971,-0.040546,-0.200490,-0.978856,0.003208,0.017171,-0.025920,3.387980,-5.156830,-22.883102,,,,,,,
1530638597.422540,-0.041154,0.201791,1.775863,0.011340,0.020090,0.050595,-0.040308,-0.200424,-0.978880,0.002466,0.016632,-0.018465,3.273252,-5.269211,-22.900841,,,,,,,
1530638597.442508,-0.040930,0.202253,1.777196,0.037382,0.029869,0.071937,-0.040084,-0.200877,-0.978796,-0.007065,0.011912,-0.008600,3.177179,-5.167290,-23.145927,,,,,,,
1530638597.462477,-0.040874,0.203188,1.778742,0.059411,0.009993,0.071607,-0.040022,-0.201792,-0.978610,-0.012972,0.006633,-0.004468,3.168226,-5.160332,-22.979309,,,,,,,
1530638597.482446,-0.040996,0.204575,1.780221,0.081450,0.011107,0.069218,-0.040130,-0.203151,-0.978325,-0.015122,0.004741,0.010445,3.288385,-5.174889,-22.975685,,,,,,,
1530638597.502415,-0.041150,0.205921,1.781655,0.064682,0.004495,0.068288,-0.040269,-0.204468,-0.978045,-0.014464,0.000199,0.022997,3.272383,-5.241066,-22.931137,,,,,,,
1530638597.522383,-0.041459,0.206651,1.783034,0.028013,-0.006505,0.064313,-0.040566,-0.205183,-0.977883,-0.016808,-0.004656,0.024666,3.274183,-5.431465,-23.008209,,,,,,,
1530638597.542352,-0.041774,0.206642,1.784233,-0.013860,0.004612,0.055106,-0.040874,-0.205174,-0.977872,-0.020787,-0.007045,0.026562,3.345945,-5.429581,-23.009605,,,,,,,
1530638597.562321,-0.041893,0.205737,1.785278,-0.057865,0.001349,0.050163,-0.040997,-0.204289,-0.978052,-0.021457,-0.009090,0.017648,3.252134,-5.434616,-22.885872,,,,,,,
1530638597.582290,-0.042323,0.204337,1.786012,-0.072383,-0.018383,0.030812,-0.041430,-0.202918,-0.978319,-0.029309,-0.011300,0.004182,3.242460,-5.487968,-22.967377,,,,,,,
1530638597.602258,-0.042834,0.202993,1.786168,-0.064768,-0.022569,-0.002721,-0.041942,-0.201602,-0.978569,-0.032338,-0.012631,-0.003441,3.182714,-5.342896,-22.898018,,,,,,,
1530638597.622227,-0.043188,0.201806,1.785648,-0.059263,-0.019035,-0.035123,-0.042298,-0.200439,-0.978793,-0.027282,-0.011749,-0.009626,3.201380,-5.389038,-22.966499,,,,,,,
1530638597.642196,-0.043099,0.200566,1.784606,-0.074825,0.008715,-0.056393,-0.042222,-0.199224,-0.979044,-0.023620,-0.010127,-0.009603,3.267401,-5.035683,-22.798843,,,,,,,
1530638597.662165,-0.042560,0.198906,1.783269,-0.087368,0.017586,-0.061609,-0.041708,-0.197598,-0.979396,-0.010904,-0.005726,-0.022451,3.321039,-5.331268,-23.007385,,,,,,,
1530638597.682133,-0.042313,0.197456,1.782090,-0.065427,-0.002364,-0.051154,-0.041479,-0.196175,-0.979691,-0.004114,-0.005302,-0.025833,3.224211,-5.142960,-23.004868,,,,,,,
1530638597.702102,-0.042097,0.196578,1.781164,-0.036161,0.008586,-0.039549,-0.041274,-0.195315,-0.979872,-0.003480,-0.004850,-0.016451,3.265799,-5.240013,-22.714706,,,,,,,
1530638597.722071,-0.041575,0.196182,1.780353,-0.018346,0.031755,-0.038548,-0.040766,-0.194926,-0.979970,-0.002340,-0.009313,-0.003825,3.265764,-5.113327,-22.993736,,,,,,,
1530638597.742040,-0.040565,0.195602,1.779536,-0.040349,0.050549,-0.041459,-0.039780,-0.194357,-0.980124,0.000687,-0.009806,-0.004984,3.170771,-5.101898,-22.859634,,,,,,,
1530638597.762008,-0.039096,0.194619,1.778537,-0.054948,0.073809,-0.051973,-0.038348,-0.193392,-0.980372,0.000262,-0.005658,-0.011236,3.277437,-5.005898,-22.959625,,,,,,,
1530638597.781976,-0.036905,0.193348,1.777304,-0.071689,0.114702,-0.058079,-0.036209,-0.192145,-0.980698,0.003250,-0.003946,-0.013152,3.392580,-5.003166,-22.913322,,,,,,,
1530638597.801945,-0.033821,0.191928,1.776196,-0.069705,0.159870,-0.044933,-0.033194,-0.190752,-0.981077,0.012854,-0.000914,-0.013979,3.272356,-4.869728,-23.000473,,,,,,,
1530638597.821914,-0.030519,0.190857,1.775629,-0.041625,0.156350,-0.016130,-0.029960,-0.189700,-0.981385,0.018760,-0.002057,-0.015685,3.380152,-5.127884,-23.028419,,,,,,,
1530638597.841883,-0.027982,0.190665,1.775683,0.007457,0.106477,0.010066,-0.027471,-0.189512,-0.981494,0.010732,-0.002199,-0.009122,3.669809,-4.946411,-23.046562,,,,,,,
1530638597.861851,-0.026619,0.191030,1.775911,0.019030,0.061237,0.006489,-0.026132,-0.189871,-0.981461,-0.001670,-0.004267,0.002656,3.609777,-5.064713,-22.822960,,,,,,,
1530638597.881820,-0.025419,0.191182,1.775890,0.001297,0.066843,-0.005158,-0.024953,-0.190020,-0.981463,0.000829,-0.001341,0.007510,3.540926,-5.031754,-22.774368,,,,,,,
1530638597.901789,-0.023759,0.191147,1.775940,-0.000911,0.091039,0.007926,-0.023324,-0.189985,-0.981510,0.009469,-0.004306,0.006565,3.617849,-4.936745,-22.729431,,,,,,,
1530638597.921758,-0.021980,0.191161,1.776285,-0.001014,0.083223,0.020833,-0.021578,-0.189999,-0.981547,0.004488,-0.007496,0.007457,3.652159,-4.971298,-22.937035,,,,,,,
1530638597.941727,-0.021167,0.190923,1.776737,-0.020925,0.015891,0.020719,-0.020781,-0.189765,-0.981610,-0.005174,-0.006402,-0.002018,3.614878,-5.037849,-22.731644,,,,,,,
1530638597.961695,-0.021570,0.190646,1.776947,-0.002980,-0.023764,0.007395,-0.021178,-0.189493,-0.981654,-0.012682,-0.002874,-0.019430,3.661013,-4.996651,-22.929131,,,,,,,
1530638597.981664,-0.021646,0.190969,1.776996,0.024332,0.011598,0.000805,-0.021250,-0.189811,-0.981591,-0.011998,-0.002893,-0.021553,3.728872,-5.198517,-22.998711,,,,,,,
1530638598.001633,-0.020410,0.191768,1.777078,0.039982,0.086606,0.008546,-0.020034,-0.190594,-0.981464,-0.004181,-0.002704,-0.000393,3.717813,-5.304398,-22.944427,,,,,,,
1530638598.021602,-0.018809,0.192216,1.777501,0.012568,0.075448,0.027119,-0.018462,-0.191034,-0.981410,0.003157,-0.006521,0.013163,3.712042,-5.209770,-23.138672,,,,,,,
1530638598.041570,-0.018076,0.192265,1.778229,-0.000084,0.025709,0.036721,-0.017742,-0.191083,-0.981413,-0.002979,-0.009143,0.012328,3.667055,-5.441864,-23.029106,,,,,,,
1530638598.061539,-0.018457,0.192263,1.778918,0.003126,-0.026129,0.029964,-0.018116,-0.191081,-0.981407,-0.009975,-0.008931,0.005150,3.729116,-5.341835,-23.035851,,,,,,,
1530638598.081508,-0.019084,0.192398,1.779352,0.009524,-0.018314,0.016995,-0.018730,-0.191213,-0.981370,-0.013054,-0.008814,0.001511,3.632795,-5.122200,-22.976395,,,,,,,
1530638598.101477,-0.018780,0.192427,1.779598,-0.010371,0.035818,0.012077,-0.018433,-0.191242,-0.981370,-0.008774,-0.007794,0.010545,3.799654,-5.166504,-23.150795,,,,,,,
1530638598.121445,-0.017885,0.191848,1.779948,-0.038745,0.044612,0.018886,-0.017556,-0.190674,-0.981496,-0.007209,-0.009171,0.001608,3.814692,-5.227142,-22.834724,,,,,,,
1530638598.141414,-0.017404,0.191238,1.780227,-0.022969,0.013729,0.014259,-0.017086,-0.190075,-0.981621,-0.007298,-0.010212,-0.009880,3.746660,-5.057014,-22.789467,,,,,,,
1530638598.161383,-0.017631,0.191080,1.780498,-0.000937,-0.022705,0.013848,-0.017309,-0.189919,-0.981647,-0.005366,-0.009208,-0.009900,3.716974,-4.936722,-22.993698,,,,,,,
1530638598.181353,-0.018288,0.191120,1.780689,0.001214,-0.029284,0.007320,-0.017954,-0.189959,-0.981628,-0.008932,-0.009382,-0.008332,3.700781,-5.055870,-23.008217,,,,,,,
1530638598.201322,-0.018501,0.191071,1.780738,-0.006064,0.006102,-0.001058,-0.018163,-0.189910,-0.981633,-0.009211,-0.008866,-0.006251,3.760485,-4.922371,-22.991936,,,,,,,
1530638598.221289,-0.017858,0.190781,1.780750,-0.023918,0.040312,0.001457,-0.017533,-0.189626,-0.981700,-0.003158,-0.007868,-0.001577,3.766253,-4.850594,-22.939018,,,,,,,
1530638598.241259,-0.016927,0.190141,1.780734,-0.033343,0.050264,-0.000554,-0.016621,-0.188997,-0.981837,-0.002467,-0.008742,-0.007039,3.806391,-5.309021,-22.773964,,,,,,,
1530638598.261228,-0.016151,0.189754,1.780715,-0.009216,0.025972,-0.000931,-0.015860,-0.188618,-0.981923,0.002951,-0.007412,-0.011394,3.777903,-4.970146,-22.689560,,,,,,,
1530638598.281197,-0.016314,0.189961,1.780713,0.021202,-0.022614,-0.000406,-0.016020,-0.188821,-0.981881,0.001769,-0.006247,-0.008186,3.697710,-4.988586,-22.811096,,,,,,,
1530638598.301164,-0.017041,0.190471,1.780801,0.023223,-0.038136,0.009201,-0.016732,-0.189321,-0.981773,0.000588,-0.006464,-0.002129,3.637789,-4.833817,-22.800735,,,,,,,
1530638598.321134,-0.017579,0.190726,1.781002,0.005371,-0.013861,0.011666,-0.017259,-0.189572,-0.981715,-0.002837,-0.006031,-0.002355,3.772123,-4.931473,-22.894043,,,,,,,
1530638598.341103,-0.017377,0.190478,1.781218,-0.017686,0.029219,0.008883,-0.017062,-0.189329,-0.981766,-0.005948,-0.005892,-0.004349,3.677568,-4.933151,-23.126320,,,,,,,
1530638598.361072,-0.016634,0.190054,1.781402,-0.021901,0.036932,0.011121,-0.016334,-0.188912,-0.981858,-0.001137,-0.006080,-0.006270,3.816935,-5.032318,-22.905823,,,,,,,
1530638598.381041,-0.016364,0.189936,1.781565,0.005403,0.003831,0.007438,-0.016069,-0.188796,-0.981885,-0.003539,-0.006090,-0.009738,3.796148,-5.113647,-22.649521,,,,,,,
1530638598.401009,-0.016609,0.190354,1.781610,0.027484,-0.019311,0.000619,-0.016308,-0.189206,-0.981802,-0.000767,-0.005587,-0.008143,3.789213,-4.987709,-22.639580,,,,,,,
1530638598.420978,-0.016916,0.190886,1.781804,0.021067,-0.007271,0.015847,-0.016608,-0.189729,-0.981696,0.001884,-0.004622,0.002875,3.690115,-4.941994,-22.837822,,,,,,,
1530638598.440947,-0.016905,0.190814,1.782231,-0.020934,0.020299,0.021819,-0.016597,-0.189659,-0.981710,-0.004185,-0.006981,0.006597,3.709860,-5.060471,-22.743874,,,,,,,
1530638598.460916,-0.016040,0.190131,1.782582,-0.035565,0.058991,0.014612,-0.015750,-0.188988,-0.981853,-0.009717,-0.007454,-0.000675,3.815210,-4.958496,-22.684898,,,,,,,
1530638598.480885,-0.015063,0.189406,1.782753,-0.032334,0.038084,0.004771,-0.014793,-0.188276,-0.982005,-0.003532,-0.007998,-0.004949,3.817682,-4.978607,-22.835945,,,,,,,
1530638598.500853,-0.014594,0.189007,1.782927,-0.014562,0.017053,0.012028,-0.014333,-0.187884,-0.982087,-0.000864,-0.005308,-0.002807,3.856955,-4.957146,-22.804314,,,,,,,
1530638598.520822,-0.014808,0.188939,1.783282,0.003205,-0.020543,0.020284,-0.014544,-0.187817,-0.982096,-0.001143,-0.006412,-0.011602,3.717951,-4.899162,-22.653252,,,,,,,
1530638598.540791,-0.015288,0.189463,1.783729,0.036769,-0.010609,0.018892,-0.015014,-0.188331,-0.981991,-0.010926,-0.005745,-0.010700,3.782415,-4.831291,-22.642273,,,,,,,
1530638598.560760,-0.015374,0.190145,1.783935,0.023266,0.003857,0.002932,-0.015097,-0.189001,-0.981861,-0.011606,-0.007532,0.003605,3.688429,-4.791496,-22.677956,,,,,,,
1530638598.580728,-0.015122,0.190068,1.783907,-0.017586,0.019366,-0.003029,-0.014849,-0.188925,-0.981879,-0.003447,-0.005762,0.003684,3.839960,-4.910919,-22.676941,,,,,,,
1530638598.600697,-0.014588,0.189727,1.783977,-0.014550,0.036938,0.009965,-0.014326,-0.188590,-0.981951,0.004164,-0.009057,0.002932,3.756556,-4.701508,-22.705345,,,,,,,
1530638598.620666,-0.013913,0.189653,1.784416,-0.001056,0.027984,0.027032,-0.013663,-0.188518,-0.981975,0.005500,-0.014699,0.011180,3.969530,-5.033859,-22.775040,,,,,,,
1530638598.640635,-0.014182,0.189377,1.784850,-0.024019,-0.030434,0.015129,-0.013928,-0.188247,-0.982023,-0.008518,-0.016831,0.011686,3.892660,-5.019630,-22.857323,,,,,,,
1530638598.660604,-0.015030,0.188608,1.784739,-0.046850,-0.041265,-0.013796,-0.014763,-0.187492,-0.982155,-0.011787,-0.010094,-0.001655,3.727102,-4.726273,-22.844498,,,,,,,
1530638598.680572,-0.015330,0.187618,1.784455,-0.046902,-0.002667,-0.008215,-0.015061,-0.186519,-0.982336,-0.000930,-0.006337,-0.012323,3.749872,-4.872803,-22.686081,,,,,,,
1530638598.700541,-0.014901,0.186969,1.784515,-0.025046,0.034725,0.011145,-0.014640,-0.185881,-0.982463,0.003517,-0.007051,-0.014333,3.867174,-4.797661,-22.736336,,,,,,,
1530638598.720510,-0.014072,0.186897,1.784913,0.004184,0.042333,0.027044,-0.013826,-0.185811,-0.982488,0.005556,-0.009304,-0.004542,3.959497,-4.838463,-22.672523,,,,,,,
1530638598.740479,-0.014007,0.187145,1.785575,0.015671,-0.004085,0.034250,-0.013762,-0.186055,-0.982443,0.005980,-0.011318,0.004828,3.828234,-4.830589,-22.731667,,,,,,,
1530638598.760447,-0.014579,0.187374,1.786335,0.008317,-0.028383,0.036366,-0.014323,-0.186280,-0.982392,-0.004491,-0.012619,0.007859,3.896666,-4.992081,-22.682014,,,,,,,
1530638598.780415,-0.015455,0.187257,1.786936,-0.012569,-0.036030,0.025766,-0.015184,-0.186165,-0.982401,-0.010176,-0.012383,0.005457,3.715593,-5.108940,-22.693130,,,,,,,
1530638598.800384,-0.015850,0.186829,1.787312,-0.030292,0.000499,0.012110,-0.015574,-0.185744,-0.982475,-0.015051,-0.009782,0.001762,3.830698,-4.911804,-22.604797,,,,,,,
1530638598.820353,-0.015199,0.186075,1.787405,-0.043857,0.044725,0.002763,-0.014936,-0.185003,-0.982624,-0.009402,-0.008784,0.000386,3.810717,-4.875862,-22.484863,,,,,,,
1530638598.840322,-0.014428,0.185160,1.787469,-0.045977,0.031456,0.005959,-0.014181,-0.184104,-0.982805,-0.003382,-0.006982,-0.002928,3.909449,-4.975784,-22.579514,,,,,,,
1530638598.860291,-0.014240,0.184520,1.787622,-0.026078,-0.003903,0.009888,-0.013998,-0.183475,-0.982925,-0.002847,-0.007321,-0.002442,3.981295,-4.927048,-22.507683,,,,,,,
1530638598.880259,-0.014790,0.184152,1.787726,-0.019718,-0.027034,0.002159,-0.014539,-0.183113,-0.982984,-0.005984,-0.009666,0.004987,3.848925,-4.772232,-22.673782,,,,,,,
1530638598.900228,-0.015130,0.183618,1.787697,-0.033321,-0.010442,-0.001930,-0.014875,-0.182588,-0.983077,-0.003252,-0.008376,0.002486,3.863806,-5.133919,-22.831512,,,,,,,
1530638598.920197,-0.015039,0.182781,1.787682,-0.044925,0.021521,0.005900,-0.014788,-0.181765,-0.983231,-0.001539,-0.009077,-0.000595,4.040773,-5.143280,-22.703560,,,,,,,
1530638598.940166,-0.014364,0.181943,1.787895,-0.042895,0.039131,0.013510,-0.014127,-0.180941,-0.983392,0.001431,-0.010175,0.002741,3.813158,-4.874962,-22.679436,,,,,,,
1530638598.960135,-0.013928,0.181095,1.788200,-0.042918,0.018135,0.016641,-0.013700,-0.180107,-0.983552,0.001493,-0.012719,0.005265,3.901705,-4.747932,-22.901970,,,,,,,
1530638598.980103,-0.013988,0.180352,1.788630,-0.032510,-0.010644,0.027179,-0.013761,-0.179376,-0.983684,0.002714,-0.013159,0.005550,3.996439,-4.917603,-22.760521,,,,,,,
1530638599.000072,-0.014584,0.179806,1.789193,-0.024114,-0.028308,0.027010,-0.014349,-0.178839,-0.983774,-0.004588,-0.015253,0.005899,3.790396,-4.683426,-22.677765,,,,,,,
1530638599.020041,-0.015157,0.179274,1.789635,-0.031379,-0.017200,0.017433,-0.014914,-0.178315,-0.983860,-0.010187,-0.014861,0.005696,3.940245,-4.647408,-22.879715,,,,,,,
1530638599.040010,-0.015116,0.178324,1.789907,-0.058628,0.011530,0.014623,-0.014876,-0.177381,-0.984030,-0.012331,-0.014758,-0.003550,3.924555,-4.562920,-22.821213,,,,,,,
1530638599.059979,-0.014801,0.177125,1.789998,-0.064818,0.017141,0.001771,-0.014569,-0.176200,-0.984246,-0.007678,-0.017586,-0.004538,3.880404,-4.724258,-22.988228,,,,,,,
1530638599.079947,-0.014551,0.175824,1.789894,-0.069974,0.015009,-0.008972,-0.014326,-0.174919,-0.984479,-0.005541,-0.020576,-0.004825,3.952452,-4.813812,-22.911537,,,,,,,
1530638599.099916,-0.013688,0.174144,1.789582,-0.096122,0.057030,-0.018191,-0.013480,-0.173266,-0.984783,0.000190,-0.023863,-0.015599,3.934717,-4.623688,-22.898262,,,,,,,
1530638599.119885,-0.012498,0.172147,1.789191,-0.102405,0.053727,-0.019220,-0.012313,-0.171298,-0.985142,0.005950,-0.021863,-0.028362,4.106035,-4.642303,-22.702118,,,,,,,
1530638599.139854,-0.011701,0.170397,1.788790,-0.078279,0.027228,-0.019607,-0.011531,-0.169573,-0.985450,0.004466,-0.019132,-0.041756,4.004591,-4.631165,-22.554230,,,,,,,
1530638599.159823,-0.010984,0.169535,1.788388,-0.024822,0.040439,-0.016878,-0.010827,-0.168724,-0.985604,0.007317,-0.015281,-0.038383,3.990049,-4.658913,-22.657898,,,,,,,
1530638599.179792,-0.010267,0.169757,1.788204,0.028551,0.037017,-0.003443,-0.010119,-0.168943,-0.985574,0.002734,-0.013796,-0.026908,4.121851,-4.769676,-22.825401,,,,,,,
1530638599.199760,-0.009358,0.170721,1.788151,0.051614,0.039211,-0.002601,-0.009222,-0.169893,-0.985419,0.001180,-0.012754,-0.010430,4.059332,-4.548775,-22.817207,,,,,,,
1530638599.219729,-0.008662,0.171533,1.788139,0.030598,0.038075,0.003016,-0.008534,-0.170693,-0.985287,-0.000972,-0.010048,0.006863,4.058619,-4.375916,-22.996277,,,,,,,
1530638599.239698,-0.007878,0.171886,1.788266,0.010625,0.040251,0.008628,-0.007762,-0.171041,-0.985233,-0.001668,-0.009303,0.006290,4.180113,-4.594940,-22.786491,,,,,,,
1530638599.259667,-0.007271,0.172273,1.788473,0.023206,0.020370,0.009476,-0.007164,-0.171422,-0.985172,-0.008812,-0.004939,0.002734,3.996241,-4.407410,-22.674423,,,,,,,
1530638599.279636,-0.007039,0.172822,1.788586,0.025341,0.008257,0.005079,-0.006934,-0.171963,-0.985079,-0.011666,-0.002140,0.009646,4.137770,-4.707184,-22.677399,,,,,,,
1530638599.299604,-0.007065,0.173169,1.788632,0.007548,0.000564,0.000915,-0.006960,-0.172305,-0.985019,-0.009779,-0.000791,0.017063,4.069693,-4.600945,-22.628403,,,,,,,
1530638599.319573,-0.006790,0.173156,1.788797,-0.007243,0.019244,0.014109,-0.006688,-0.172292,-0.985023,-0.003474,-0.001277,0.020714,4.221201,-4.428864,-22.616745,,,,,,,
1530638599.339542,-0.006329,0.172802,1.789299,-0.024157,0.030176,0.030520,-0.006235,-0.171943,-0.985087,-0.006201,-0.004967,0.026744,4.278124,-4.733345,-22.497032,,,,,,,
1530638599.359511,-0.006239,0.171973,1.789787,-0.051284,-0.007238,0.014450,-0.006147,-0.171127,-0.985230,-0.015628,-0.006104,0.018998,4.233500,-4.585503,-22.612587,,,,,,,
1530638599.379480,-0.006868,0.170929,1.789720,-0.047920,-0.036864,-0.011613,-0.006768,-0.170098,-0.985404,-0.016044,-0.001991,0.000709,4.112963,-4.552803,-22.473534,,,,,,,
1530638599.399449,-0.007410,0.170236,1.789501,-0.028051,-0.018148,-0.005263,-0.007303,-0.169415,-0.985518,-0.001822,-0.000324,0.002913,4.084280,-4.446381,-22.458931,,,,,,,
1530638599.419417,-0.007325,0.169696,1.789814,-0.032527,0.021362,0.028410,-0.007220,-0.168883,-0.985610,0.003481,-0.003023,0.011397,4.136766,-4.562737,-22.573532,,,,,,,
1530638599.439386,-0.006816,0.168765,1.790691,-0.054714,0.039999,0.048149,-0.006719,-0.167965,-0.985770,-0.000758,-0.008640,0.008429,4.178137,-4.571655,-22.580666,,,,,,,
1530638599.459355,-0.006022,0.167581,1.791720,-0.064164,0.053240,0.049395,-0.005937,-0.166797,-0.985973,-0.001738,-0.014401,0.003002,4.217566,-4.663208,-22.680504,,,,,,,
1530638599.479324,-0.005181,0.166099,1.792809,-0.085217,0.046555,0.059294,-0.005110,-0.165336,-0.986224,0.001692,-0.018639,-0.005750,4.224314,-4.565422,-22.408165,,,,,,,
1530638599.499293,-0.004610,0.164135,1.794132,-0.106227,0.036596,0.063778,-0.004548,-0.163399,-0.986550,-0.006698,-0.018028,-0.020271,4.096354,-4.393402,-22.516273,,,,,,,
1530638599.519262,-0.003694,0.162122,1.795159,-0.094539,0.067636,0.044393,-0.003645,-0.161413,-0.986880,-0.011827,-0.018488,-0.027356,4.171339,-4.233345,-22.513893,,,,,,,
1530638599.539230,-0.002302,0.160779,1.795869,-0.055614,0.080977,0.028944,-0.002272,-0.160087,-0.987100,-0.005983,-0.023583,-0.023703,4.313520,-4.354424,-22.470955,,,,,,,
1530638599.559199,-0.001451,0.159997,1.796277,-0.036610,0.024771,0.014447,-0.001433,-0.159315,-0.987227,-0.001009,-0.025179,-0.018419,4.353251,-4.176537,-22.466156,,,,,,,
1530638599.579168,-0.001585,0.159400,1.796402,-0.028131,-0.014903,0.004460,-0.001565,-0.158726,-0.987321,0.000573,-0.026393,-0.016280,4.353422,-4.146362,-22.440796,,,,,,,
1530638599.599137,-0.001775,0.159014,1.796472,-0.015524,-0.001638,0.001151,-0.001752,-0.158345,-0.987382,-0.002581,-0.024593,-0.017760,4.351885,-4.166054,-22.545090,,,,,,,
1530638599.619106,-0.001355,0.158758,1.796444,-0.013433,0.033686,0.001304,-0.001338,-0.158092,-0.987424,-0.001851,-0.024098,-0.014331,4.274256,-4.183372,-22.615463,,,,,,,
1530638599.639075,-0.000518,0.158362,1.796521,-0.020822,0.046897,0.006838,-0.000512,-0.157701,-0.987487,0.000557,-0.020079,-0.015580,4.437056,-4.293922,-22.616104,,,,,,,
1530638599.659043,0.000450,0.158345,1.796753,0.015813,0.047932,0.015078,0.000444,-0.157684,-0.987489,-0.000581,-0.017700,-0.018706,4.238272,-4.132149,-22.556389,,,,,,,
1530638599.679012,0.001038,0.159168,1.797013,0.049397,0.026965,0.012464,0.001025,-0.158497,-0.987359,-0.003634,-0.020702,-0.001990,4.285975,-4.062263,-22.464180,,,,,,,
1530638599.698981,0.001401,0.160139,1.797357,0.037794,0.011454,0.021140,0.001383,-0.159455,-0.987204,-0.003687,-0.019164,0.013571,4.322954,-4.270615,-22.529045,,,,,,,
1530638599.718950,0.001477,0.160550,1.797898,0.002074,0.009203,0.029059,0.001458,-0.159862,-0.987138,-0.003808,-0.016408,0.016069,4.413355,-4.288483,-22.537193,,,,,,,
1530638599.738919,0.001752,0.160134,1.798536,-0.034654,0.032379,0.031721,0.001729,-0.159451,-0.987204,-0.015508,-0.015110,0.011679,4.395384,-4.164268,-22.217575,,,,,,,
1530638599.758888,0.002483,0.159399,1.799121,-0.038791,0.039055,0.024244,0.002452,-0.158725,-0.987320,-0.017634,-0.013547,0.002960,4.387705,-4.112961,-22.360710,,,,,,,
1530638599.778856,0.002860,0.158788,1.799420,-0.022939,0.013759,0.009934,0.002824,-0.158122,-0.987416,-0.018022,-0.008947,-0.002697,4.596918,-4.202332,-22.364250,,,,,,,
1530638599.798825,0.002716,0.158880,1.799581,0.017968,-0.014952,0.009356,0.002682,-0.158212,-0.987401,-0.011440,-0.004279,-0.003672,4.425638,-4.096428,-22.419014,,,,,,,
1530638599.818794,0.002345,0.159443,1.799825,0.025250,-0.011695,0.016849,0.002315,-0.158769,-0.987313,-0.008083,-0.004882,0.012597,4.394381,-3.982384,-22.663361,,,,,,,
1530638599.838763,0.002432,0.159632,1.800313,-0.004213,0.029082,0.028145,0.002401,-0.158955,-0.987283,-0.008902,-0.003506,0.022180,4.484510,-4.185760,-22.411156,,,,,,,
1530638599.858732,0.003507,0.158967,1.800746,-0.049235,0.074427,0.018053,0.003463,-0.158299,-0.987385,-0.012206,-0.007381,0.019200,4.575445,-4.188263,-22.255547,,,,,,,
1530638599.878701,0.005192,0.157751,1.800999,-0.063877,0.092130,0.012904,0.005127,-0.157097,-0.987570,-0.011368,-0.006950,0.014196,4.692812,-4.238525,-22.409172,,,,,,,
1530638599.898669,0.006766,0.156379,1.801322,-0.066014,0.072223,0.018223,0.006683,-0.155742,-0.987775,-0.010131,-0.007313,0.008420,4.701174,-4.065247,-22.414131,,,,,,,
1530638599.918638,0.007834,0.155176,1.801875,-0.053558,0.061069,0.034214,0.007739,-0.154554,-0.987954,0.003766,-0.009050,0.013009,4.710413,-4.029404,-22.429276,,,,,,,
1530638599.938607,0.008570,0.154215,1.802986,-0.052773,0.027722,0.067481,0.008468,-0.153604,-0.988096,-0.006484,0.000482,0.001509,4.685492,-4.200745,-22.252815,,,,,,,
1530638599.958576,0.006975,0.152468,1.805304,-0.118332,-0.087543,0.136646,0.006894,-0.151878,-0.988375,0.003421,-0.015480,-0.001798,4.673498,-4.028160,-22.125832,,,,,,,
1530638599.978545,0.005977,0.150090,1.808110,-0.114094,-0.016843,0.129389,0.005909,-0.149528,-0.988740,-0.017781,-0.022531,-0.022979,4.673658,-4.012932,-22.293724,,,,,,,
1530638599.998514,0.004786,0.147989,1.809717,-0.098757,-0.060458,0.050287,0.004734,-0.147449,-0.989058,-0.038166,-0.012967,-0.024949,4.675753,-3.889000,-22.253471,,,,,,,
1530638600.018482,0.003459,0.146325,1.810185,-0.082733,-0.067943,0.014491,0.003422,-0.145803,-0.989308,-0.020939,-0.006067,-0.031154,4.631220,-3.770470,-22.231979,,,,,,,
1530638600.038451,0.002442,0.144685,1.810413,-0.082716,-0.028181,0.011449,0.002417,-0.144181,-0.989548,-0.015387,-0.007934,-0.032058,4.675142,-3.785858,-22.147293,,,,,,,
1530638600.058420,0.003115,0.143481,1.810720,-0.048168,0.071130,0.015868,0.003083,-0.142989,-0.989719,-0.018601,-0.006730,-0.029736,4.637129,-3.733864,-22.051399,,,,,,,
1530638600.078389,0.005018,0.142859,1.810848,-0.029131,0.101072,-0.004682,0.004967,-0.142373,-0.989801,-0.024453,-0.009635,-0.025184,4.707903,-3.719200,-22.168724,,,,,,,
1530638600.098358,0.006552,0.142242,1.810277,-0.028803,0.057185,-0.043723,0.006486,-0.141763,-0.989879,-0.021027,-0.008475,-0.025929,4.687273,-3.574379,-22.149155,,,,,,,
1530638600.118327,0.007392,0.142037,1.809110,0.003873,0.028610,-0.063622,0.007317,-0.141560,-0.989903,-0.017693,-0.011746,-0.018169,4.819548,-3.549690,-22.074646,,,,,,,
1530638600.138296,0.008038,0.142628,1.807619,0.042775,0.019851,-0.075945,0.007957,-0.142145,-0.989814,-0.031318,0.008127,0.000175,4.774080,-3.684181,-22.045326,,,,,,,
1530638600.158264,0.008241,0.143949,1.806423,0.083412,-0.007988,-0.043077,0.008156,-0.143453,-0.989624,-0.043098,0.028707,0.015548,4.811445,-3.479607,-21.966301,,,,,,,
1530638600.178233,0.007366,0.146230,1.806194,0.135449,-0.061338,0.006802,0.007288,-0.145709,-0.989301,-0.090936,0.052326,0.023847,4.765196,-3.469749,-21.890038,,,,,,,
1530638600.198202,0.005391,0.149954,1.807327,0.224895,-0.100638,0.098410,0.005330,-0.149392,-0.988764,-0.157934,0.109475,0.035501,4.767359,-3.710022,-21.788483,,,,,,,
1530638600.218171,0.003202,0.156219,1.811404,0.370197,-0.048971,0.282618,0.003163,-0.155585,-0.987818,-0.230183,0.174460,0.061472,4.871336,-3.788124,-21.719986,,,,,,,
1530638600.238140,0.002199,0.165063,1.821367,0.471291,0.050263,0.614202,0.002169,-0.164315,-0.986406,-0.282900,0.208352,0.098787,4.791735,-3.954140,-21.888435,,,,,,,
1530638600.258109,-0.001738,0.173724,1.835339,0.414908,-0.203243,0.719278,-0.001712,-0.172852,-0.984946,-0.329846,0.218231,0.125861,4.915022,-4.200104,-21.929008,,,,,,,
1530638600.278077,-0.013869,0.182550,1.851699,0.483026,-0.634795,0.864229,-0.013639,-0.181538,-0.983289,-0.358325,0.249104,0.176603,4.634981,-4.374535,-21.866394,,,,,,,
1530638600.298046,-0.041580,0.192139,1.872978,0.476616,-1.653556,1.161372,-0.040804,-0.190959,-0.980750,-0.369017,0.215846,0.193518,4.277567,-4.863937,-22.135902,,,,,,,
1530638600.318015,-0.091242,0.198649,1.899095,0.359290,-2.493422,1.295544,-0.089323,-0.197345,-0.976256,-0.390001,0.213931,0.319915,3.353933,-5.013077,-22.213760,,,,,,,
1530638600.337984,-0.151755,0.200601,1.925300,0.183675,-2.912449,1.237154,-0.148141,-0.199259,-0.968685,-0.316183,0.257745,0.381816,2.326387,-5.432663,-22.243652,,,,,,,
1530638600.357953,-0.219619,0.198462,1.949909,0.088599,-3.312910,1.203882,-0.213582,-0.197162,-0.956823,-0.175609,0.297687,0.384618,0.841860,-5.576591,-21.965904,,,,,,,
1530638600.377922,-0.297218,0.193122,1.975892,0.051480,-3.816509,1.395983,-0.287417,-0.191924,-0.938380,-0.011426,0.309218,0.394343,-0.701796,-5.599167,-21.920265,,,,,,,
1530638600.397891,-0.383673,0.181277,2.006482,-0.149706,-4.145794,1.770784,-0.368196,-0.180285,-0.912102,0.140870,0.374453,0.418083,-2.387625,-5.479294,-21.733559,,,,,,,
1530638600.417859,-0.473443,0.156337,2.041043,-0.613232,-4.195590,2.288865,-0.450393,-0.155701,-0.879149,0.349746,0.358612,0.322341,-4.183153,-4.772079,-20.770142,,,,,,,
1530638600.437828,-0.564554,0.114082,2.081684,-0.830674,-4.334557,3.238537,-0.531561,-0.113834,-0.839336,0.648321,0.323963,-0.093678,-5.555500,-3.858810,-19.793526,,,,,,,
1530638600.457797,-0.655805,0.061717,2.138648,-0.265226,-4.314287,4.111597,-0.608637,-0.061678,-0.791048,0.475534,0.446978,-0.374662,-6.490074,-3.089119,-18.904831,,,,,,,
1530638600.477766,-0.742759,0.007956,2.209526,0.514012,-4.176709,4.613015,-0.676301,-0.007955,-0.736582,0.363710,0.337210,-0.481314,-7.318188,-2.703217,-18.497787,,,,,,,
1530638600.497735,-0.820920,-0.047405,2.289588,1.020476,-3.841936,4.866998,-0.730951,0.047387,-0.680783,0.248254,0.181312,-0.432331,-8.081533,-2.491058,-17.994133,,,,,,,
1530638600.517704,-0.885947,-0.107252,2.370844,1.094164,-3.410905,4.950256,-0.770064,0.107046,-0.628922,0.152739,0.064523,-0.407348,-8.946604,-1.980034,-17.435211,,,,,,,
1530638600.537672,-0.937944,-0.172522,2.449595,1.111670,-2.982790,4.979096,-0.794374,0.171668,-0.582667,-0.015990,-0.067694,-0.488577,-9.558369,-1.617439,-16.872047,,,,,,,
1530638600.557641,-0.974489,-0.237632,2.527971,1.378550,-2.398577,4.771989,-0.804163,0.235402,-0.545809,-0.279684,-0.212895,-0.507414,-10.275389,-1.188614,-16.377525,,,,,,,
1530638600.577610,-0.994451,-0.294105,2.606425,1.732183,-1.821904,4.214484,-0.802458,0.289884,-0.521564,-0.470339,-0.449720,-0.428723,-10.798016,-0.877693,-15.849831,,,,,,,
1530638600.597579,-1.002916,-0.334809,2.679976,1.843218,-1.436215,3.190565,-0.796231,0.328588,-0.507982,-0.659884,-0.508825,-0.223158,-11.439680,-0.550255,-15.468819,,,,,,,
1530638600.617548,-1.006467,-0.358909,2.738434,1.554145,-1.002510,2.106427,-0.791108,0.351253,-0.500769,-0.671493,-0.569515,-0.115701,-11.717627,-0.242500,-15.336403,,,,,,,
1530638600.637517,-1.005530,-0.370939,2.781804,1.317238,-0.571937,1.312930,-0.787013,0.362491,-0.499210,-0.602132,-0.572238,-0.064404,-11.915947,-0.386940,-15.148552,,,,,,,
1530638600.657485,-1.002622,-0.372977,2.814391,1.175574,-0.441650,0.677658,-0.784933,0.364390,-0.501098,-0.510950,-0.526926,-0.028794,-11.949425,-0.551430,-14.921906,,,,,,,
1530638600.677454,-1.003643,-0.368242,2.840006,1.116463,-0.575092,0.342224,-0.786891,0.359976,-0.501218,-0.383626,-0.452703,0.034070,-12.107672,-0.815521,-14.647430,,,,,,,
1530638600.697423,-1.011289,-0.359239,2.861184,1.044777,-0.891806,0.010356,-0.793415,0.351562,-0.496887,-0.291607,-0.311965,0.121994,-12.314074,-0.850098,-14.215202,,,,,,,
1530638600.717392,-1.029027,-0.347068,2.876039,0.812699,-1.293224,-0.197259,-0.805710,0.340143,-0.484907,-0.148987,-0.312417,0.191801,-12.522448,-1.222229,-13.703964,,,,,,,
1530638600.737361,-1.054168,-0.338713,2.886384,0.528523,-1.503791,-0.064742,-0.820088,0.332273,-0.465887,-0.095028,-0.239088,0.198110,-12.611929,-1.440544,-13.504768,,,,,,,
1530638600.757330,-1.081308,-0.334548,2.889172,-0.077753,-1.191470,-0.182961,-0.833643,0.328342,-0.444107,-0.097220,-0.144306,0.546692,-12.917742,-1.375015,-13.048203,,,,,,,
1530638600.777299,-1.099796,-0.340694,2.877085,-0.917665,-0.567781,0.179523,-0.839896,0.334141,-0.427696,-0.083200,-0.327931,0.272713,-12.887402,-1.404678,-12.847435,,,,,,,
1530638600.797267,-1.120376,-0.348657,2.857316,-0.976149,-0.787028,-0.359090,-0.846097,0.341636,-0.409151,-0.327838,-0.112190,-0.028990,-13.026510,-1.099503,-12.250237,,,,,,,
1530638600.817236,-1.142153,-0.336347,2.836249,-0.390934,-0.547970,-1.273372,-0.858566,0.330041,-0.392348,-0.166794,-0.062936,-0.036485,-12.994650,-1.564148,-11.896011,,,,,,,
1530638600.837205,-1.150115,-0.312909,2.820176,-0.246083,0.027339,-1.304503,-0.868486,0.307828,-0.388553,0.150240,0.176074,0.081515,-12.927452,-1.623222,-11.645592,,,,,,,
1530638600.857174,-1.155079,-0.301986,2.802381,-0.692519,-0.039437,-0.566666,-0.873429,0.297417,-0.385572,0.258591,0.366768,0.293424,-12.798855,-1.689980,-11.604713,,,,,,,
1530638600.877143,-1.164624,-0.302464,2.788542,-0.543204,-0.493178,-0.090503,-0.876939,0.297873,-0.377161,0.375184,0.386224,0.453074,-12.739996,-1.898468,-11.477501,,,,,,,
1530638600.897112,-1.187978,-0.317580,2.783204,-0.675480,-1.490761,0.981383,-0.881229,0.312269,-0.354857,0.416080,0.369814,0.518599,-12.810631,-1.837318,-10.786934,,,,,,,
1530638600.917081,-1.233546,-0.342253,2.766049,-1.462145,-1.854111,0.882323,-0.888936,0.335610,-0.311702,0.108541,0.364555,0.291972,-12.950388,-1.594765,-10.258377,,,,,,,
1530638600.937049,-1.260887,-0.372468,2.737690,-1.826470,-0.193574,1.023637,-0.887060,0.363915,-0.284061,-0.184794,0.513038,-0.131574,-13.056015,-0.995575,-10.050308,,,,,,,
1530638600.957018,-1.256756,-0.398528,2.709275,-1.467849,1.144036,0.736146,-0.876559,0.388063,-0.284696,-0.160550,0.334365,-0.483279,-12.699009,-0.450439,-10.226822,,,,,,,
1530638600.976987,-1.236219,-0.421797,2.696359,-0.559786,1.207249,1.130134,-0.861764,0.409401,-0.299590,0.018609,0.365272,-0.426347,-12.526510,-0.221924,-10.597763,,,,,,,
1530638600.996956,-1.212300,-0.454939,2.705714,-0.050347,0.804300,2.066462,-0.841180,0.439407,-0.315180,0.158379,0.352860,0.008203,-12.388390,0.105064,-10.607529,,,,,,,
1530638601.016926,-1.199774,-0.499819,2.723383,-0.142621,-0.029725,2.472183,-0.817951,0.479266,-0.318215,-0.088467,0.287549,0.199914,-12.257986,0.991508,-10.872879,,,,,,,
1530638601.036895,-1.201429,-0.548088,2.735354,-0.500418,-0.591987,2.382698,-0.795957,0.521056,-0.308143,-0.292025,0.270203,-0.069909,-12.319824,1.692619,-10.701263,,,,,,,
1530638601.056862,-1.212571,-0.588964,2.741527,-0.464605,-0.748612,1.723660,-0.778732,0.555500,-0.291540,-0.656265,-0.020603,-0.273416,-12.224669,2.194298,-10.776268,,,,,,,
1530638601.076832,-1.208514,-0.614786,2.745205,-0.198229,0.890948,1.037389,-0.763872,0.576784,-0.289516,-0.839613,-0.241624,-0.149616,-12.109602,2.509941,-11.016159,,,,,,,
1530638601.096801,-1.166148,-0.632072,2.747342,-0.328517,2.454650,0.644033,-0.741648,0.590818,-0.317636,-0.892522,-0.430600,-0.041968,-11.605507,2.957664,-11.702774,,,,,,,
1530638601.116770,-1.123450,-0.643375,2.743260,-0.303352,2.046797,0.396971,-0.721347,0.599899,-0.346092,-0.459134,-0.262970,-0.015236,-11.328718,3.084511,-12.227341,,,,,,,
1530638601.136739,-1.078725,-0.636151,2.750262,1.051766,2.174921,-0.794609,-0.708953,0.594103,-0.380036,-0.172822,0.359968,0.101181,-10.971945,3.020432,-12.732292,,,,,,,
1530638601.156708,-1.030732,-0.590264,2.769056,2.011672,1.428835,-1.980794,-0.712551,0.556580,-0.427187,0.460125,0.223174,0.109835,-10.601255,2.261902,-13.490982,,,,,,,
1530638601.176677,-1.018047,-0.541349,2.780546,1.441917,-0.249962,-1.512581,-0.729392,0.515292,-0.449957,0.878363,-0.354587,0.228110,-10.919548,1.548164,-13.535141,,,,,,,
1530638601.196645,-1.006918,-0.527145,2.798843,0.766016,0.791279,0.718168,-0.730451,0.503068,-0.461912,0.450193,-0.673478,0.355375,-10.642612,1.173439,-13.827202,,,,,,,
1530638601.216614,-0.953262,-0.557330,2.821681,-0.694933,2.054862,2.122510,-0.691929,0.528922,-0.491402,-0.011853,-0.201026,-0.664832,-9.983685,1.768456,-14.290169,,,,,,,
1530638601.236583,-0.930891,-0.588195,2.816289,-0.826841,1.233743,0.185085,-0.667346,0.554860,-0.496770,0.005389,0.696269,-0.496517,-9.863155,2.346428,-14.576950,,,,,,,
1530638601.256552,-0.912881,-0.582437,2.795259,-0.566700,1.450620,-0.858495,-0.660808,0.550061,-0.510652,-0.168217,-1.045758,-0.250136,-9.603933,2.323433,-14.637344,,,,,,,
1530638601.276520,-0.889929,-0.569533,2.761580,-0.765704,2.769905,-1.821762,-0.654376,0.539239,-0.530107,-0.077787,-0.323021,0.011263,-9.260941,2.210129,-15.017860,,,,,,,
1530638601.296489,-0.837549,-0.554870,2.722972,-0.800026,3.913085,-1.112682,-0.631531,0.526832,-0.568872,0.753632,-0.203575,0.047876,-8.654579,1.889801,-15.758484,,,,,,,
1530638601.316458,-0.771200,-0.565054,2.704289,-0.984055,3.644344,0.243687,-0.588655,0.535461,-0.605613,0.515016,0.023560,0.212790,-7.903940,2.298447,-16.140724,,,,,,,
1530638601.336426,-0.710254,-0.593835,2.703726,-1.183013,2.708304,1.518263,-0.540400,0.559544,-0.628394,0.842967,-0.049717,0.318533,-7.090933,2.825470,-16.415497,,,,,,,
1530638601.356395,-0.677081,-0.635309,2.727985,-0.901662,-0.057346,2.192179,-0.504280,0.593426,-0.627334,0.294532,-0.075619,0.262084,-6.756622,3.472816,-16.323593,,,,,,,
1530638601.376364,-0.686018,-0.674225,2.751106,-0.913299,-1.670067,1.858817,-0.494854,0.624292,-0.604466,0.285549,0.048270,0.294102,-6.772478,3.836479,-15.648117,,,,,,,
1530638601.396333,-0.714116,-0.710570,2.776989,-0.711625,-2.191881,1.959845,-0.496445,0.652266,-0.572792,0.244523,-0.021132,0.466377,-6.948879,4.166626,-15.331497,,,,,,,
1530638601.416302,-0.731550,-0.752004,2.798058,-1.301400,-1.481003,1.994364,-0.487872,0.683104,-0.543461,-0.079266,0.343462,0.198643,-7.158165,4.557220,-14.733910,,,,,,,
1530638601.436271,-0.774576,-0.805819,2.805997,-2.111827,-3.322227,2.016774,-0.484358,0.721398,-0.494956,-0.090776,0.329047,-0.290154,-7.369087,5.144058,-13.934891,,,,,,,
1530638601.456240,-0.961103,-0.882920,2.763983,-4.452364,-9.831205,2.168889,-0.520504,0.772596,-0.363553,0.101315,0.413378,0.151135,-8.499397,5.964508,-12.035652,,,,,,,
1530638601.476209,-1.244141,-0.968649,2.654505,-4.814301,-9.285357,2.430991,-0.536462,0.824121,-0.181749,-0.020454,0.374304,0.246263,-9.514326,7.262245,-9.109245,,,,,,,
1530638601.496177,-1.507524,-1.027325,2.522521,-3.490333,-6.635001,1.910884,-0.516075,0.855919,-0.032697,-0.442925,0.331184,0.142743,-10.032921,7.894066,-6.653168,,,,,,,
1530638601.516146,-1.691796,-1.051401,2.421778,-2.011427,-3.970319,0.908173,-0.492726,0.868120,0.059913,-0.396526,0.308333,0.361734,-10.200380,8.574249,-5.007866,,,,,,,
1530638601.536115,-1.806636,-1.053456,2.357060,-1.386281,-2.523096,0.082333,-0.480879,0.869138,0.115561,-0.053453,0.193957,0.451822,-10.232567,8.485817,-3.884590,,,,,,,
1530638601.556084,-1.893696,-1.043627,2.312863,-1.030513,-2.647962,-0.076286,-0.477089,0.864234,0.159639,0.430443,-0.511619,-0.192491,-10.321722,8.451607,-3.232094,,,,,,,
1530638601.576053,-1.985781,-1.051878,2.281155,-0.175789,-3.739112,1.229445,-0.453846,0.868356,0.199951,0.549641,-0.844842,-0.790741,-10.380476,8.390282,-2.365791,,,,,,,
1530638601.596022,-2.098850,-1.088395,2.257562,0.414849,-5.213792,2.137093,-0.400718,0.885883,0.233741,0.393180,-0.474033,-0.501212,-9.925257,8.492859,-1.485931,,,,,,,
1530638601.615991,-2.272738,-1.121811,2.203863,-0.211980,-6.659060,1.882275,-0.331436,0.900888,0.280267,0.207566,-0.003885,-0.285944,-9.155733,8.840714,-0.287941,,,,,,,
1530638601.635959,-2.422828,-1.146748,2.171277,0.890985,-5.359372,0.977294,-0.270923,0.911431,0.309668,0.192341,0.296394,-0.138601,-8.585520,8.703949,0.796082,,,,,,,
1530638601.655928,-2.466852,-1.176083,2.208399,1.922856,-3.087863,0.021674,-0.240222,0.923107,0.300278,0.222812,0.497624,0.102997,-8.302980,8.585609,0.997742,,,,,,,
1530638601.675897,-2.425783,-1.201961,2.301353,2.149674,-2.110509,-0.683542,-0.236590,0.932748,0.272042,0.391970,0.290305,0.105613,-8.338516,8.446869,1.159485,,,,,,,
1530638601.695866,-2.372898,-1.230355,2.406161,2.435853,-2.258889,-0.152366,-0.232129,0.942608,0.240016,0.414395,0.204121,0.104573,-8.373455,8.362869,1.394875,,,,,,,
1530638601.715836,-2.308747,-1.270672,2.513348,2.619371,-1.667182,0.476235,-0.218728,0.955300,0.198898,-0.069296,0.293022,0.252014,-8.401054,8.271729,0.954453,,,,,,,
1530638601.735805,-2.239898,-1.309609,2.613872,2.120542,-1.170563,0.680239,-0.202548,0.966084,0.160174,-0.333523,0.373943,0.258268,-8.324224,8.460899,0.550652,,,,,,,
1530638601.755773,-2.178234,-1.344191,2.691050,1.611040,-0.300911,0.898022,-0.184480,0.974435,0.128234,-0.409865,0.263602,0.160218,-8.393988,8.831497,0.374916,,,,,,,
1530638601.775742,-2.091003,-1.374463,2.766432,1.437488,1.351336,0.792438,-0.169268,0.980788,0.096963,-0.497404,0.203675,0.144736,-8.369747,8.851509,-0.068016,,,,,,,
1530638601.795710,-1.925445,-1.398969,2.881031,1.565670,3.431423,0.582163,-0.160342,0.985274,0.059376,-0.387967,0.131212,-0.079212,-8.306728,9.094536,-0.811996,,,,,,,
1530638601.815679,-1.635256,-1.417934,3.089489,1.955130,4.453153,0.635785,-0.151952,0.988339,0.009808,0.039830,0.051761,-0.231183,-8.240692,9.364815,-1.782280,,,,,,,
1530638601.835648,-1.272462,-1.429697,-2.918559,1.935308,4.628122,0.876274,-0.134419,0.990062,-0.041336,0.197667,-0.031612,-0.051392,-8.186975,9.340981,-3.027664,,,,,,,
1530638601.855617,-0.871366,-1.428596,-2.625769,1.484604,6.436094,0.932937,-0.108446,0.989907,-0.091237,-0.099836,-0.059441,0.756780,-7.731506,9.381615,-4.544624,,,,,,,
1530638601.875586,-0.592779,-1.436485,-2.480523,-0.017602,6.849081,0.986536,-0.074810,0.990994,-0.111062,-0.420750,0.049946,0.247766,-7.161213,9.739983,-5.545952,,,,,,,
1530638601.895555,-0.366018,-1.444194,-2.394025,-0.035431,7.175043,0.464139,-0.045190,0.991997,-0.117901,-0.499045,0.199928,0.125012,-6.463474,9.885010,-6.484444,,,,,,,
1530638601.915524,-0.180792,-1.439161,-2.326271,0.561772,4.812283,0.330976,-0.023601,0.991349,-0.129116,-0.534154,0.291366,0.223446,-5.656132,10.009239,-7.331459,,,,,,,
1530638601.935493,-0.096630,-1.433585,-2.309740,0.021472,2.724639,-0.102582,-0.013197,0.990601,-0.136144,-0.306658,0.075439,0.375829,-5.377501,9.889999,-7.822884,,,,,,,
1530638601.955462,-0.098850,-1.440504,-2.348449,-0.550387,1.266693,-0.282554,-0.012822,0.991524,-0.129289,-0.156718,0.178123,0.152620,-5.124832,10.032982,-8.207848,,,,,,,
1530638601.975430,-0.184797,-1.454372,-2.439809,-0.855635,-0.398918,-0.616274,-0.021344,0.993230,-0.114184,-0.297549,0.339503,-0.071210,-5.131235,10.097435,-8.441086,,,,,,,
1530638601.995399,-0.387017,-1.466512,-2.628080,-0.875079,-0.676061,-0.925863,-0.039289,0.994567,-0.096397,-0.255481,0.017182,0.125770,-5.686338,10.100723,-8.110527,,,,,,,
1530638602.015368,-0.659806,-1.474104,-2.903265,-1.168126,0.542354,-1.026870,-0.059176,0.995329,-0.076278,-0.204481,-0.219175,0.241256,-5.692242,9.971466,-7.892471,,,,,,,
1530638602.035337,-1.007173,-1.476596,3.004745,-1.483799,1.683869,-1.180858,-0.079512,0.995566,-0.050252,-0.108781,-0.271155,0.087713,-5.926582,10.082047,-7.850739,,,,,,,
1530638602.055306,-1.336787,-1.463349,2.633010,-1.436105,2.150000,-1.382960,-0.104317,0.994233,-0.024867,-0.027763,-0.196137,0.020838,-5.922743,9.971893,-7.997086,,,,,,,
1530638602.075275,-1.548644,-1.438924,2.380888,-1.206515,1.636458,-1.362000,-0.131458,0.991318,-0.002913,0.096775,-0.132568,-0.115770,-6.014030,9.838921,-7.727577,,,,,,,
1530638602.095244,-1.664252,-1.414280,2.256098,-0.756177,-0.497106,-1.108541,-0.155198,0.987776,0.014547,0.189470,-0.061125,-0.335271,-6.434555,9.644989,-7.923859,,,,,,,
1530638602.115213,-1.724456,-1.390973,2.232288,-0.132197,-2.500352,-1.190643,-0.176749,0.983875,0.027375,0.188544,0.077557,-0.211213,-6.773941,9.265160,-7.372849,,,,,,,
1530638602.135182,-1.755882,-1.366057,2.252643,0.039609,-2.347299,-1.301746,-0.199840,0.979114,0.037416,0.224254,0.239224,0.015761,-7.365437,8.876755,-7.262230,,,,,,,
1530638602.155150,-1.760569,-1.343088,2.284018,0.151242,-1.413534,-1.125872,-0.221692,0.974186,0.042584,0.215985,0.289592,0.037327,-7.764223,8.617653,-7.226303,,,,,,,
1530638602.175119,-1.747233,-1.321270,2.319609,0.256456,-0.959486,-1.179809,-0.243112,0.969029,0.043345,0.113855,0.169368,-0.123392,-8.188215,8.513344,-6.916893,,,,,,,
1530638602.195088,-1.734001,-1.305016,2.349001,0.297939,-0.810197,-0.740573,-0.259172,0.964888,0.042678,0.046663,0.010179,-0.243087,-8.475025,8.360771,-7.074600,,,,,,,
1530638602.215057,-1.704490,-1.289844,2.401670,0.792654,-1.201857,-0.956967,-0.274797,0.960792,0.036959,0.013231,-0.064567,-0.216753,-8.771929,8.015793,-7.336647,,,,,,,
1530638602.235026,-1.650751,-1.270104,2.486889,1.259036,-1.465444,-1.174607,-0.295236,0.955132,0.023656,-0.013831,-0.136589,-0.115758,-9.218897,7.781540,-7.366463,,,,,,,
1530638602.254995,-1.586721,-1.244649,2.588835,1.700087,-1.865183,-1.497243,-0.320356,0.947284,0.005102,-0.061694,-0.175662,-0.139089,-9.598732,6.977119,-7.251686,,,,,,,
1530638602.274964,-1.524918,-1.212101,2.703422,2.086762,-2.577911,-1.573831,-0.350684,0.936356,-0.016100,-0.064523,-0.162826,-0.062727,-10.117027,6.488052,-7.442711,,,,,,,
1530638602.294933,-1.466003,-1.181303,2.828786,2.607182,-3.048654,-1.210634,-0.377636,0.925102,-0.039719,-0.119174,-0.092216,0.023514,-10.644440,5.858788,-7.275650,,,,,,,
1530638602.314902,-1.412806,-1.156081,2.957188,2.633775,-3.289284,-0.736455,-0.397912,0.915231,-0.063394,-0.188606,-0.021554,0.166239,-11.026047,5.127914,-6.986343,,,,,,,
1530638602.334870,-1.361419,-1.135628,3.078001,2.621276,-2.635150,-0.505596,-0.412357,0.906799,-0.087622,-0.177563,-0.068191,0.284308,-11.291748,4.670578,-6.652954,,,,,,,
1530638602.354839,-1.299878,-1.111033,-3.093681,2.630296,-1.548390,-0.738808,-0.427551,0.896158,-0.118751,-0.090592,-0.161294,0.315834,-11.530277,4.148987,-6.586090,,,,,,,
1530638602.374808,-1.234120,-1.078100,-2.998343,2.538731,-0.632661,-0.978241,-0.446448,0.881061,-0.156257,-0.021173,-0.205692,0.317970,-11.705826,3.396210,-6.701210,,,,,,,
1530638602.394777,-1.167399,-1.044194,-2.918500,2.356464,0.172890,-0.765335,-0.462257,0.864520,-0.197293,-0.080910,-0.228274,0.331723,-11.715773,2.981247,-6.960495,,,,,,,
1530638602.414746,-1.091966,-1.017068,-2.850143,2.012904,1.244076,-0.326172,-0.466720,0.850570,-0.242286,-0.143601,-0.154159,0.319374,-11.727545,2.423347,-7.726379,,,,,,,
1530638602.434715,-1.009578,-0.998650,-2.800792,1.314550,2.532169,-0.107596,-0.458385,0.840741,-0.288163,-0.238194,-0.141705,0.300004,-11.322783,1.891586,-8.564133,,,,,,,
1530638602.454684,-0.935395,-0.982104,-2.787984,0.402661,3.501182,-0.829831,-0.446903,0.831667,-0.329556,-0.307202,-0.025240,0.235226,-10.906923,1.680702,-9.160316,,,,,,,
1530638602.474653,-0.892187,-0.957426,-2.827861,-0.423408,3.911379,-2.160724,-0.448094,0.817712,-0.361327,-0.194697,0.079382,0.135894,-10.309879,0.852699,-9.851448,,,,,,,
1530638602.494622,-0.877531,-0.930892,-2.903802,-1.157822,3.689858,-2.498007,-0.459282,0.802153,-0.381590,0.018104,0.063341,0.080335,-9.595474,0.075005,-10.929459,,,,,,,
1530638602.514590,-0.879760,-0.914363,-2.991520,-1.681432,3.199957,-2.188488,-0.470285,0.792174,-0.388963,0.073190,0.130830,0.035341,-9.044598,-0.055756,-11.194130,,,,,,,
1530638602.534559,-0.889821,-0.905921,-3.078734,-1.826937,2.828568,-1.953608,-0.479354,0.786994,-0.388408,-0.026140,0.181054,0.023784,-8.501577,-0.186882,-11.678459,,,,,,,
1530638602.554528,-0.897823,-0.898568,3.122986,-1.676937,2.828769,-1.830099,-0.486958,0.782436,-0.388157,-0.066067,0.169102,0.095264,-7.776316,-0.359192,-12.309914,,,,,,,
1530638602.574497,-0.894524,-0.892058,3.049804,-1.546061,3.170148,-1.555905,-0.489637,0.778366,-0.392940,-0.064715,0.141846,0.164791,-7.132723,-0.425980,-12.710342,,,,,,,
1530638602.594466,-0.878966,-0.889240,2.986250,-1.399266,3.211364,-1.297348,-0.485152,0.776593,-0.401909,-0.230043,0.217715,0.074455,-6.251171,-0.720634,-13.397041,,,,,,,
1530638602.614435,-0.862433,-0.888243,2.932121,-1.192594,2.700595,-1.037775,-0.479029,0.775964,-0.410378,-0.345892,0.238867,-0.002815,-5.344284,-0.775612,-13.714096,,,,,,,
1530638602.634404,-0.911400,-0.894388,2.873886,-2.290862,-3.745301,-0.967631,-0.494764,0.779826,-0.383510,-0.724078,0.260671,0.283871,-5.584572,-0.428505,-13.669395,,,,,,,
1530638602.654373,-1.100529,-0.910433,2.788786,-2.650261,-6.796044,-0.541709,-0.546817,0.789769,-0.277948,-0.442471,0.148250,0.717859,-6.674500,-0.029076,-12.786751,,,,,,,
1530638602.674342,-1.179334,-0.905713,2.771920,0.704711,-1.483712,-0.582068,-0.570440,0.786866,-0.235458,-0.431208,0.157318,1.029357,-7.043879,-0.250809,-12.986061,,,,,,,
1530638602.694310,-1.228459,-0.887595,2.783003,0.384903,-4.115982,-0.649592,-0.594647,0.775556,-0.211914,0.096616,-0.149427,0.591262,-7.678459,-0.342018,-12.804955,,,,,,,
1530638602.714279,-1.335826,-0.883078,2.776116,-0.406236,-5.234810,-0.052287,-0.617334,0.772696,-0.147785,0.163919,-0.182074,0.455448,-8.630823,-0.337341,-12.460007,,,,,,,
1530638602.734248,-1.437715,-0.888993,2.753905,-0.930348,-3.451784,0.262812,-0.624622,0.776437,-0.083620,-0.114727,-0.042886,0.195955,-9.552567,0.160210,-12.289368,,,,,,,
1530638602.754217,-1.507782,-0.896914,2.716881,-1.338619,-1.312181,0.251597,-0.622786,0.781405,-0.039297,-0.415499,0.142026,-0.176142,-9.820156,0.306709,-12.339348,,,,,,,
1530638602.774186,-1.557550,-0.899861,2.669160,-1.567172,-0.369581,-0.035857,-0.621664,0.783241,-0.008235,-0.633234,0.277428,-0.518864,-10.007032,0.761223,-12.682281,,,,,,,
,,,,,,,,,,,,,,,,39.779200,-84.064390,292.682465,-1.000000,-1.000000,1530638602.764590,
