timestamp(unix),attitude_roll(radians),attitude_pitch(radians),attitude_yaw(radians),rotation_rate_x(radians/s),rotation_rate_y(radians/s),rotation_rate_z(radians/s),gravity_x(G),gravity_y(G),gravity_z(G),user_acc_x(G),user_acc_y(G),user_acc_z(G),magnetic_field_x(microteslas),magnetic_field_y(microteslas),magnetic_field_z(microteslas),latitude(degree),longitude(degree),altitude(meter),speed(m/s),course(degree),timestamp(unix),User Mark
,,,,,,,,,,,,,,,,39.779227,-84.063243,291.028530,0.770000,-1.000000,1530640221.000061,
1530640229.804151,-0.045405,0.308087,-1.166828,-0.025546,-0.082957,-0.051961,-0.043252,-0.303236,-0.951933,0.010736,0.009901,-0.007341,3.440563,5.306290,-46.824814,,,,,,,
,,,,,,,,,,,,,,,,39.779227,-84.063243,291.028530,0.770000,-1.000000,1530640229.000061,
1530640229.824119,-0.045797,0.306908,-1.168146,-0.070710,-0.024485,-0.044728,-0.043641,-0.302112,-0.952273,0.000001,0.008732,-0.012434,3.319431,5.500076,-46.887146,,,,,,,
1530640229.844088,-0.045944,0.306005,-1.169311,-0.018315,-0.026743,-0.039903,-0.043794,-0.301252,-0.952538,-0.005156,0.014036,-0.022239,3.219090,5.632004,-46.770523,,,,,,,
1530640229.864057,-0.046106,0.306706,-1.170358,0.062440,-0.020141,-0.040726,-0.043939,-0.301920,-0.952320,0.002069,0.018289,-0.008358,3.195415,5.661270,-46.793518,,,,,,,
,,,,,,,,,,,,,,,,39.779227,-84.063243,291.028534,-1.000000,-1.000000,1530640229.873121,
1530640229.884026,-0.045710,0.308318,-1.171314,0.080212,0.027284,-0.035298,-0.043539,-0.303456,-0.951850,0.001791,0.016591,0.007972,3.057178,5.448997,-46.666397,,,,,,,
,,,,,,,,,,,,,,,,39.779227,-84.063243,291.028534,-1.000000,-1.000000,1530640229.879664,
1530640229.903994,-0.044557,0.309401,-1.172113,0.035004,0.048180,-0.021775,-0.042427,-0.304488,-0.951571,-0.000588,0.017730,0.006197,3.222340,5.351936,-46.633209,,,,,,,
,,,,,,,,,,,,,,,,39.779227,-84.063243,291.028534,-1.000000,-1.000000,1530640229.902590,
,,,,,,,,,,,,,,,,39.779227,-84.063243,291.028534,-1.000000,-1.000000,1530640229.913870,
1530640229.923963,-0.043927,0.309501,-1.172681,-0.001747,0.015028,-0.015072,-0.041826,-0.304584,-0.951567,0.004915,0.019504,-0.014574,3.243916,5.375305,-46.823608,,,,,,,
1530640229.943932,-0.044199,0.309506,-1.173210,0.009792,-0.033553,-0.014351,-0.042085,-0.304588,-0.951554,0.005891,0.022499,-0.024505,3.288074,5.554138,-46.812897,,,,,,,
1530640229.963900,-0.044763,0.309735,-1.173792,0.010875,-0.033523,-0.018677,-0.042619,-0.304806,-0.951460,0.001832,0.021908,-0.000810,3.286423,5.492271,-46.766647,,,,,,,
1530640229.983869,-0.045191,0.309795,-1.174418,0.002491,-0.021371,-0.019607,-0.043025,-0.304863,-0.951424,0.000621,0.020912,0.008202,3.207283,5.509399,-46.742020,,,,,,,
1530640230.003838,-0.045377,0.309820,-1.175101,0.006678,-0.015860,-0.018544,-0.043202,-0.304887,-0.951408,-0.000957,0.019181,0.004219,3.075600,5.449989,-46.806625,,,,,,,
1530640230.023806,-0.045564,0.309960,-1.175627,0.013956,-0.017018,-0.011082,-0.043378,-0.305020,-0.951357,-0.003925,0.016904,-0.013898,3.079117,5.444244,-47.022141,,,,,,,
1530640230.043775,-0.045770,0.310127,-1.176029,0.008659,-0.013750,-0.004538,-0.043572,-0.305180,-0.951297,0.000099,0.016255,-0.016384,3.117992,5.536110,-46.960464,,,,,,,
1530640230.063744,-0.045866,0.310278,-1.176308,0.013873,0.001681,-0.001283,-0.043660,-0.305323,-0.951247,0.001638,0.016826,-0.015168,3.082329,5.460808,-47.236969,,,,,,,
1530640230.083713,-0.045851,0.310574,-1.176520,0.021190,-0.000551,0.001868,-0.043642,-0.305606,-0.951158,0.005235,0.016162,-0.011413,3.187248,5.561707,-46.794144,,,,,,,
1530640230.103681,-0.045939,0.310836,-1.176761,0.015981,-0.002728,-0.002402,-0.043722,-0.305855,-0.951074,0.008566,0.014351,-0.004630,3.190910,5.433502,-46.959259,,,,,,,
1530640230.123650,-0.045897,0.311206,-1.177029,0.026467,0.001685,-0.002494,-0.043677,-0.306207,-0.950963,0.007651,0.011788,-0.006603,3.132545,5.503044,-46.907486,,,,,,,
1530640230.143619,-0.045961,0.311524,-1.177313,0.013911,-0.008224,-0.005643,-0.043733,-0.306510,-0.950862,0.007677,0.010856,-0.000508,3.041306,5.540405,-46.915207,,,,,,,
1530640230.163587,-0.046167,0.311370,-1.177684,-0.011239,-0.015930,-0.007569,-0.043932,-0.306363,-0.950900,0.006395,0.009335,-0.000577,3.214211,5.479469,-46.997345,,,,,,,
1530640230.183556,-0.046460,0.311122,-1.178232,-0.008021,-0.023599,-0.016269,-0.044214,-0.306127,-0.950963,0.004724,0.008611,-0.003932,3.099358,5.698196,-46.879959,,,,,,,
1530640230.203525,-0.046796,0.311032,-1.178974,-0.003729,-0.026829,-0.028194,-0.044535,-0.306041,-0.950976,0.004465,0.005580,-0.008207,3.118759,5.565559,-47.045624,,,,,,,
1530640230.223494,-0.046972,0.310985,-1.179942,-0.003660,-0.016835,-0.036773,-0.044703,-0.305997,-0.950983,0.002421,0.004636,-0.007559,3.081272,5.631256,-47.017395,,,,,,,
,,,,,,,,,,,,,,,,39.779291,-84.063521,291.612396,-1.000000,-1.000000,1530640230.197315,
1530640230.243462,-0.046946,0.310983,-1.181125,0.000558,-0.007982,-0.040013,-0.044678,-0.305995,-0.950984,0.002716,0.004634,-0.009099,3.018631,5.622620,-47.154221,,,,,,,
1530640230.263431,-0.046635,0.310920,-1.182178,-0.006795,0.005259,-0.038791,-0.044383,-0.305934,-0.951018,0.001002,0.003246,-0.009996,3.179615,5.470818,-47.238174,,,,,,,
1530640230.283400,-0.046420,0.310748,-1.183286,-0.006756,-0.011270,-0.043186,-0.044181,-0.305771,-0.951080,0.006690,0.003204,-0.017152,3.023521,5.458237,-47.092575,,,,,,,
1530640230.303367,-0.046672,0.310863,-1.184507,0.011123,-0.039938,-0.048909,-0.044419,-0.305880,-0.951033,0.006943,0.004534,-0.019899,3.028454,5.570618,-47.212585,,,,,,,
1530640230.323336,-0.047518,0.311290,-1.185927,0.024862,-0.076287,-0.061095,-0.045217,-0.306287,-0.950865,0.008734,0.005246,-0.018557,2.850784,5.636856,-47.270737,,,,,,,
1530640230.343305,-0.049090,0.312234,-1.187560,0.060626,-0.110435,-0.073502,-0.046698,-0.307186,-0.950503,0.011175,0.006267,-0.018476,2.881828,5.385147,-47.097214,,,,,,,
1530640230.363274,-0.051267,0.313998,-1.189319,0.101605,-0.145709,-0.082740,-0.048739,-0.308863,-0.949857,0.006030,0.006709,-0.020617,2.833050,5.205208,-47.149719,,,,,,,
1530640230.383242,-0.054045,0.316367,-1.191376,0.117478,-0.180926,-0.099253,-0.051338,-0.311116,-0.948984,0.006203,0.010258,-0.009451,2.600224,4.949142,-47.315491,,,,,,,
1530640230.403211,-0.057127,0.318416,-1.193670,0.085011,-0.187504,-0.104335,-0.054226,-0.313063,-0.948183,0.002300,0.010313,0.002337,2.308384,5.125847,-47.254898,,,,,,,
1530640230.423180,-0.059706,0.319873,-1.196116,0.066169,-0.148826,-0.109338,-0.056643,-0.314446,-0.947584,-0.000836,0.007119,0.005140,2.279354,5.032936,-47.238693,,,,,,,
1530640230.443148,-0.061503,0.321158,-1.198450,0.059787,-0.115775,-0.099409,-0.058322,-0.315666,-0.947076,0.001345,0.007286,0.002756,2.141113,4.860161,-47.511810,,,,,,,
1530640230.463117,-0.062966,0.322637,-1.200436,0.075365,-0.092724,-0.081126,-0.059678,-0.317069,-0.946523,0.006883,0.002707,0.004766,2.085079,4.835831,-47.123108,,,,,,,
1530640230.483086,-0.064188,0.324221,-1.201883,0.081408,-0.079688,-0.050929,-0.060802,-0.318571,-0.945947,0.009151,0.001234,0.005822,1.779057,4.862434,-47.432388,,,,,,,
1530640230.503055,-0.065687,0.326053,-1.202663,0.105311,-0.083192,-0.024237,-0.062181,-0.320306,-0.945271,0.017900,-0.002021,-0.000118,1.861179,4.520889,-47.555115,,,,,,,
1530640230.523023,-0.066868,0.328442,-1.202955,0.113509,-0.057962,-0.001557,-0.063246,-0.322568,-0.944431,0.018355,0.001493,-0.005429,1.858337,4.570419,-47.327209,,,,,,,
1530640230.542992,-0.067415,0.329969,-1.202826,0.053541,-0.000694,0.020931,-0.063730,-0.324014,-0.943903,0.016656,0.002923,0.002665,1.811001,4.599861,-47.456314,,,,,,,
1530640230.562961,-0.067160,0.330464,-1.202318,0.012449,0.027861,0.044158,-0.063478,-0.324482,-0.943759,0.018846,0.003987,0.006259,1.973038,4.608734,-47.335052,,,,,,,
1530640230.582930,-0.066767,0.330257,-1.201680,-0.014811,0.028979,0.043373,-0.063112,-0.324286,-0.943851,0.022829,0.009634,0.001285,1.795639,4.629829,-47.327438,,,,,,,
1530640230.602898,-0.066781,0.329433,-1.200986,-0.049459,0.010185,0.049046,-0.063143,-0.323507,-0.944117,0.023394,0.002065,0.000345,1.855553,4.672699,-47.450592,,,,,,,
1530640230.622867,-0.066758,0.328085,-1.200334,-0.068311,0.011316,0.046015,-0.063150,-0.322231,-0.944552,0.023004,0.004223,0.001406,1.912506,4.666832,-47.514801,,,,,,,
1530640230.642836,-0.067170,0.326708,-1.199680,-0.063042,-0.021787,0.043641,-0.063569,-0.320927,-0.944968,0.020356,0.009236,-0.007577,1.915096,4.673416,-47.422363,,,,,,,
1530640230.662804,-0.067973,0.325582,-1.199216,-0.050364,-0.041585,0.032627,-0.064352,-0.319860,-0.945277,0.012656,0.008963,-0.016943,1.920658,4.890495,-47.567444,,,,,,,
1530640230.682773,-0.068789,0.324409,-1.198819,-0.064018,-0.030558,0.034982,-0.065150,-0.318749,-0.945597,0.011637,0.007134,-0.005178,1.827816,4.701797,-47.577179,,,,,,,
1530640230.702742,-0.068792,0.322641,-1.198345,-0.107121,0.040027,0.046570,-0.065191,-0.317073,-0.946158,0.012075,0.003962,0.004355,1.729237,4.981262,-47.554459,,,,,,,
1530640230.722711,-0.067655,0.320092,-1.197579,-0.118787,0.067522,0.061925,-0.064169,-0.314654,-0.947035,0.006033,0.002200,-0.018541,1.889938,5.054283,-47.208237,,,,,,,
1530640230.742679,-0.067564,0.318686,-1.196538,-0.033872,-0.014231,0.067094,-0.064113,-0.313319,-0.947481,0.008831,0.003367,-0.054624,1.868290,5.112534,-47.139313,,,,,,,
1530640230.762648,-0.068931,0.318543,-1.195319,0.009100,-0.052908,0.070762,-0.065411,-0.313183,-0.947437,0.005429,0.007809,-0.042278,1.845406,5.128860,-47.102112,,,,,,,
1530640230.782617,-0.069758,0.319030,-1.192750,0.058480,0.033488,0.186056,-0.066184,-0.313646,-0.947231,0.044425,0.035310,-0.034382,1.904140,5.052406,-47.472122,,,,,,,
1530640230.802586,-0.070034,0.319970,-1.188687,0.056417,0.063331,0.180825,-0.066425,-0.314538,-0.946918,0.014896,0.013421,-0.010266,1.953621,5.027435,-47.200119,,,,,,,
1530640230.822554,-0.069552,0.320381,-1.186436,0.016303,0.058485,0.085249,-0.065960,-0.314929,-0.946821,-0.031071,0.005984,0.016080,2.048603,5.009239,-47.287170,,,,,,,
1530640230.842523,-0.069001,0.320018,-1.185576,-0.026286,0.031242,0.035958,-0.065446,-0.314584,-0.946971,-0.031646,0.003396,0.023188,2.022221,5.260773,-47.236877,,,,,,,
1530640230.862492,-0.068598,0.319101,-1.185892,-0.049954,-0.000384,-0.018953,-0.065084,-0.313713,-0.947285,-0.035090,-0.011177,0.015140,2.142601,4.879860,-47.210114,,,,,,,
1530640230.882460,-0.068809,0.318037,-1.186133,-0.045023,-0.016108,0.019746,-0.065306,-0.312702,-0.947603,-0.010927,0.004322,-0.005766,2.039616,5.104141,-47.487579,,,,,,,
1530640230.902429,-0.069746,0.317184,-1.185405,-0.035906,-0.029633,0.059488,-0.066213,-0.311893,-0.947807,-0.003764,-0.000165,-0.008873,2.024780,4.953392,-47.509323,,,,,,,
1530640230.922398,-0.070708,0.316518,-1.183951,-0.024611,-0.009967,0.088584,-0.067139,-0.311260,-0.947950,-0.002792,0.005245,0.000013,2.027180,5.155800,-47.388107,,,,,,,
1530640230.942367,-0.071553,0.316022,-1.182125,-0.018401,-0.006724,0.098236,-0.067952,-0.310788,-0.948047,0.004094,0.008862,0.007938,2.094028,5.113426,-47.369110,,,,,,,
1530640230.962335,-0.072340,0.315567,-1.180345,-0.013119,-0.008904,0.093860,-0.068708,-0.310356,-0.948134,0.011289,0.009971,0.002333,2.027699,5.092056,-47.340118,,,,,,,
1530640230.982304,-0.073380,0.315093,-1.178705,-0.020395,-0.029823,0.086285,-0.069704,-0.309905,-0.948209,0.014956,0.009307,-0.005465,2.012947,5.168083,-47.172424,,,,,,,
1530640231.002273,-0.074408,0.314328,-1.177314,-0.036038,-0.019810,0.075720,-0.070697,-0.309177,-0.948373,0.016529,0.010059,-0.004737,1.923508,5.223206,-47.356720,,,,,,,
1530640231.022242,-0.075115,0.313507,-1.176055,-0.033918,-0.012061,0.072496,-0.071387,-0.308396,-0.948576,0.014929,0.006074,-0.014071,2.061150,5.075676,-47.215561,,,,,,,
1530640231.042210,-0.075653,0.312662,-1.174814,-0.037056,-0.005429,0.071484,-0.071917,-0.307593,-0.948796,0.018114,0.006079,-0.007121,2.031742,5.287895,-47.237534,,,,,,,
1530640231.062179,-0.076326,0.311752,-1.173543,-0.044419,-0.026424,0.074696,-0.072576,-0.306727,-0.949027,0.023916,0.003138,-0.004968,1.904198,5.335075,-47.066925,,,,,,,
1530640231.082148,-0.077165,0.310603,-1.172327,-0.059069,-0.020871,0.070562,-0.073400,-0.305633,-0.949316,0.020696,0.005523,-0.001108,2.064655,5.261391,-47.192566,,,,,,,
1530640231.102117,-0.077902,0.309064,-1.171185,-0.080069,-0.023095,0.074013,-0.074135,-0.304167,-0.949730,0.017098,0.004896,-0.005532,1.981094,5.343300,-47.236877,,,,,,,
1530640231.122085,-0.078775,0.307081,-1.170097,-0.099959,-0.030788,0.069872,-0.075013,-0.302278,-0.950264,0.014496,0.005250,-0.003273,1.812531,5.419029,-47.246811,,,,,,,
1530640231.142054,-0.080210,0.304794,-1.169148,-0.115637,-0.074902,0.064432,-0.076431,-0.300097,-0.950842,0.018356,0.008105,-0.004618,1.755615,5.695663,-47.238571,,,,,,,
1530640231.162023,-0.082295,0.302338,-1.168305,-0.119822,-0.104705,0.064338,-0.078474,-0.297753,-0.951412,0.009672,0.010354,0.006328,1.674126,5.593193,-47.239761,,,,,,,
1530640231.181992,-0.084848,0.299870,-1.167327,-0.112505,-0.116872,0.067436,-0.080964,-0.295396,-0.951938,0.006776,0.011217,0.003574,1.656040,5.649269,-47.270111,,,,,,,
1530640231.201960,-0.087379,0.297450,-1.166400,-0.119838,-0.114655,0.066446,-0.083436,-0.293083,-0.952439,0.003190,0.010628,0.003678,1.598862,5.747589,-47.085175,,,,,,,
1530640231.221929,-0.089621,0.295025,-1.165394,-0.109420,-0.086009,0.074020,-0.085634,-0.290764,-0.952955,-0.000105,0.013695,-0.002779,1.498260,5.844078,-47.201721,,,,,,,
1530640231.241898,-0.091309,0.292819,-1.164340,-0.103127,-0.053991,0.073027,-0.087300,-0.288653,-0.953445,-0.009745,0.012362,-0.014359,1.456795,6.096420,-47.048370,,,,,,,
1530640231.261867,-0.092356,0.290681,-1.163301,-0.103123,-0.030802,0.072062,-0.088355,-0.286604,-0.953966,-0.010949,0.014006,-0.022185,1.313229,6.274811,-47.110260,,,,,,,
1530640231.281836,-0.093526,0.288316,-1.162313,-0.120920,-0.050645,0.068922,-0.089535,-0.284338,-0.954534,-0.004185,0.017142,-0.008204,1.239468,6.254799,-47.120300,,,,,,,
1530640231.301804,-0.095048,0.285351,-1.161406,-0.150273,-0.061669,0.068105,-0.091068,-0.281494,-0.955232,0.000278,0.019363,0.005494,1.243389,6.326584,-46.914673,,,,,,,
1530640231.321773,-0.096420,0.282320,-1.160563,-0.137667,-0.045091,0.064813,-0.092459,-0.278585,-0.955951,-0.000818,0.021673,-0.006269,1.138954,6.499336,-46.953705,,,,,,,
1530640231.341742,-0.097473,0.279912,-1.159917,-0.101826,-0.038320,0.041814,-0.093531,-0.276271,-0.956518,-0.009557,0.018733,-0.018611,1.307953,6.474251,-47.216217,,,,,,,
1530640231.361711,-0.098323,0.278074,-1.159534,-0.078704,-0.029450,0.035137,-0.094393,-0.274505,-0.956941,-0.007398,0.023131,-0.030317,0.957756,6.686386,-47.119461,,,,,,,
1530640231.381679,-0.099223,0.276705,-1.159451,-0.057662,-0.044858,0.027292,-0.095292,-0.273188,-0.957229,-0.003600,0.022608,-0.025818,0.951889,6.882942,-47.016937,,,,,,,
1530640231.401648,-0.100133,0.275531,-1.159326,-0.052367,-0.037087,0.020803,-0.096195,-0.272058,-0.957461,-0.004894,0.022211,-0.019651,0.980965,6.879395,-47.101364,,,,,,,
1530640231.421617,-0.100817,0.274305,-1.159132,-0.059775,-0.021683,0.028503,-0.096884,-0.270878,-0.957726,-0.006693,0.022984,-0.012352,0.893982,6.987785,-47.003387,,,,,,,
1530640231.441586,-0.101006,0.272989,-1.159037,-0.057595,0.003780,0.017818,-0.097101,-0.269611,-0.958061,-0.007697,0.021594,-0.012291,1.039612,6.814369,-47.140411,,,,,,,
1530640231.461554,-0.100477,0.271776,-1.159149,-0.057535,0.040268,0.009362,-0.096626,-0.268443,-0.958437,-0.011589,0.022136,-0.014509,1.097275,6.992188,-47.100067,,,,,,,
1530640231.481523,-0.099255,0.270555,-1.159228,-0.055481,0.074458,0.013821,-0.095488,-0.267266,-0.958880,-0.005037,0.022881,-0.006193,1.132877,7.039055,-47.045120,,,,,,,
1530640231.501492,-0.097991,0.269606,-1.159106,-0.033541,0.063339,0.024321,-0.094300,-0.266352,-0.959252,0.005387,0.016566,-0.007148,1.141975,7.210930,-46.984650,,,,,,,
1530640231.521461,-0.097359,0.268966,-1.158714,-0.024191,0.027930,0.035911,-0.093710,-0.265734,-0.959481,0.007285,0.018038,-0.001502,1.168922,7.081047,-46.984375,,,,,,,
1530640231.541429,-0.097721,0.268486,-1.158067,-0.006450,-0.014104,0.047381,-0.094070,-0.265272,-0.959574,0.007354,0.016752,-0.022314,1.171516,7.140762,-47.086655,,,,,,,
1530640231.561398,-0.098310,0.268254,-1.157367,-0.006422,-0.018497,0.044126,-0.094642,-0.265048,-0.959579,0.000999,0.019138,-0.013642,1.063801,7.258423,-47.071854,,,,,,,
1530640231.581367,-0.099439,0.267890,-1.156717,-0.013753,-0.064858,0.043979,-0.095734,-0.264697,-0.959568,0.008332,0.018176,-0.005337,1.073566,7.063232,-47.029816,,,,,,,
1530640231.601336,-0.101627,0.267400,-1.156230,-0.026237,-0.116663,0.033079,-0.097847,-0.264224,-0.959485,0.003685,0.018741,0.019467,0.950626,7.148781,-47.118347,,,,,,,
1530640231.621304,-0.104741,0.266053,-1.155840,-0.093395,-0.172988,0.039996,-0.100871,-0.262926,-0.959529,0.003886,0.020494,0.061762,0.852669,7.225830,-47.070755,,,,,,,
1530640231.641273,-0.109576,0.262894,-1.155281,-0.182753,-0.270309,0.069599,-0.105600,-0.259876,-0.959850,0.018182,0.020313,0.082134,0.563648,7.507729,-46.957672,,,,,,,
1530640231.661242,-0.116953,0.258134,-1.153927,-0.252412,-0.408679,0.127915,-0.112821,-0.255277,-0.960263,0.034894,0.025495,0.105115,0.248512,7.632370,-47.058365,,,,,,,
1530640231.681211,-0.128601,0.252137,-1.151277,-0.287573,-0.637688,0.201602,-0.124192,-0.249474,-0.960385,0.062760,0.024269,0.092053,-0.195927,7.720993,-47.054901,,,,,,,
1530640231.701180,-0.144869,0.246377,-1.145773,-0.209751,-0.809338,0.436142,-0.140003,-0.243892,-0.959643,0.129811,0.043056,0.059497,-1.049385,8.003418,-46.846405,,,,,,,
1530640231.721148,-0.166681,0.240316,-1.137231,-0.252810,-1.032408,0.449546,-0.161142,-0.238009,-0.957802,0.075556,0.061984,0.072518,-1.909502,8.406471,-46.834244,,,,,,,
1530640231.741117,-0.188829,0.232303,-1.131039,-0.416555,-1.016137,0.339204,-0.182667,-0.230219,-0.955841,0.045109,0.062464,0.112884,-2.697706,8.439659,-46.485596,,,,,,,
1530640231.761086,-0.208631,0.219461,-1.125972,-0.679864,-0.846990,0.475486,-0.202153,-0.217703,-0.954850,0.111958,-0.038965,0.146775,-3.573376,9.103737,-46.394470,,,,,,,
1530640231.781055,-0.225726,0.201148,-1.120737,-0.902702,-0.779119,0.409165,-0.219302,-0.199795,-0.954981,0.074480,-0.000202,0.110865,-4.280233,9.908340,-46.188828,,,,,,,
1530640231.801023,-0.239025,0.181870,-1.119722,-0.915908,-0.560353,0.222698,-0.232851,-0.180869,-0.955545,0.052294,0.102699,0.076486,-4.796780,10.854057,-46.104172,,,,,,,
1530640231.820992,-0.246040,0.165684,-1.119732,-0.663270,-0.216029,0.224896,-0.240229,-0.164927,-0.956603,0.058985,0.116358,-0.003343,-5.163889,11.415367,-46.022797,,,,,,,
1530640231.840961,-0.245993,0.156620,-1.115807,-0.213590,0.190181,0.367663,-0.240539,-0.155981,-0.958024,0.023178,0.081030,-0.074111,-5.055994,11.787994,-45.742645,,,,,,,
1530640231.860930,-0.240964,0.155839,-1.105848,0.242921,0.342013,0.579232,-0.235747,-0.155209,-0.959340,0.000334,0.034497,-0.166514,-4.692791,11.791023,-45.855011,,,,,,,
1530640231.880899,-0.238155,0.161150,-1.090823,0.532322,0.212927,0.714652,-0.232854,-0.160453,-0.959184,0.016286,0.008292,-0.165297,-4.481133,11.640533,-45.754318,,,,,,,
1530640231.900867,-0.238742,0.169533,-1.074233,0.621832,0.044287,0.672978,-0.233090,-0.168722,-0.957707,0.001599,0.041983,-0.077862,-4.311523,11.007797,-46.047928,,,,,,,
1530640231.920836,-0.242750,0.178371,-1.060768,0.553217,-0.139783,0.475450,-0.236559,-0.177427,-0.955280,-0.032881,0.021253,-0.047970,-4.183636,10.763451,-45.829987,,,,,,,
1530640231.940805,-0.248543,0.184328,-1.052176,0.290593,-0.276321,0.278069,-0.241825,-0.183286,-0.952852,-0.067227,-0.045092,0.025697,-4.446075,10.342224,-46.161484,,,,,,,
1530640231.960774,-0.256915,0.184798,-1.049225,-0.063198,-0.448101,0.072857,-0.249771,-0.183748,-0.950711,-0.095794,-0.049391,0.029400,-4.710091,10.128334,-45.998886,,,,,,,
1530640231.980742,-0.265550,0.180714,-1.050930,-0.273967,-0.428364,-0.057455,-0.258167,-0.179732,-0.949235,-0.047329,-0.023882,0.008957,-5.192017,10.482292,-45.874832,,,,,,,
1530640232.000711,-0.272073,0.175390,-1.055082,-0.318440,-0.326244,-0.136302,-0.264606,-0.174492,-0.948439,-0.028195,-0.001793,-0.001482,-5.497908,10.606575,-45.786896,,,,,,,
,,,,,,,,,,,,,,,,39.779132,-84.063241,292.586880,1.270000,-1.000000,1530640231.442033,
1530640232.020680,-0.278683,0.169758,-1.059970,-0.341478,-0.429995,-0.137634,-0.271136,-0.168944,-0.947599,0.046343,0.003279,-0.031619,-5.673466,11.120407,-45.377594,,,,,,,
1530640232.040649,-0.289392,0.164585,-1.064828,-0.303636,-0.646335,-0.143396,-0.281513,-0.163843,-0.945466,0.054340,0.006708,-0.061751,-6.404318,11.483376,-45.558472,,,,,,,
,,,,,,,,,,,,,,,,39.779118,-84.063213,292.661587,1.270000,-1.000000,1530640232.000032,
1530640232.060617,-0.303317,0.160233,-1.069950,-0.271886,-0.780801,-0.175660,-0.294862,-0.159548,-0.942126,0.056794,-0.000364,-0.035047,-6.906610,11.479118,-45.429565,,,,,,,
1530640232.080586,-0.320551,0.157152,-1.075140,-0.185882,-0.990597,-0.172197,-0.311206,-0.156506,-0.937367,0.055347,0.013287,-0.046489,-7.722548,11.751587,-44.965637,,,,,,,
1530640232.100555,-0.342340,0.156457,-1.079043,-0.027718,-1.228188,-0.143753,-0.331592,-0.155819,-0.930466,0.050052,0.007763,-0.077682,-8.595482,11.793427,-44.852066,,,,,,,
1530640232.120524,-0.369871,0.159125,-1.081340,0.159936,-1.514259,-0.129880,-0.356928,-0.158454,-0.920595,0.059763,-0.003030,-0.089598,-9.917879,11.451126,-44.702255,,,,,,,
1530640232.140493,-0.402707,0.164350,-1.081800,0.275998,-1.704492,-0.083501,-0.386629,-0.163611,-0.907606,0.074984,-0.002939,-0.050646,-11.387194,11.406883,-44.420303,,,,,,,
1530640232.160461,-0.438621,0.170934,-1.079952,0.393920,-1.819848,-0.009817,-0.418502,-0.170103,-0.892144,0.072128,0.008039,-0.022468,-12.893219,11.243202,-43.956940,,,,,,,
1530640232.180430,-0.476602,0.179324,-1.075623,0.520501,-1.886396,0.029496,-0.451406,-0.178365,-0.874310,0.054113,0.035802,-0.031634,-14.417524,10.849625,-43.562119,,,,,,,
1530640232.200399,-0.516064,0.188594,-1.069853,0.564322,-1.930764,0.057935,-0.484710,-0.187478,-0.854346,0.038238,0.030511,-0.027764,-16.082335,10.368629,-42.915878,,,,,,,
1530640232.220368,-0.554220,0.197475,-1.062015,0.565345,-1.665587,0.183232,-0.516052,-0.196194,-0.833786,0.015411,0.004238,-0.037659,-17.546524,10.018784,-42.296341,,,,,,,
1530640232.240336,-0.579941,0.199916,-1.053315,0.185456,-0.980936,0.328639,-0.537061,-0.198587,-0.819835,-0.048419,0.015222,0.054942,-18.386803,9.637421,-41.978409,,,,,,,
1530640232.260305,-0.593021,0.194725,-1.048439,-0.200932,-0.407081,0.373273,-0.548306,-0.193496,-0.813584,-0.059329,-0.020874,0.079560,-19.009998,9.609619,-41.846741,,,,,,,
1530640232.280274,-0.601220,0.185639,-1.045586,-0.299543,-0.402663,0.377580,-0.555931,-0.184574,-0.810477,-0.026177,-0.015240,-0.036828,-19.358810,9.979767,-41.821152,,,,,,,
1530640232.300243,-0.611388,0.178293,-1.041639,-0.095106,-0.512081,0.386737,-0.564905,-0.177350,-0.805871,-0.029684,-0.023517,-0.117545,-19.705982,10.384109,-41.570160,,,,,,,
1530640232.320212,-0.624839,0.174437,-1.035475,0.076196,-0.703938,0.346240,-0.576089,-0.173554,-0.798749,-0.041663,-0.012878,-0.128924,-20.042612,10.626106,-41.185440,,,,,,,
1530640232.340180,-0.643355,0.172539,-1.029495,0.119740,-0.967366,0.285183,-0.590976,-0.171685,-0.788208,-0.037625,-0.001289,-0.119049,-20.794266,10.738548,-40.615952,,,,,,,
1530640232.360149,-0.665982,0.171349,-1.024320,0.105548,-1.146915,0.229460,-0.608784,-0.170512,-0.774795,-0.007946,-0.001973,-0.100235,-21.415695,10.673683,-40.378372,,,,,,,
1530640232.380118,-0.690292,0.170060,-1.020454,0.064981,-1.180849,0.189827,-0.627577,-0.169242,-0.759937,0.009932,0.011985,-0.054287,-22.434729,10.808319,-39.914116,,,,,,,
1530640232.400087,-0.713927,0.168532,-1.017227,0.046198,-1.128872,0.177337,-0.645529,-0.167736,-0.745088,0.015204,0.012554,-0.050261,-23.295120,10.738991,-39.632675,,,,,,,
1530640232.420055,-0.735678,0.166436,-1.014767,-0.019749,-1.030483,0.160179,-0.661816,-0.165669,-0.731131,0.008923,-0.002697,-0.021630,-24.133816,10.935318,-39.077797,,,,,,,
1530640232.440024,-0.755574,0.163462,-1.013996,-0.109682,-0.976139,0.127966,-0.676566,-0.162735,-0.718175,-0.003961,-0.016845,-0.012050,-24.899744,10.870262,-38.597878,,,,,,,
1530640232.459993,-0.775387,0.160111,-1.014533,-0.115780,-1.005786,0.105244,-0.691039,-0.159428,-0.705016,0.008132,-0.005748,-0.021363,-25.907955,11.249214,-37.938438,,,,,,,
1530640232.479962,-0.792194,0.156805,-1.015227,-0.195606,-0.623845,0.111169,-0.703161,-0.156163,-0.693669,-0.002130,-0.013453,0.051228,-26.296892,11.176933,-37.519867,,,,,,,
1530640232.499931,-0.791634,0.148561,-1.018505,-0.470572,0.366659,0.241828,-0.703665,-0.148015,-0.694943,-0.020791,-0.036952,0.291272,-26.278389,11.786980,-37.497459,,,,,,,
1530640232.519899,-0.777437,0.138647,-1.020086,-0.319237,0.827513,0.319014,-0.694724,-0.138203,-0.705874,-0.051126,-0.021953,0.060305,-25.673971,12.196609,-37.802696,,,,,,,
1530640232.539868,-0.759673,0.131126,-1.019098,-0.192121,0.904953,0.288910,-0.682773,-0.130750,-0.718837,-0.047406,-0.008654,-0.025441,-24.851702,12.682335,-38.225601,,,,,,,
1530640232.559837,-0.745274,0.126135,-1.017754,-0.052717,0.576715,0.176912,-0.672786,-0.125801,-0.729063,-0.046559,-0.007668,-0.084962,-24.491962,12.821342,-38.303452,,,,,,,
1530640232.579806,-0.738259,0.125791,-1.015683,0.110893,0.281669,0.052945,-0.667684,-0.125459,-0.733797,-0.033976,-0.013853,-0.092314,-24.150826,12.847153,-38.753555,,,,,,,
1530640232.599775,-0.732903,0.127100,-1.013898,0.102739,0.299534,0.024003,-0.663633,-0.126758,-0.737240,-0.031832,-0.018262,-0.023151,-23.960125,12.781555,-38.986290,,,,,,,
1530640232.619743,-0.725913,0.127571,-1.012803,0.036577,0.378971,0.033718,-0.658424,-0.127225,-0.741816,-0.021172,-0.011004,-0.018987,-23.630085,12.764687,-39.165878,,,,,,,
1530640232.639712,-0.719569,0.127446,-1.012514,0.002165,0.252175,0.012980,-0.653715,-0.127101,-0.745990,-0.010088,-0.016881,-0.040082,-23.438194,12.709053,-39.132599,,,,,,,
1530640232.659681,-0.717019,0.127799,-1.013048,0.006856,0.062687,-0.042985,-0.651781,-0.127452,-0.747621,0.000597,-0.013387,-0.043288,-23.254358,12.534073,-39.184334,,,,,,,
1530640232.679650,-0.715955,0.128378,-1.014067,-0.008876,0.060483,-0.042828,-0.650937,-0.128025,-0.748258,-0.006823,-0.019893,-0.003466,-23.234276,12.427414,-39.289604,,,,,,,
1530640232.699618,-0.714144,0.128420,-1.014717,-0.012332,0.103282,-0.005916,-0.649577,-0.128067,-0.749432,-0.002766,-0.012985,0.001629,-23.065636,12.226501,-39.458855,,,,,,,
1530640232.719587,-0.712080,0.128228,-1.014836,0.000016,0.106389,0.023089,-0.648045,-0.127877,-0.750789,0.007130,-0.003470,-0.002476,-23.050419,12.711502,-39.410469,,,,,,,
1530640232.739556,-0.710111,0.127456,-1.014704,-0.028507,0.086347,0.049180,-0.646630,-0.127111,-0.752138,0.011147,0.005804,-0.002775,-22.884447,12.565315,-39.429459,,,,,,,
1530640232.759525,-0.709196,0.126382,-1.014468,-0.016983,0.022297,0.051979,-0.646030,-0.126046,-0.752833,0.002689,0.003365,-0.022130,-22.827436,12.593124,-39.580643,,,,,,,
1530640232.779494,-0.709922,0.126060,-1.014082,0.022052,-0.061429,0.025276,-0.646603,-0.125726,-0.752395,-0.000522,0.002817,-0.026841,-22.966793,12.629196,-39.510551,,,,,,,
1530640232.799462,-0.712174,0.126528,-1.013449,0.054636,-0.141975,0.018069,-0.648257,-0.126191,-0.750892,0.001880,0.013597,-0.020150,-23.034729,12.644043,-39.661888,,,,,,,
1530640232.819431,-0.716591,0.127035,-1.012541,0.051468,-0.265654,0.023981,-0.651525,-0.126693,-0.747973,0.021459,0.016479,-0.037916,-23.141590,12.547920,-39.586678,,,,,,,
1530640232.839400,-0.724242,0.127640,-1.012335,0.045653,-0.510356,-0.028914,-0.657178,-0.127293,-0.742908,-0.006304,0.032338,-0.060589,-23.611176,12.741142,-39.444649,,,,,,,
1530640232.859369,-0.738265,0.128500,-1.011214,0.061886,-0.785748,0.045086,-0.667457,-0.128147,-0.733539,0.080924,-0.014202,-0.130856,-24.070591,12.733047,-39.117500,,,,,,,
1530640232.879338,-0.755017,0.127894,-1.012596,-0.118669,-0.893159,-0.058123,-0.679704,-0.127546,-0.722312,-0.025115,0.039670,0.012809,-24.772211,12.567627,-38.641518,,,,,,,
1530640232.899306,-0.772195,0.127766,-1.014120,0.018374,-0.822822,-0.019342,-0.692022,-0.127419,-0.710542,0.040823,0.025826,-0.009856,-25.338314,12.490913,-38.042778,,,,,,,
1530640232.919275,-0.786398,0.129382,-1.013133,0.133691,-0.634087,-0.019662,-0.701898,-0.129022,-0.700495,0.016641,0.024652,0.021509,-25.934320,12.594566,-37.835037,,,,,,,
1530640232.939244,-0.794449,0.131851,-1.011943,0.119061,-0.269684,-0.035006,-0.707284,-0.131469,-0.694597,-0.008704,-0.000336,0.078447,-26.255047,12.352081,-37.714760,,,,,,,
1530640232.959213,-0.796862,0.132878,-1.011196,0.064157,-0.090013,0.006352,-0.708862,-0.132488,-0.692793,0.008773,-0.004170,0.044142,-26.471745,12.461960,-37.824074,,,,,,,
1530640232.979182,-0.798731,0.133908,-1.010164,0.087300,-0.091063,-0.002529,-0.710057,-0.133508,-0.691372,0.008504,0.012475,-0.022541,-26.305460,12.172508,-37.664665,,,,,,,
1530640232.999150,-0.800503,0.134994,-1.009429,0.066383,-0.073344,-0.009769,-0.711177,-0.134584,-0.690011,0.008433,0.011217,0.004571,-26.340334,12.103363,-37.567329,,,,,,,
1530640233.019119,-0.801587,0.136029,-1.008878,0.058019,-0.037988,-0.013824,-0.711824,-0.135610,-0.689142,0.007722,0.006963,-0.007025,-26.537136,12.242828,-37.621208,,,,,,,
1530640233.039088,-0.801991,0.137204,-1.008607,0.059220,-0.010257,-0.033116,-0.711987,-0.136774,-0.688743,0.006101,0.003503,-0.010964,-26.418665,11.958244,-37.589828,,,,,,,
1530640233.059057,-0.802583,0.138413,-1.008898,0.019537,-0.061995,-0.052357,-0.712276,-0.137971,-0.688206,0.005428,0.004793,-0.010982,-26.352430,11.862862,-37.570953,,,,,,,
,,,,,,,,,,,,,,,,39.779090,-84.063201,291.003750,1.270000,152.226562,1530640233.000066,
1530640233.079026,-0.805005,0.139134,-1.010365,-0.039923,-0.178745,-0.087876,-0.713868,-0.138686,-0.686410,-0.000274,-0.000627,-0.009773,-26.473953,11.832581,-37.545341,,,,,,,
1530640233.098994,-0.809320,0.139805,-1.013061,-0.078430,-0.272334,-0.121348,-0.716756,-0.139350,-0.683259,-0.004512,0.000175,-0.007476,-26.699669,11.875626,-37.237335,,,,,,,
1530640233.118963,-0.815266,0.140412,-1.016439,-0.094073,-0.352853,-0.130201,-0.720744,-0.139951,-0.678927,0.005488,0.006437,-0.018995,-27.054113,11.880920,-37.247787,,,,,,,
1530640233.138932,-0.821941,0.141293,-1.019505,-0.042748,-0.340776,-0.123139,-0.725169,-0.140823,-0.674016,0.013087,0.011856,-0.020548,-27.378796,11.927856,-37.109825,,,,,,,
1530640233.158901,-0.828498,0.143001,-1.021411,0.021246,-0.352920,-0.126037,-0.729395,-0.142514,-0.669083,0.016230,0.013928,-0.028320,-27.624418,11.923241,-36.681602,,,,,,,
1530640233.178870,-0.835536,0.146332,-1.022426,0.123225,-0.373711,-0.157427,-0.733730,-0.145810,-0.663611,0.014049,0.013822,-0.034295,-27.735334,11.629631,-36.494667,,,,,,,
1530640233.198838,-0.842347,0.150869,-1.022363,0.181974,-0.308567,-0.162054,-0.737732,-0.150298,-0.658151,0.013672,0.021498,-0.015051,-28.065533,11.518646,-36.347443,,,,,,,
1530640233.218807,-0.847725,0.155888,-1.021817,0.207141,-0.253372,-0.163131,-0.740685,-0.155257,-0.653667,0.006218,0.004973,-0.029972,-28.310966,11.371704,-36.167343,,,,,,,
1530640233.238776,-0.852282,0.160409,-1.021225,0.155514,-0.212709,-0.134342,-0.743120,-0.159722,-0.649816,0.011294,0.012490,-0.021708,-28.434252,11.040276,-36.212959,,,,,,,
1530640233.258745,-0.855582,0.162981,-1.021656,0.038712,-0.163325,-0.086484,-0.744948,-0.162261,-0.647089,0.021956,0.009307,-0.011282,-28.701126,10.883522,-36.156097,,,,,,,
1530640233.278714,-0.857929,0.163475,-1.023227,-0.076916,-0.127084,-0.053803,-0.746404,-0.162748,-0.645286,0.026616,0.015150,-0.019173,-28.811159,11.040001,-35.938301,,,,,,,
1530640233.298682,-0.858417,0.162178,-1.025959,-0.160033,-0.001422,-0.023185,-0.746878,-0.161468,-0.645059,0.024359,0.003357,-0.008841,-28.847616,11.065300,-35.864891,,,,,,,
1530640233.318651,-0.857737,0.159978,-1.029532,-0.203954,-0.013449,-0.037873,-0.746706,-0.159297,-0.645798,0.023424,0.010096,-0.000260,-28.795511,11.032776,-35.743652,,,,,,,
1530640233.338620,-0.855932,0.159216,-1.034823,-0.240063,0.114931,-0.242870,-0.745630,-0.158544,-0.647224,0.034174,0.030218,0.008338,-28.876583,11.063217,-35.940071,,,,,,,
1530640233.358589,-0.851799,0.160966,-1.044571,-0.328830,0.149285,-0.417555,-0.742739,-0.160272,-0.650116,0.020724,0.020959,0.006043,-28.798477,11.151123,-36.037048,,,,,,,
1530640233.378558,-0.845704,0.161883,-1.054929,-0.334926,0.261182,-0.315568,-0.738653,-0.161177,-0.654533,0.047811,0.009199,0.011574,-28.686928,11.291313,-35.862770,,,,,,,
1530640233.398527,-0.836421,0.162300,-1.063210,-0.269037,0.466375,-0.299105,-0.732495,-0.161588,-0.661317,0.058240,-0.010287,-0.018081,-28.649952,11.360275,-36.006721,,,,,,,
1530640233.418495,-0.825166,0.163863,-1.072685,-0.294424,0.483648,-0.401208,-0.724819,-0.163131,-0.669347,0.004543,0.009993,-0.010692,-28.304358,11.352043,-36.542900,,,,,,,
1530640233.438464,-0.815942,0.164843,-1.080980,-0.200602,0.355283,-0.201147,-0.718498,-0.164097,-0.675894,-0.006997,0.006123,-0.041467,-28.106825,11.203232,-36.501640,,,,,,,
1530640233.458433,-0.809755,0.162539,-1.082495,-0.104991,0.245639,0.165078,-0.714574,-0.161824,-0.680585,-0.059550,-0.037151,-0.025042,-27.652210,11.288437,-36.736404,,,,,,,
1530640233.478402,-0.807103,0.157222,-1.081618,-0.175784,0.066343,0.235076,-0.713378,-0.156575,-0.683064,-0.024308,-0.009075,-0.036632,-27.567186,11.670616,-36.550041,,,,,,,
1530640233.498371,-0.805633,0.151230,-1.081131,-0.176901,0.125909,0.241845,-0.713037,-0.150654,-0.684749,0.004144,0.002720,-0.004017,-27.538286,11.820648,-36.544785,,,,,,,
1530640233.518339,-0.802105,0.145322,-1.080614,-0.190505,0.183351,0.236873,-0.711244,-0.144811,-0.687867,0.005907,0.007039,-0.016311,-27.316809,12.040565,-36.766319,,,,,,,
1530640233.538308,-0.798785,0.138954,-1.081446,-0.281389,0.153868,0.194557,-0.709603,-0.138507,-0.690854,0.003472,0.005176,-0.018283,-27.193989,12.231133,-36.714066,,,,,,,
1530640233.558277,-0.795651,0.132871,-1.084244,-0.322472,0.134739,0.089209,-0.708023,-0.132481,-0.693651,0.010575,0.019001,-0.014982,-26.931170,12.640068,-36.816620,,,,,,,
1530640233.578246,-0.793388,0.127647,-1.087570,-0.272103,0.057462,0.087225,-0.706935,-0.127300,-0.695728,-0.001347,-0.002476,-0.012890,-26.946131,13.072647,-36.720390,,,,,,,
1530640233.598215,-0.793032,0.122427,-1.089394,-0.227581,-0.011489,0.158674,-0.707151,-0.122122,-0.696436,0.010221,-0.008448,-0.017569,-26.965549,13.372223,-36.548553,,,,,,,
1530640233.618183,-0.793798,0.117254,-1.090377,-0.192970,-0.056765,0.159165,-0.708125,-0.116985,-0.696328,0.015788,0.009640,-0.017173,-26.799816,13.725060,-36.703423,,,,,,,
1530640233.638152,-0.794966,0.112613,-1.091231,-0.181271,-0.072088,0.139554,-0.709318,-0.112375,-0.695873,0.017759,0.010629,-0.011860,-26.958086,13.897583,-36.648758,,,,,,,
1530640233.658121,-0.796197,0.108217,-1.091783,-0.160456,-0.057877,0.158817,-0.710521,-0.108006,-0.695338,0.012523,0.003239,-0.021321,-27.040447,14.115967,-36.493652,,,,,,,
1530640233.678090,-0.797172,0.103733,-1.091789,-0.149036,-0.057977,0.172712,-0.711537,-0.103547,-0.694977,0.006780,-0.000472,-0.023514,-26.889696,14.208664,-36.038864,,,,,,,
1530640233.698059,-0.798765,0.099572,-1.091897,-0.135118,-0.106320,0.138897,-0.712946,-0.099407,-0.694137,0.001505,0.004894,-0.030076,-27.041142,14.233017,-36.189430,,,,,,,
1530640233.718028,-0.801268,0.096160,-1.092249,-0.113852,-0.136995,0.104013,-0.714921,-0.096012,-0.692582,0.002259,-0.001598,-0.025344,-27.062933,14.561050,-36.179977,,,,,,,
1530640233.737996,-0.803570,0.094095,-1.092789,-0.061975,-0.117825,0.043156,-0.716654,-0.093956,-0.691071,-0.005102,-0.005409,-0.020172,-27.343082,14.837738,-35.860283,,,,,,,
1530640233.757965,-0.805630,0.093417,-1.093150,-0.013482,-0.102166,0.011435,-0.718122,-0.093281,-0.689637,0.003645,-0.009960,-0.026779,-27.382711,14.707870,-35.695892,,,,,,,
1530640233.777934,-0.807438,0.093650,-1.093704,0.000571,-0.094085,-0.040446,-0.719352,-0.093514,-0.688322,0.005180,0.004433,-0.023714,-27.234413,14.514397,-35.657196,,,,,,,
1530640233.797903,-0.808666,0.094715,-1.094679,0.021748,-0.056379,-0.066375,-0.720124,-0.094574,-0.687369,0.014360,-0.003250,-0.025002,-27.374535,14.621056,-35.779518,,,,,,,
1530640233.817872,-0.809207,0.096226,-1.095345,0.041743,-0.017681,-0.076110,-0.720392,-0.096077,-0.686881,0.020456,0.007103,-0.037485,-27.395962,14.485794,-35.917610,,,,,,,
1530640233.837841,-0.809414,0.098360,-1.095870,0.072291,-0.021993,-0.092632,-0.720384,-0.098202,-0.686588,0.040086,0.010479,-0.066326,-27.442432,14.374420,-35.846512,,,,,,,
1530640233.857809,-0.809988,0.100426,-1.096852,0.015808,-0.028475,-0.110397,-0.720630,-0.100257,-0.686033,0.077395,0.035377,-0.061419,-27.568207,14.528152,-35.954437,,,,,,,
1530640233.877778,-0.809251,0.101917,-1.099278,-0.055235,0.045750,-0.144873,-0.720015,-0.101741,-0.686460,0.096937,0.049373,-0.049654,-27.554440,14.334351,-35.808479,,,,,,,
1530640233.897747,-0.806792,0.103829,-1.104274,-0.127497,0.117408,-0.287203,-0.718182,-0.103642,-0.688093,0.127499,0.058186,-0.046511,-27.477394,14.441986,-35.632767,,,,,,,
1530640233.917716,-0.801719,0.106499,-1.111817,-0.190819,0.258199,-0.369974,-0.714482,-0.106298,-0.691532,0.170460,0.055501,-0.019253,-27.377726,14.467422,-36.042473,,,,,,,
1530640233.937685,-0.793733,0.109138,-1.119768,-0.150123,0.346343,-0.347333,-0.708734,-0.108922,-0.697016,0.219629,0.062382,-0.021764,-27.203232,14.276573,-36.139000,,,,,,,
1530640233.957653,-0.785194,0.111869,-1.126032,-0.093963,0.413277,-0.291525,-0.702543,-0.111636,-0.702830,0.287641,0.046756,-0.060598,-26.959635,14.064621,-36.255630,,,,,,,
1530640233.977622,-0.774305,0.114338,-1.130523,-0.047507,0.594816,-0.205939,-0.694654,-0.114089,-0.710239,0.268323,0.064666,-0.062359,-26.625328,14.205696,-36.386208,,,,,,,
1530640233.997591,-0.760935,0.115808,-1.133431,-0.037759,0.671474,-0.117235,-0.684979,-0.115549,-0.719341,0.197812,0.053339,-0.079716,-26.297878,14.056313,-36.848740,,,,,,,
1530640234.017560,-0.747753,0.116044,-1.134167,0.012310,0.641634,0.044945,-0.675419,-0.115784,-0.728287,0.154286,0.027603,-0.104263,-25.771788,14.144897,-37.063843,,,,,,,
1530640234.037529,-0.736353,0.113919,-1.131462,0.016914,0.538621,0.254712,-0.667237,-0.113672,-0.736120,0.111771,0.000345,-0.102732,-25.450047,14.292442,-37.050957,,,,,,,
1530640234.057498,-0.727532,0.109477,-1.126415,0.000113,0.446078,0.388178,-0.661047,-0.109258,-0.742347,0.051046,0.002172,-0.098382,-24.936222,14.518036,-37.540237,,,,,,,
,,,,,,,,,,,,,,,,39.779068,-84.063179,290.790493,2.010000,145.195312,1530640234.000068,
1530640234.077466,-0.718785,0.103076,-1.120277,-0.044802,0.471852,0.494476,-0.654976,-0.102893,-0.748612,0.025032,0.014041,-0.064422,-24.430210,14.519455,-37.683708,,,,,,,
1530640234.097435,-0.708481,0.094851,-1.113017,-0.075897,0.570649,0.576177,-0.647756,-0.094709,-0.755938,-0.023966,-0.003802,-0.033934,-24.001915,14.926056,-37.793404,,,,,,,
1530640234.117404,-0.698431,0.086922,-1.105435,-0.027238,0.473831,0.526653,-0.640589,-0.086813,-0.762961,-0.057104,-0.004908,-0.058557,-23.512625,15.177711,-38.156227,,,,,,,
1530640234.137373,-0.691544,0.081391,-1.098459,0.040858,0.293568,0.410736,-0.635616,-0.081301,-0.767712,-0.072041,0.013628,-0.046481,-23.166359,15.435188,-38.352341,,,,,,,
1530640234.157342,-0.687635,0.078128,-1.093892,0.003792,0.173598,0.201326,-0.632775,-0.078049,-0.770392,-0.099738,0.056244,-0.004678,-22.852856,15.485519,-38.147827,,,,,,,
1530640234.177310,-0.686144,0.077033,-1.093921,-0.062188,-0.017744,-0.062056,-0.631679,-0.076956,-0.771400,-0.052860,0.137335,-0.019356,-22.961079,15.646759,-38.262024,,,,,,,
1530640234.197279,-0.687929,0.077583,-1.101158,-0.294166,-0.158721,-0.417256,-0.633029,-0.077505,-0.770239,-0.039503,0.222692,0.047079,-22.979799,15.407219,-38.282616,,,,,,,
1530640234.217248,-0.693916,0.078485,-1.116448,-0.561006,-0.517414,-0.735380,-0.637584,-0.078405,-0.766381,0.090999,0.357763,-0.024116,-23.653934,15.650536,-37.987015,,,,,,,
1530640234.237217,-0.707194,0.077690,-1.144350,-1.166301,-0.899173,-1.213944,-0.647744,-0.077612,-0.757895,0.098824,0.455160,0.113623,-24.495186,16.007561,-37.555984,,,,,,,
1530640234.257186,-0.724666,0.072546,-1.187192,-1.845423,-1.127578,-1.516264,-0.661142,-0.072482,-0.746752,0.229364,0.613681,0.184007,-25.533312,16.364151,-36.459854,,,,,,,
1530640234.277155,-0.742147,0.057075,-1.242418,-2.818364,-0.903832,-1.419605,-0.674771,-0.057044,-0.735819,0.349988,0.776801,0.232981,-26.615021,17.321159,-35.416061,,,,,,,
1530640234.297123,-0.751486,0.019039,-1.306504,-4.028122,-0.455969,-0.836163,-0.682602,-0.019037,-0.730542,0.389587,0.884943,0.162671,-27.545370,19.345757,-34.096458,,,,,,,
1530640234.317092,-0.757869,-0.042384,-1.384492,-5.433261,-0.204607,-0.721818,-0.686758,0.042371,-0.725650,0.038626,0.862262,0.071399,-28.327353,22.360901,-32.237991,,,,,,,
1530640234.337061,-0.776328,-0.113955,-1.482799,-6.256702,-0.723437,-1.322750,-0.696119,0.113709,-0.708864,-0.313539,0.835785,-0.324675,-29.293421,25.339149,-29.573860,,,,,,,
1530640234.357030,-0.813664,-0.180675,-1.597000,-6.222033,-1.294644,-1.573935,-0.714978,0.179694,-0.675660,-0.385348,0.450250,-0.355789,-30.710499,28.161331,-26.397537,,,,,,,
1530640234.376999,-0.871551,-0.236441,-1.697336,-5.118677,-2.030236,-0.932430,-0.744035,0.234244,-0.625733,-0.220977,0.052392,-0.682647,-32.492741,30.246185,-22.337624,,,,,,,
1530640234.396968,-0.936873,-0.286107,-1.785574,-4.652690,-2.199457,-0.588771,-0.772957,0.282219,-0.568233,-0.399787,-0.489434,-0.281956,-34.003880,31.752563,-18.340759,,,,,,,
1530640234.416936,-1.006096,-0.320973,-1.859586,-3.398755,-2.444098,-0.550478,-0.801606,0.315490,-0.507832,-0.383376,-0.485916,-0.437145,-35.439224,33.226089,-14.394264,,,,,,,
1530640234.436905,-1.075544,-0.338862,-1.913475,-2.204906,-2.645926,-0.474665,-0.829814,0.332414,-0.448228,-0.335942,-0.684358,-0.328048,-36.451759,33.666275,-11.071861,,,,,,,
1530640234.456874,-1.138988,-0.344308,-1.941808,-0.765551,-2.775752,-0.286802,-0.854907,0.337545,-0.393951,-0.305707,-0.866217,-0.474350,-37.325878,33.885086,-8.408157,,,,,,,
1530640234.476843,-1.200312,-0.343905,-1.945688,0.139025,-3.165726,0.031702,-0.877570,0.337166,-0.340867,-0.154656,-0.982917,-0.427063,-38.122284,33.936874,-6.083969,,,,,,,
1530640234.496812,-1.262596,-0.344274,-1.934724,0.684726,-3.351734,0.245004,-0.896967,0.337514,-0.285544,-0.084235,-0.862813,-0.394113,-38.436394,34.163376,-3.751923,,,,,,,
1530640234.516780,-1.322484,-0.344086,-1.914097,1.085183,-3.315542,0.260321,-0.912511,0.337337,-0.231363,-0.107097,-0.662669,-0.357794,-38.609390,34.272888,-1.864685,,,,,,,
1530640234.536749,-1.375940,-0.346589,-1.887313,1.260340,-2.988331,0.505937,-0.922738,0.339692,-0.182112,0.003838,-0.564789,-0.266314,-38.453773,34.215294,-0.326668,,,,,,,
1530640234.556718,-1.423698,-0.353714,-1.858754,1.236819,-2.849587,0.557544,-0.927962,0.346385,-0.137494,0.080153,-0.454173,-0.318331,-38.208698,34.767479,0.937943,,,,,,,
1530640234.576687,-1.469682,-0.358403,-1.834724,0.988654,-2.625488,0.249578,-0.931675,0.350779,-0.094528,0.062351,-0.351146,-0.234864,-37.805855,35.085396,2.233330,,,,,,,
1530640234.596656,-1.509914,-0.356290,-1.815247,0.923195,-2.208242,-0.221180,-0.935461,0.348800,-0.057023,0.015921,-0.298919,-0.237044,-37.686546,34.991432,3.643379,,,,,,,
1530640234.616625,-1.541499,-0.345737,-1.794404,1.079524,-1.782683,-0.627399,-0.940422,0.338890,-0.027559,0.040810,-0.266319,-0.224333,-37.864689,34.999123,4.315109,,,,,,,
1530640234.636593,-1.564777,-0.327865,-1.768538,1.349053,-1.494117,-1.023625,-0.946715,0.322023,-0.005699,0.072325,-0.235658,-0.299874,-38.173004,34.441452,4.815201,,,,,,,
1530640234.656562,-1.579400,-0.304546,-1.736976,1.557579,-1.065036,-1.143495,-0.953948,0.299860,0.008208,0.185393,-0.112711,-0.282271,-38.814209,33.678497,4.838226,,,,,,,
1530640234.676531,-1.590186,-0.288170,-1.700116,1.760688,-1.201440,-0.584402,-0.958585,0.284198,0.018589,0.515012,0.279751,-0.584263,-39.118851,33.063461,4.688377,,,,,,,
1530640234.696500,-1.600360,-0.286776,-1.680735,0.397902,-0.425327,0.110104,-0.958741,0.282862,0.028353,0.277772,0.482962,-0.046221,-39.143890,32.704376,4.760483,,,,,,,
1530640234.716469,-1.602611,-0.286181,-1.689154,-0.787069,0.293421,-0.167151,-0.958843,0.282291,0.030516,-0.051288,0.288174,-0.192625,-39.131161,32.764694,4.787148,,,,,,,
1530640234.736438,-1.592416,-0.274633,-1.707069,-0.773916,0.944469,-0.768129,-0.962300,0.271193,0.020808,-0.080272,-0.046599,-0.131983,-39.429440,32.583138,5.210342,,,,,,,
1530640234.756406,-1.577291,-0.258473,-1.715636,-0.173662,0.812134,-0.816149,-0.966761,0.255604,0.006279,-0.079534,-0.103291,-0.090217,-39.806366,31.679718,4.975403,,,,,,,
1530640234.776375,-1.565900,-0.251153,-1.716995,-0.063623,0.485402,-0.027262,-0.968615,0.248521,-0.004743,0.143313,-0.252824,0.143979,-40.226322,31.345383,4.322891,,,,,,,
1530640234.796344,-1.560945,-0.255949,-1.721061,-0.335612,0.223918,0.283915,-0.967376,0.253163,-0.009530,0.023971,-0.047307,0.182183,-39.992775,31.183411,4.247307,,,,,,,
1530640234.816313,-1.559077,-0.260761,-1.735861,-0.968374,0.336175,0.203841,-0.966127,0.257816,-0.011323,-0.001051,-0.041447,0.311570,-39.740955,31.257477,4.258278,,,,,,,
1530640234.836282,-1.569929,-0.266582,-1.765863,-1.686045,-0.495096,0.400542,-0.964676,0.263435,-0.000837,0.083130,-0.135841,0.274900,-39.540897,31.328346,5.565010,,,,,,,
1530640234.856250,-1.583036,-0.276516,-1.804454,-1.923586,0.301899,0.576248,-0.961940,0.273005,0.011775,-0.225118,-0.176036,0.306783,-39.250160,31.621017,6.619843,,,,,,,
1530640234.876219,-1.582409,-0.287204,-1.842005,-1.666297,0.673998,0.393023,-0.958974,0.283272,0.011136,-0.313258,-0.095345,0.034655,-39.092148,31.898590,7.518707,,,,,,,
1530640234.896188,-1.580780,-0.294626,-1.868173,-0.898535,0.250315,0.643801,-0.956863,0.290382,0.009553,0.067794,-0.181297,-0.359437,-38.737881,32.156654,7.774986,,,,,,,
1530640234.916157,-1.566238,-0.318242,-1.880225,-0.479294,1.498914,1.412178,-0.949776,0.312897,-0.004329,0.100060,-0.447678,-0.007603,-37.959293,32.896927,7.398842,,,,,,,
1530640234.936126,-1.537217,-0.343858,-1.889962,-0.477133,1.432076,1.020335,-0.940930,0.337122,-0.031607,-0.256702,0.139029,-0.124078,-37.439259,33.456848,6.499580,,,,,,,
1530640234.956095,-1.517896,-0.357502,-1.900996,-0.624069,1.328483,0.523121,-0.935463,0.349935,-0.049532,-0.177589,0.461619,-0.150343,-37.273354,33.760056,6.031464,,,,,,,
1530640234.976063,-1.480967,-0.361666,-1.917931,-0.868777,2.667351,-0.236800,-0.931537,0.353833,-0.083905,-0.161298,0.347568,0.066877,-37.347111,33.624138,4.935555,,,,,,,
1530640234.996032,-1.426346,-0.338407,-1.941334,-0.948124,3.231514,-1.838075,-0.933460,0.331985,-0.135784,-0.139935,0.392365,0.012142,-38.255451,32.543816,3.362831,,,,,,,
1530640235.016001,-1.373136,-0.294609,-1.961193,-0.229561,2.669517,-2.495560,-0.938283,0.290366,-0.187915,0.087193,0.303598,-0.397915,-39.560680,30.679535,1.466881,,,,,,,
1530640235.035970,-1.333772,-0.245713,-1.971152,0.157238,1.779348,-2.454367,-0.942844,0.243248,-0.227758,0.088154,0.051598,-0.274362,-40.794559,28.883430,-0.013252,,,,,,,
1530640235.055939,-1.323749,-0.210876,-1.982651,-0.324127,-0.153201,-1.373563,-0.948159,0.209316,-0.239125,0.315163,0.073475,0.048298,-41.585793,27.648933,-0.186485,,,,,,,
,,,,,,,,,,,,,,,,39.779051,-84.063163,290.783535,2.010000,141.328125,1530640235.000066,
1530640235.075908,-1.344355,-0.188357,-1.992891,-0.108761,-1.243583,-1.265715,-0.957236,0.187245,-0.220540,-0.050684,-0.124547,-0.011958,-41.950607,26.324043,0.735909,,,,,,,
1530640235.095876,-1.377486,-0.163047,-1.990914,0.753357,-1.832931,-1.008117,-0.968357,0.162326,-0.189560,0.009922,-0.397159,-0.101639,-42.402611,25.215378,1.773193,,,,,,,
1530640235.115845,-1.410622,-0.157578,-1.965141,1.560371,-1.783537,0.590511,-0.974968,0.156927,-0.157515,0.366066,-0.372655,0.032362,-42.259819,25.301521,2.726273,,,,,,,
1530640235.135814,-1.423337,-0.178017,-1.930646,1.364283,-0.245939,1.580394,-0.973515,0.177078,-0.144604,0.092641,-0.282516,0.533199,-41.744644,26.381081,2.610237,,,,,,,
1530640235.155783,-1.399414,-0.220703,-1.901035,1.041832,1.546732,2.885627,-0.961448,0.218915,-0.166408,0.199074,-0.447401,0.400325,-40.365978,28.064621,1.415489,,,,,,,
1530640235.175752,-1.349383,-0.279777,-1.863149,1.411070,1.917221,3.249096,-0.937653,0.276142,-0.211070,0.119767,-0.334705,-0.307088,-38.696739,30.534004,-0.689964,,,,,,,
1530640235.195721,-1.326052,-0.323198,-1.814569,1.938303,-0.519638,2.181238,-0.919966,0.317601,-0.229763,0.716399,0.063747,-1.104847,-37.234039,31.989021,-1.727539,,,,,,,
1530640235.215689,-1.333702,-0.341179,-1.765982,2.013072,-1.263068,1.131768,-0.915998,0.334598,-0.221341,0.526792,0.127300,-0.743976,-36.292248,32.905975,-2.346367,,,,,,,
1530640235.235658,-1.350761,-0.364020,-1.718124,1.893998,-1.872589,2.118024,-0.911942,0.356034,-0.203961,0.048096,-0.144090,-0.435153,-35.212086,33.756531,-2.354271,,,,,,,
1530640235.255627,-1.339239,-0.420421,-1.669805,1.409857,0.178080,3.955782,-0.888551,0.408144,-0.209508,0.035661,-0.139651,0.048086,-32.852924,35.456512,-2.820023,,,,,,,
1530640235.275596,-1.311381,-0.507593,-1.618834,0.960714,0.398500,5.146928,-0.844676,0.486075,-0.224173,0.184230,-0.207907,-0.130945,-29.696222,37.908791,-3.797470,,,,,,,
1530640235.295565,-1.268320,-0.610372,-1.573627,0.102613,1.183301,5.678634,-0.782234,0.573172,-0.244097,0.309867,-0.140448,-0.036390,-25.671677,40.637409,-4.265549,,,,,,,
1530640235.315534,-1.219570,-0.729466,-1.534201,-0.752235,1.182495,6.473992,-0.700017,0.666471,-0.256499,0.345860,-0.079817,-0.046006,-20.532173,42.925243,-4.125107,,,,,,,
1530640235.335503,-1.167005,-0.870561,-1.490975,-1.443004,0.981533,7.471548,-0.592574,0.764691,-0.253189,0.268477,0.172642,0.020019,-14.524139,45.049374,-3.345139,,,,,,,
1530640235.355472,-1.116745,-1.010217,-1.447047,-1.827978,0.578417,6.080260,-0.477806,0.846947,-0.233198,0.006096,0.560066,-0.029436,-8.671089,46.108341,-1.824799,,,,,,,
1530640235.375441,-1.092788,-1.104173,-1.432175,-1.656792,0.648486,3.602485,-0.399448,0.893092,-0.206947,-0.250958,0.487721,-0.139443,-4.512423,46.539974,-0.218597,,,,,,,
1530640235.395410,-1.045988,-1.189035,-1.408388,-1.599998,1.742282,4.584293,-0.322417,0.928010,-0.186668,0.013884,-0.291306,-0.155800,-0.912703,46.476364,1.278427,,,,,,,
1530640235.415379,-0.904572,-1.286211,-1.321896,-1.536337,3.689645,4.573590,-0.220723,0.959778,-0.173516,-0.086376,-0.177063,-0.229545,3.239143,45.839638,3.216461,,,,,,,
1530640235.435347,-0.708708,-1.361114,-1.218827,-1.702333,5.426941,3.024195,-0.135475,0.978097,-0.158028,-0.204750,-0.278360,-0.182685,6.306679,44.928452,5.220551,,,,,,,
1530640235.455316,-0.438816,-1.415154,-1.067560,-1.295346,6.078568,2.480505,-0.065861,0.987912,-0.140328,-0.176677,-0.354428,-0.175208,7.973137,44.084381,7.572212,,,,,,,
1530640235.475285,-0.084689,-1.427611,-0.790344,1.026420,1.893302,1.937284,-0.012070,0.989767,-0.142185,-0.228713,0.300303,-1.436092,9.195560,43.352009,8.306786,,,,,,,
1530640235.495254,0.107529,-1.373553,-0.566561,3.310795,-2.938469,2.137680,0.021032,0.980611,-0.194835,0.059733,0.944209,-1.418309,11.037781,42.937122,6.195938,,,,,,,
1530640235.515223,0.247305,-1.294851,-0.350185,3.398511,-3.507744,3.998764,0.066695,0.962168,-0.264167,0.319474,0.910314,-0.027261,13.797966,41.900639,2.669899,,,,,,,
1530640235.535192,0.402184,-1.206475,-0.121354,2.615797,-3.003758,5.066495,0.139472,0.934366,-0.327884,0.090493,0.824545,0.259846,17.344364,39.988472,-0.413612,,,,,,,
1530640235.555161,0.507064,-1.141358,0.057353,0.637229,-2.928207,4.132387,0.202190,0.909200,-0.363971,-0.178462,0.874553,0.468250,20.552242,38.158600,-2.537048,,,,,,,
1530640235.575129,0.598936,-1.106400,0.203286,-0.528250,-1.328507,3.371681,0.252500,0.894092,-0.369923,-0.159239,0.378720,0.645161,23.007042,36.676903,-3.296242,,,,,,,
1530640235.595098,0.707298,-1.082622,0.330360,-0.932325,0.318913,2.857611,0.304757,0.883191,-0.356507,-0.012735,0.059253,0.532014,25.151943,35.096901,-2.545715,,,,,,,
1530640235.615067,0.816912,-1.061100,0.432739,-0.851546,1.235568,2.316521,0.355705,0.872893,-0.333964,0.094810,-0.163664,0.357310,26.929203,33.871201,-1.288216,,,,,,,
1530640235.635036,0.899907,-1.040051,0.498927,-0.359144,1.173000,1.603456,0.396472,0.862430,-0.314681,0.157132,-0.350513,0.132232,28.361290,32.763481,0.044540,,,,,,,
1530640235.655005,0.940205,-1.022538,0.521511,0.306681,0.957022,0.717397,0.420964,0.853433,-0.307312,0.079647,-0.438501,0.102097,29.097694,32.073051,0.876099,,,,,,,
1530640235.674973,0.947414,-1.011091,0.505176,0.868297,1.125192,-0.001766,0.431071,0.847412,-0.309952,-0.027995,-0.451950,0.224305,29.367706,31.675812,1.078613,,,,,,,
1530640235.694942,0.946179,-1.000135,0.471089,1.090916,1.452190,-0.046778,0.438194,0.841544,-0.315895,-0.013831,-0.430549,0.367958,29.288914,31.696709,1.594482,,,,,,,
1530640235.714911,0.951823,-0.987673,0.442017,0.882216,1.443628,0.083744,0.448477,0.834747,-0.319477,-0.095847,-0.356735,0.455982,29.194328,31.689201,1.987373,,,,,,,
1530640235.734879,0.962487,-0.982270,0.424307,0.297276,1.059343,-0.190128,0.455554,0.831760,-0.317250,-0.351962,-0.302432,0.506657,29.213528,31.656082,2.530197,,,,,,,
1530640235.754848,0.968571,-0.993730,0.419857,-0.584171,0.030154,-0.737894,0.449590,0.838067,-0.309052,-0.522893,-0.317757,0.431779,28.715721,31.633759,3.209740,,,,,,,
1530640235.774818,0.962734,-1.024406,0.436061,-1.635276,-1.685330,-1.167442,0.426471,0.854406,-0.296840,-0.507739,-0.355641,0.232463,28.186527,31.954491,3.371948,,,,,,,
1530640235.794787,0.939272,-1.077627,0.485957,-3.214328,-4.464506,-1.641791,0.382111,0.880837,-0.279496,-0.392838,-0.342934,-0.063583,27.200695,32.513329,3.304733,,,,,,,
1530640235.814756,0.881526,-1.164043,0.587991,-4.890544,-10.254670,-2.343172,0.305312,0.918410,-0.251610,-0.182570,0.104326,-0.740348,25.912312,33.486801,2.474609,,,,,,,
1530640235.834723,0.639791,-1.237564,0.631370,-1.859804,-12.615082,-1.654557,0.195288,0.944990,-0.262406,0.875589,1.200747,-3.954574,23.984932,34.350616,-1.743484,,,,,,,
1530640235.854693,0.468560,-1.258022,0.568910,0.083423,-1.875171,-1.413179,0.138958,0.951484,-0.274536,0.146977,0.931024,-0.785538,22.427116,35.312210,-4.380692,,,,,,,
1530640235.874662,0.386313,-1.266193,0.466467,0.373889,1.583675,-1.626087,0.113001,0.953966,-0.277813,-0.035410,0.295439,-0.463871,21.551388,35.737267,-4.362534,,,,,,,
1530640235.894631,0.316384,-1.277945,0.377376,-0.578270,-0.184343,-1.327863,0.089819,0.957425,-0.274355,0.183069,-0.017865,-0.304288,20.809883,36.565491,-3.944038,,,,,,,
1530640235.914600,0.232758,-1.301730,0.308707,-0.801241,-0.510535,-1.239701,0.061317,0.964019,-0.258664,0.211342,-0.213913,0.217190,20.166996,37.016884,-3.554466,,,,,,,
1530640235.934569,0.195060,-1.319221,0.211266,-0.610846,5.025674,-1.577415,0.048249,0.968521,-0.244209,0.010482,-0.339875,1.333977,19.551193,37.695442,-2.051323,,,,,,,
1530640235.954538,0.190380,-1.342713,0.074297,-1.038403,6.383690,-1.904963,0.042787,0.974102,-0.222026,0.006987,-0.389751,0.887660,18.826599,38.393257,1.018768,,,,,,,
1530640235.974506,0.156135,-1.378144,-0.053769,-1.768738,3.244097,-1.383838,0.029773,0.981500,-0.189134,0.260220,-0.429650,0.354631,17.500683,39.044205,3.895691,,,,,,,
1530640235.994475,0.133386,-1.420870,-0.090665,-2.210450,-1.046791,-0.091571,0.019864,0.988782,-0.148039,0.433062,-0.414975,0.110594,16.948597,39.063026,6.169098,,,,,,,
1530640236.014444,0.260158,-1.459630,0.110991,-1.984514,-5.130191,1.495481,0.028537,0.993827,-0.107204,0.400434,-0.146553,0.229015,17.601170,38.757133,7.190773,,,,,,,
1530640236.034413,0.597630,-1.464219,0.581978,-0.740957,-7.161893,2.465741,0.059857,0.994326,-0.087939,0.357975,0.198713,0.393969,20.724403,37.325897,5.018120,,,,,,,
1530640236.054382,0.740216,-1.434026,0.856392,0.566158,-5.849771,1.987894,0.091957,0.990662,-0.100666,0.254997,0.657303,0.698338,22.358150,36.554947,2.253014,,,,,,,
,,,,,,,,,,,,,,,,39.779037,-84.063150,290.852749,1.600000,138.515625,1530640236.000068,
1530640236.074351,0.738584,-1.403045,0.939118,0.671260,-3.207443,1.249940,0.112408,0.985963,-0.123458,0.311145,0.796889,0.878021,23.374748,36.016586,0.259583,,,,,,,
1530640236.094320,0.763290,-1.384244,1.002813,-0.026729,-1.193184,1.020119,0.128217,0.982650,-0.134015,0.371692,0.553834,0.626859,24.018913,35.380035,-0.664429,,,,,,,
1530640236.114288,1.006980,-1.390603,1.222789,-3.107014,3.331254,1.081253,0.151479,0.983809,-0.095777,0.134303,0.057176,0.756300,24.925701,35.059319,2.186333,,,,,,,
1530640236.134257,1.532012,-1.395377,1.666169,-3.810719,4.706726,0.796644,0.174389,0.984653,-0.006767,0.039066,-0.032184,0.017616,25.255497,34.601791,6.832741,,,,,,,
1530640236.154226,1.934784,-1.373016,1.984929,-2.470581,4.101870,0.560495,0.183618,0.980505,0.069952,-0.006403,-0.157217,-0.508260,25.256950,33.937675,10.813126,,,,,,,
1530640236.174195,2.079465,-1.350587,2.071763,-0.667877,2.313991,0.726782,0.190778,0.975852,0.106380,-0.027783,-0.208106,-0.709911,25.357525,33.125961,12.802727,,,,,,,
1530640236.194164,2.083028,-1.334572,2.043790,0.071388,1.198780,0.888243,0.203995,0.972228,0.114704,-0.068954,-0.109283,-0.286824,25.536762,32.935364,13.925369,,,,,,,
1530640236.214133,2.064359,-1.321576,2.006556,0.020679,0.731016,0.688077,0.217209,0.969105,0.116853,-0.121689,-0.042134,-0.113435,25.813457,32.708549,14.062538,,,,,,,
1530640236.234102,2.076690,-1.310654,2.006664,-0.470541,0.551291,0.361343,0.224999,0.966353,0.124645,-0.109337,-0.016799,-0.042415,25.973251,32.458786,14.647621,,,,,,,
1530640236.254070,2.126558,-1.297272,2.049974,-1.016240,0.299185,0.287212,0.229472,0.962825,0.142516,-0.041377,-0.030864,-0.050277,26.107555,32.116425,15.442474,,,,,,,
1530640236.274039,2.182451,-1.277771,2.105556,-1.278524,-0.050619,0.439318,0.236481,0.957374,0.165864,-0.027145,-0.030052,-0.091691,26.487064,31.434326,16.262215,,,,,,,
1530640236.294008,2.229636,-1.253356,2.158748,-1.433311,-0.287384,0.522873,0.246806,0.950037,0.191089,-0.092159,-0.087473,-0.122394,26.932766,30.917549,17.005707,,,,,,,
1530640236.313977,2.271954,-1.225957,2.208133,-1.527038,-0.208194,0.569553,0.258299,0.941130,0.218073,-0.121427,-0.090849,-0.125254,27.319557,30.147560,17.841583,,,,,,,
1530640236.333946,2.311725,-1.196675,2.252261,-1.584762,-0.069098,0.571917,0.269648,0.930829,0.246672,-0.115870,0.032382,-0.156569,27.664215,29.565117,18.618698,,,,,,,
1530640236.353915,2.350717,-1.166030,2.295336,-1.722678,-0.144806,0.511547,0.279982,0.919194,0.276931,-0.151488,0.178141,-0.220535,28.104439,28.684158,19.618454,,,,,,,
1530640236.373883,2.381219,-1.133179,2.343244,-2.004440,-1.397810,0.373695,0.292068,0.905764,0.307064,-0.235030,0.306028,-0.440227,28.689949,27.496437,19.942528,,,,,,,
1530640236.393852,2.341694,-1.103383,2.397766,-1.581967,-6.001940,-0.010006,0.323194,0.892737,0.313954,-0.529935,0.523248,-1.859471,30.470055,26.850922,18.130417,,,,,,,
1530640236.413821,2.252331,-1.102373,2.426669,0.091681,-5.135744,-0.672946,0.350623,0.892281,0.284426,-0.493384,0.442558,-0.758654,31.993504,27.035019,15.056427,,,,,,,
1530640236.433790,2.179185,-1.127781,2.419835,1.246635,-2.334009,-1.045999,0.351749,0.903463,0.245002,-0.408634,0.333475,-0.108069,32.179089,27.958862,12.660904,,,,,,,
1530640236.453759,2.127538,-1.163093,2.379603,1.820517,0.165940,-1.012028,0.336622,0.918034,0.209520,-0.341535,0.219371,0.134077,31.863873,28.869057,11.332527,,,,,,,
1530640236.473728,2.107981,-1.200781,2.318819,1.995544,2.654452,-1.061206,0.310696,0.932322,0.185053,-0.422894,0.359182,0.293722,30.942219,30.067642,11.278687,,,,,,,
1530640236.493697,2.121837,-1.238882,2.257717,1.732402,3.871323,-1.099984,0.277620,0.945420,0.170608,-0.417299,0.511245,0.126282,29.803791,31.072998,12.362785,,,,,,,
1530640236.513665,2.163716,-1.267781,2.231115,0.561083,2.073362,-0.931149,0.247466,0.954441,0.166741,-0.357711,0.513683,-0.303841,28.494118,32.242119,13.132370,,,,,,,
1530640236.533634,2.068907,-1.305202,2.164722,2.902599,-2.981878,-1.302981,0.230588,0.964937,0.125406,-0.126218,0.580061,-3.027826,28.128670,33.276398,10.915672,,,,,,,
1530640236.553603,1.779037,-1.365795,1.913765,3.970441,-1.413214,-2.151285,0.199171,0.979061,0.042086,-0.013868,0.475636,-0.255495,27.300835,34.662865,7.551506,,,,,,,
