timestamp(unix),attitude_roll(radians),attitude_pitch(radians),attitude_yaw(radians),rotation_rate_x(radians/s),rotation_rate_y(radians/s),rotation_rate_z(radians/s),gravity_x(G),gravity_y(G),gravity_z(G),user_acc_x(G),user_acc_y(G),user_acc_z(G),magnetic_field_x(microteslas),magnetic_field_y(microteslas),magnetic_field_z(microteslas),latitude(degree),longitude(degree),altitude(meter),speed(m/s),course(degree),timestamp(unix),User Mark
1530638978.691978,0.007129,0.113143,-0.423403,0.247410,-0.086532,-0.346083,0.007083,-0.112902,-0.993581,0.032620,0.012179,-0.010173,8.527952,-0.584999,-20.486351,,,,,,,
,,,,,,,,,,,,,,,,39.779244,-84.064408,291.283173,-1.000000,-1.000000,1530638958.451285,
1530638978.711947,0.001728,0.118113,-0.428899,0.221325,-0.379889,-0.226427,0.001716,-0.117839,-0.993031,0.046517,0.016459,0.016423,8.469625,-0.743484,-20.446838,,,,,,,
,,,,,,,,,,,,,,,,39.779244,-84.064408,291.283173,-1.000000,-1.000000,1530638967.451285,
1530638978.731915,-0.004813,0.121104,-0.432277,0.095857,-0.277741,-0.145865,-0.004778,-0.120808,-0.992664,0.003634,0.008092,0.046955,8.255758,-0.651009,-20.029465,,,,,,,
1530638978.751884,-0.008013,0.121413,-0.434922,-0.008133,-0.108925,-0.128840,-0.007954,-0.121115,-0.992607,-0.025997,0.010534,0.018867,8.307562,-0.969292,-20.451736,,,,,,,
1530638978.771853,-0.008257,0.121048,-0.437907,-0.015193,0.001725,-0.165978,-0.008196,-0.120752,-0.992649,-0.046949,0.013483,-0.022625,8.405184,-1.027710,-20.522614,,,,,,,
,,,,,,,,,,,,,,,,39.779255,-84.064472,291.283173,-1.000000,-1.000000,1530638978.758504,
1530638978.791821,-0.006909,0.120668,-0.441861,-0.023243,0.042869,-0.208839,-0.006859,-0.120376,-0.992705,-0.047172,0.014251,-0.007677,8.297190,-0.850121,-20.324486,,,,,,,
,,,,,,,,,,,,,,,,39.779255,-84.064472,291.283173,-1.000000,-1.000000,1530638978.763200,
1530638978.811790,-0.005515,0.120093,-0.446364,-0.031478,0.029752,-0.227145,-0.005475,-0.119805,-0.992782,-0.023608,0.008584,0.009353,8.239092,-0.852798,-19.938805,,,,,,,
,,,,,,,,,,,,,,,,39.779255,-84.064472,291.283173,-1.000000,-1.000000,1530638978.806046,
1530638978.831759,-0.004460,0.119211,-0.450638,-0.054744,0.030697,-0.203165,-0.004428,-0.118929,-0.992893,-0.007260,0.003679,0.022297,8.389620,-0.841690,-20.124962,,,,,,,
,,,,,,,,,,,,,,,,39.779255,-84.064472,291.283173,-1.000000,-1.000000,1530638978.810193,
1530638978.851727,-0.003726,0.117851,-0.454435,-0.075872,0.006283,-0.183644,-0.003700,-0.117578,-0.993057,-0.000374,0.006631,0.030792,8.348299,-0.605011,-20.376892,,,,,,,
1530638978.871696,-0.003795,0.116014,-0.458208,-0.095737,-0.026783,-0.190063,-0.003769,-0.115754,-0.993271,0.002274,0.003266,0.015655,8.383959,-0.662361,-20.430649,,,,,,,
1530638978.891665,-0.003654,0.114328,-0.461797,-0.078137,0.008350,-0.163119,-0.003630,-0.114080,-0.993465,0.000990,0.001012,0.002727,8.330412,-0.603737,-20.265137,,,,,,,
1530638978.911633,-0.003318,0.113035,-0.464433,-0.056488,-0.001911,-0.117022,-0.003297,-0.112794,-0.993613,-0.000839,-0.010024,-0.007333,8.203566,-0.367012,-20.321861,,,,,,,
1530638978.931602,-0.003653,0.112491,-0.466800,-0.008180,-0.057073,-0.124275,-0.003630,-0.112254,-0.993673,-0.010897,-0.012685,-0.015391,8.267252,-0.631020,-20.429657,,,,,,,
1530638978.951571,-0.005285,0.113016,-0.469762,0.044563,-0.123073,-0.160747,-0.005252,-0.112776,-0.993607,-0.014631,-0.015154,-0.020599,8.288191,-0.546753,-20.524185,,,,,,,
1530638978.971539,-0.007679,0.114213,-0.473186,0.058307,-0.142857,-0.173931,-0.007629,-0.113965,-0.993455,-0.008988,-0.013843,-0.016936,8.229181,-0.551964,-20.462860,,,,,,,
1530638978.991508,-0.009622,0.114943,-0.476508,0.013076,-0.096587,-0.158128,-0.009559,-0.114690,-0.993355,-0.004663,-0.015392,-0.003486,8.163214,-0.416534,-20.560928,,,,,,,
1530638979.011477,-0.010634,0.114660,-0.479051,-0.029307,-0.038428,-0.105619,-0.010564,-0.114409,-0.993378,0.004155,-0.020646,0.003265,8.049952,-0.502602,-20.417099,,,,,,,
1530638979.031445,-0.010764,0.114029,-0.480953,-0.031475,-0.008675,-0.097908,-0.010694,-0.113782,-0.993448,0.000974,-0.020816,-0.006476,8.153280,-0.385803,-20.166466,,,,,,,
1530638979.051414,-0.010482,0.113940,-0.483130,0.009546,0.010185,-0.113352,-0.010414,-0.113693,-0.993461,0.002220,-0.018478,-0.014046,8.169115,-0.536606,-20.558083,,,,,,,
1530638979.071383,-0.009800,0.114719,-0.485366,0.045127,0.024466,-0.105040,-0.009736,-0.114467,-0.993379,0.009537,-0.021717,-0.008330,8.171408,-0.427292,-20.365654,,,,,,,
1530638979.091351,-0.009493,0.115655,-0.487336,0.037710,-0.012034,-0.094345,-0.009430,-0.115397,-0.993275,0.020630,-0.018179,0.001896,8.141977,-0.389000,-20.423477,,,,,,,
1530638979.111319,-0.010093,0.116347,-0.489022,0.028155,-0.051876,-0.079342,-0.010024,-0.116084,-0.993189,0.030120,-0.020802,0.004816,8.143408,-0.400810,-20.574524,,,,,,,
,,,,,,,,,,,,,,,,39.779205,-84.064424,291.557617,-1.000000,-1.000000,1530638979.086325,
1530638979.131289,-0.011087,0.116952,-0.490493,0.021786,-0.060773,-0.069608,-0.011011,-0.116686,-0.993108,0.027033,-0.019758,-0.002940,8.024950,-0.403267,-20.528969,,,,,,,
1530638979.151258,-0.011619,0.117196,-0.491650,0.000615,-0.012353,-0.046499,-0.011539,-0.116928,-0.993073,0.023838,-0.019409,-0.000289,8.097143,-0.332832,-20.663521,,,,,,,
1530638979.171225,-0.011134,0.116910,-0.492162,-0.023781,0.029377,-0.013685,-0.011058,-0.116644,-0.993112,0.019634,-0.020532,-0.000082,8.157736,-0.561539,-20.632324,,,,,,,
1530638979.191194,-0.010330,0.116251,-0.492279,-0.042748,0.034826,-0.002670,-0.010260,-0.115989,-0.993197,0.019934,-0.018883,-0.006009,8.157511,-0.387482,-20.459770,,,,,,,
1530638979.211164,-0.009414,0.115395,-0.492204,-0.044963,0.050184,0.011449,-0.009352,-0.115139,-0.993305,0.020460,-0.017429,-0.006176,8.009737,-0.154770,-20.185387,,,,,,,
1530638979.231131,-0.008458,0.114710,-0.491557,-0.028481,0.043303,0.047908,-0.008402,-0.114458,-0.993393,0.020762,-0.012632,-0.013855,8.148733,-0.240395,-20.313210,,,,,,,
1530638979.251100,-0.007783,0.114595,-0.490369,0.002845,0.028826,0.064762,-0.007732,-0.114345,-0.993411,0.017375,-0.011586,-0.014874,8.187323,-0.389893,-20.506783,,,,,,,
1530638979.271070,-0.007500,0.115299,-0.488940,0.052062,0.013292,0.073871,-0.007450,-0.115043,-0.993333,0.008381,-0.010704,-0.020080,8.168203,-0.452080,-20.501404,,,,,,,
1530638979.291037,-0.007868,0.116800,-0.487621,0.081558,-0.023040,0.058279,-0.007814,-0.116534,-0.993156,-0.002699,-0.006223,-0.020440,8.139692,-0.513641,-20.496620,,,,,,,
1530638979.311006,-0.007570,0.118739,-0.486440,0.098278,0.047567,0.063837,-0.007516,-0.118461,-0.992930,-0.006033,-0.007745,-0.000753,8.225115,-0.668198,-20.294815,,,,,,,
1530638979.330975,-0.006498,0.120238,-0.484728,0.051838,0.068307,0.100022,-0.006451,-0.119948,-0.992759,0.005016,-0.010026,0.011207,8.170355,-0.565849,-20.650299,,,,,,,
1530638979.350943,-0.005283,0.120374,-0.482286,-0.020764,0.065916,0.129904,-0.005245,-0.120084,-0.992750,0.003826,-0.018390,0.031782,8.291105,-0.666595,-20.595276,,,,,,,
1530638979.370912,-0.005128,0.119284,-0.479837,-0.060478,-0.000202,0.114909,-0.005091,-0.119001,-0.992881,-0.009817,-0.012454,0.009116,8.213388,-0.424965,-20.796257,,,,,,,
1530638979.390881,-0.005848,0.118641,-0.477714,-0.007935,-0.033250,0.102326,-0.005807,-0.118362,-0.992953,-0.016837,-0.007736,-0.009732,8.306868,-0.578629,-20.789726,,,,,,,
1530638979.410849,-0.007244,0.119089,-0.475912,0.034190,-0.066235,0.081225,-0.007192,-0.118808,-0.992891,-0.018442,0.000888,-0.021330,8.215269,-0.596306,-20.722137,,,,,,,
1530638979.430818,-0.007989,0.119954,-0.474099,0.041347,0.002062,0.101969,-0.007932,-0.119667,-0.992782,-0.018634,-0.002251,-0.000412,8.189882,-0.572006,-20.602974,,,,,,,
1530638979.450787,-0.007968,0.120476,-0.471647,0.013876,0.011832,0.127117,-0.007910,-0.120185,-0.992720,-0.016946,-0.003976,0.004469,8.142859,-0.621315,-20.817017,,,,,,,
1530638979.470755,-0.008108,0.120955,-0.469007,0.032729,0.007389,0.130131,-0.008049,-0.120661,-0.992661,-0.024254,-0.004171,0.002549,8.135397,-0.471176,-20.779488,,,,,,,
1530638979.490724,-0.009021,0.121661,-0.466620,0.039229,-0.055369,0.106029,-0.008954,-0.121361,-0.992568,-0.029864,-0.005668,-0.006333,8.099646,-0.546242,-20.595596,,,,,,,
1530638979.510693,-0.010414,0.122639,-0.464907,0.058348,-0.041919,0.075690,-0.010336,-0.122331,-0.992435,-0.038202,-0.007719,-0.006069,8.158869,-0.826698,-20.548187,,,,,,,
1530638979.530661,-0.011270,0.123782,-0.463511,0.044847,-0.035180,0.059694,-0.011184,-0.123466,-0.992286,-0.041856,-0.009865,-0.003213,8.180689,-0.796585,-20.784523,,,,,,,
1530638979.550630,-0.011759,0.124241,-0.462670,0.014639,0.014688,0.033288,-0.011668,-0.123921,-0.992223,-0.042501,-0.011012,0.002172,8.246214,-0.977013,-20.710350,,,,,,,
1530638979.570599,-0.011027,0.124194,-0.462093,-0.014645,0.042367,0.022949,-0.010941,-0.123875,-0.992237,-0.036193,-0.017147,0.009434,8.125078,-0.943901,-20.790855,,,,,,,
1530638979.590568,-0.010151,0.123849,-0.461864,-0.014510,0.062357,0.005786,-0.010073,-0.123532,-0.992289,-0.034284,-0.018329,0.005488,8.252653,-0.973816,-20.880020,,,,,,,
1530638979.610528,-0.009337,0.123759,-0.461982,-0.005926,0.028291,-0.017117,-0.009266,-0.123444,-0.992308,-0.030560,-0.018234,-0.003389,8.389982,-0.995766,-20.763168,,,,,,,
1530638979.630497,-0.009363,0.123777,-0.462660,0.004784,0.008605,-0.044292,-0.009291,-0.123461,-0.992306,-0.029818,-0.020368,0.006680,8.298689,-0.884521,-20.612816,,,,,,,
1530638979.650466,-0.008778,0.123896,-0.463572,-0.005673,0.027403,-0.048406,-0.008711,-0.123580,-0.992296,-0.025240,-0.019716,0.002779,8.197321,-0.803925,-20.586807,,,,,,,
1530638979.670434,-0.008456,0.123574,-0.464637,-0.020291,0.023044,-0.055816,-0.008391,-0.123260,-0.992339,-0.021638,-0.019730,0.007109,8.254522,-0.947731,-20.692657,,,,,,,
1530638979.690403,-0.007478,0.123181,-0.465705,-0.029763,0.047309,-0.052365,-0.007422,-0.122870,-0.992395,-0.021387,-0.020059,-0.001151,8.112299,-0.769981,-20.653091,,,,,,,
1530638979.710372,-0.007265,0.122292,-0.467003,-0.052648,-0.013249,-0.073988,-0.007211,-0.121987,-0.992505,-0.020042,-0.014213,-0.016284,8.215376,-0.909134,-20.576881,,,,,,,
1530638979.730341,-0.007412,0.121517,-0.468755,-0.034676,-0.008719,-0.091408,-0.007358,-0.121218,-0.992599,-0.019055,-0.012220,-0.023026,8.122229,-0.709038,-20.486687,,,,,,,
1530638979.750309,-0.007255,0.121137,-0.470444,-0.013804,0.004440,-0.079708,-0.007202,-0.120841,-0.992646,-0.017594,-0.010431,-0.028854,8.211306,-0.671272,-20.602257,,,,,,,
1530638979.770278,-0.006542,0.121446,-0.471883,0.028061,0.041894,-0.070263,-0.006494,-0.121147,-0.992613,-0.017325,-0.011146,-0.014894,8.095465,-0.666634,-20.829681,,,,,,,
1530638979.790247,-0.005796,0.122164,-0.473277,0.036456,0.019814,-0.070458,-0.005752,-0.121860,-0.992531,-0.013184,-0.010449,-0.008370,8.227789,-0.702118,-20.630432,,,,,,,
1530638979.810215,-0.005779,0.122996,-0.474789,0.042811,-0.016570,-0.077172,-0.005735,-0.122686,-0.992429,-0.007128,-0.010492,0.003354,8.270441,-0.571907,-20.631248,,,,,,,
1530638979.830184,-0.006049,0.123630,-0.476188,0.022768,-0.016662,-0.062941,-0.006003,-0.123315,-0.992349,-0.004251,-0.012137,0.015039,8.250288,-0.673401,-20.580643,,,,,,,
1530638979.850153,-0.006323,0.123805,-0.477205,-0.000450,-0.025614,-0.044399,-0.006275,-0.123489,-0.992326,-0.004666,-0.012131,0.014329,8.248201,-0.811844,-20.663406,,,,,,,
1530638979.870122,-0.007152,0.123510,-0.478126,-0.024512,-0.057576,-0.050770,-0.007097,-0.123197,-0.992357,-0.013090,-0.009692,-0.000136,8.213366,-0.700951,-20.666893,,,,,,,
1530638979.890090,-0.007971,0.123000,-0.479479,-0.026453,-0.024317,-0.071086,-0.007911,-0.122690,-0.992413,-0.017815,-0.012945,0.005643,8.202688,-0.712509,-20.773804,,,,,,,
1530638979.910059,-0.007340,0.122542,-0.480837,-0.027566,0.034144,-0.064316,-0.007285,-0.122236,-0.992474,-0.013909,-0.009310,-0.007373,8.235624,-0.597412,-20.637497,,,,,,,
1530638979.930028,-0.006439,0.122192,-0.482346,-0.012764,0.047491,-0.079509,-0.006391,-0.121888,-0.992523,-0.008272,-0.004699,0.002792,8.286253,-0.513084,-20.523491,,,,,,,
1530638979.949996,-0.005140,0.122083,-0.483839,-0.007646,0.059528,-0.064406,-0.005102,-0.121780,-0.992544,0.010946,-0.012940,0.014059,8.262701,-0.703148,-20.370003,,,,,,,
1530638979.969965,-0.004291,0.121907,-0.484668,-0.015269,0.020648,-0.028924,-0.004259,-0.121605,-0.992569,0.014910,-0.018180,0.024079,8.242369,-0.643997,-20.558189,,,,,,,
1530638979.989934,-0.004648,0.121292,-0.485301,-0.045588,-0.041094,-0.038602,-0.004613,-0.120995,-0.992642,0.003667,-0.017845,0.017209,8.324980,-0.694298,-20.497971,,,,,,,
1530638980.009903,-0.005647,0.120210,-0.486398,-0.056919,-0.055270,-0.063358,-0.005606,-0.119921,-0.992768,-0.001062,-0.016294,-0.001007,8.212496,-0.421410,-20.447495,,,,,,,
1530638980.029871,-0.006211,0.119213,-0.487848,-0.047391,-0.028698,-0.075197,-0.006167,-0.118931,-0.992883,0.000491,-0.008434,-0.013647,8.314173,-0.837471,-20.423393,,,,,,,
1530638980.049840,-0.006134,0.118498,-0.489291,-0.039089,0.002142,-0.065432,-0.006091,-0.118221,-0.992969,0.014667,-0.007770,-0.012677,8.112772,-0.737419,-20.622673,,,,,,,
1530638980.069809,-0.005654,0.117860,-0.490105,-0.035234,0.027247,-0.024368,-0.005615,-0.117587,-0.993047,0.021484,-0.006436,-0.007793,8.190344,-0.561394,-20.641983,,,,,,,
1530638980.089777,-0.005104,0.117325,-0.490068,-0.027156,0.023664,0.014362,-0.005069,-0.117056,-0.993112,0.021243,-0.007639,-0.007940,8.256361,-0.496155,-20.719231,,,,,,,
1530638980.109746,-0.005114,0.116897,-0.489638,-0.017807,-0.011744,0.025952,-0.005079,-0.116631,-0.993162,0.016371,-0.010780,-0.011553,8.283716,-0.341553,-20.620399,,,,,,,
1530638980.129715,-0.005457,0.116705,-0.489053,-0.009452,-0.013984,0.030166,-0.005420,-0.116441,-0.993183,0.009158,-0.011504,-0.014782,8.270407,-0.409935,-20.738663,,,,,,,
1530638980.149684,-0.005405,0.116468,-0.488279,-0.014826,0.012406,0.045448,-0.005368,-0.116205,-0.993211,0.006543,-0.012900,-0.013228,8.253553,-0.266922,-20.596855,,,,,,,
1530638980.169652,-0.005016,0.115979,-0.487362,-0.030562,0.024553,0.045670,-0.004982,-0.115719,-0.993269,0.005989,-0.012378,-0.017473,8.184000,-0.367607,-20.399185,,,,,,,
1530638980.189621,-0.004308,0.115601,-0.486279,-0.012858,0.041002,0.060665,-0.004279,-0.115344,-0.993316,0.003791,-0.014203,-0.019364,8.329245,-0.480347,-20.517044,,,,,,,
1530638980.209590,-0.003856,0.115658,-0.485051,0.011261,0.018911,0.061382,-0.003831,-0.115401,-0.993312,-0.000427,-0.013689,-0.016164,8.294855,-0.302986,-20.553627,,,,,,,
1530638980.229559,-0.003953,0.116127,-0.483897,0.030186,-0.005342,0.055667,-0.003926,-0.115866,-0.993257,-0.006023,-0.016764,-0.011610,8.255968,-0.567154,-20.611176,,,,,,,
1530638980.249527,-0.004081,0.116888,-0.482827,0.038620,0.002420,0.050225,-0.004054,-0.116622,-0.993168,-0.011327,-0.014344,-0.008266,8.193178,-0.569641,-20.593987,,,,,,,
1530638980.269496,-0.003962,0.117629,-0.481852,0.034438,0.017891,0.048185,-0.003935,-0.117358,-0.993082,-0.014452,-0.015881,-0.007544,8.220118,-0.546028,-20.476128,,,,,,,
1530638980.289465,-0.003527,0.118333,-0.480896,0.033413,0.028952,0.045014,-0.003502,-0.118057,-0.993001,-0.019142,-0.014130,-0.008663,8.206903,-0.655083,-20.683266,,,,,,,
1530638980.309433,-0.002874,0.119062,-0.480133,0.035614,0.043391,0.032121,-0.002854,-0.118781,-0.992916,-0.020980,-0.016137,-0.000538,8.098646,-0.560127,-20.555817,,,,,,,
1530638980.329402,-0.002241,0.119777,-0.479639,0.033633,0.026931,0.018038,-0.002225,-0.119491,-0.992833,-0.017840,-0.015519,0.002858,8.264631,-0.584229,-20.666603,,,,,,,
1530638980.349371,-0.001944,0.120394,-0.479437,0.022205,0.012673,0.005147,-0.001930,-0.120103,-0.992760,-0.019753,-0.012511,0.006935,8.317392,-0.702362,-20.596985,,,,,,,
1530638980.369340,-0.001705,0.120736,-0.479362,0.008616,0.016025,-0.000080,-0.001693,-0.120443,-0.992719,-0.022462,-0.011698,0.002378,8.308805,-0.649078,-20.402832,,,,,,,
1530638980.389308,-0.001300,0.120726,-0.479569,-0.004864,0.029409,-0.019288,-0.001290,-0.120433,-0.992721,-0.023658,-0.007680,-0.007188,8.315763,-0.544861,-20.520477,,,,,,,
1530638980.409277,-0.000495,0.120753,-0.480042,0.004616,0.042691,-0.024718,-0.000492,-0.120460,-0.992718,-0.020184,-0.004311,-0.013401,8.369333,-0.654114,-20.580482,,,,,,,
1530638980.429246,0.000415,0.121240,-0.480513,0.029768,0.050397,-0.022788,0.000412,-0.120944,-0.992659,-0.016235,-0.005170,-0.004594,8.300467,-0.433098,-20.563583,,,,,,,
1530638980.449215,0.001212,0.121827,-0.481006,0.023497,0.032751,-0.024964,0.001203,-0.121526,-0.992588,-0.017225,-0.006113,0.004032,8.435255,-0.643288,-20.458565,,,,,,,
1530638980.469183,0.001626,0.122180,-0.481509,0.013029,0.016210,-0.027093,0.001614,-0.121876,-0.992544,-0.016750,-0.007076,0.006399,8.487875,-0.713394,-20.563538,,,,,,,
1530638980.489152,0.001923,0.122302,-0.482196,0.006833,0.015190,-0.038896,0.001908,-0.121998,-0.992529,-0.017106,-0.007000,0.006216,8.359316,-0.640099,-20.568001,,,,,,,
1530638980.509121,0.002185,0.122300,-0.483057,-0.002534,0.010837,-0.047445,0.002168,-0.121995,-0.992528,-0.017946,-0.005446,0.000783,8.420115,-0.726685,-20.349304,,,,,,,
1530638980.529090,0.002739,0.122420,-0.484070,0.011131,0.030733,-0.051807,0.002718,-0.122115,-0.992512,-0.016924,-0.006532,0.000798,8.400064,-0.578705,-20.756393,,,,,,,
1530638980.549058,0.003420,0.122667,-0.485199,0.008037,0.026363,-0.058269,0.003394,-0.122360,-0.992480,-0.011375,-0.008317,0.004657,8.534853,-0.740410,-20.634682,,,,,,,
1530638980.569027,0.003996,0.122630,-0.486183,-0.007807,0.024062,-0.044088,0.003966,-0.122323,-0.992482,-0.007841,-0.012717,0.010167,8.530863,-0.713364,-20.461853,,,,,,,
1530638980.588996,0.004173,0.122258,-0.487087,-0.025568,-0.003478,-0.051584,0.004142,-0.121954,-0.992527,-0.018729,-0.009470,-0.000790,8.576063,-0.649429,-20.547920,,,,,,,
1530638980.608965,0.004096,0.121944,-0.488520,-0.005387,-0.004371,-0.083080,0.004065,-0.121642,-0.992566,-0.019752,-0.006380,-0.011905,8.482325,-0.656830,-20.544846,,,,,,,
1530638980.628933,0.004547,0.122433,-0.490291,0.034468,0.024328,-0.084444,0.004513,-0.122127,-0.992504,-0.001462,-0.008045,-0.002384,8.508131,-0.771629,-20.572021,,,,,,,
1530638980.648902,0.005262,0.123053,-0.491739,0.020659,0.027493,-0.062709,0.005222,-0.122743,-0.992425,0.007183,-0.014663,0.018517,8.674501,-0.727341,-20.521866,,,,,,,
1530638980.668871,0.005548,0.122847,-0.492808,-0.033949,-0.004572,-0.052577,0.005506,-0.122538,-0.992449,-0.002149,-0.017660,0.014345,8.575060,-0.647919,-20.585732,,,,,,,
1530638980.688839,0.005286,0.121667,-0.494162,-0.070429,-0.023143,-0.079236,0.005247,-0.121367,-0.992594,-0.010724,-0.013185,-0.008047,8.560560,-0.580597,-20.361893,,,,,,,
1530638980.708808,0.005137,0.120382,-0.496029,-0.054535,-0.009758,-0.099836,0.005099,-0.120091,-0.992750,-0.005374,-0.008007,-0.025759,8.537374,-0.584930,-20.523720,,,,,,,
1530638980.728777,0.005497,0.119732,-0.497936,-0.020021,0.015548,-0.089298,0.005458,-0.119446,-0.992826,0.003514,-0.003204,-0.031909,8.600878,-0.636116,-20.551414,,,,,,,
1530638980.748746,0.006241,0.119995,-0.499301,0.026851,0.032929,-0.050889,0.006197,-0.119707,-0.992790,0.012022,-0.004957,-0.022942,8.552435,-0.623207,-20.442390,,,,,,,
1530638980.768714,0.006756,0.120915,-0.499886,0.048618,0.012830,-0.018858,0.006707,-0.120621,-0.992676,0.007805,-0.009781,-0.006271,8.593000,-0.522018,-20.475670,,,,,,,
1530638980.788683,0.006677,0.121718,-0.500246,0.036039,-0.011452,-0.018841,0.006627,-0.121417,-0.992579,0.000514,-0.015271,0.004085,8.537668,-0.473412,-20.309601,,,,,,,
1530638980.808652,0.006325,0.122287,-0.500731,0.020382,-0.025739,-0.027371,0.006277,-0.121982,-0.992512,-0.005896,-0.017300,0.005162,8.507467,-0.334435,-20.145912,,,,,,,
1530638980.828621,0.006123,0.122448,-0.501538,0.003745,-0.010153,-0.045460,0.006077,-0.122142,-0.992494,-0.008549,-0.015446,0.003587,8.608423,-0.402740,-20.356903,,,,,,,
1530638980.848589,0.006142,0.122402,-0.502547,-0.010901,-0.006808,-0.049596,0.006096,-0.122097,-0.992499,-0.004693,-0.011829,0.003821,8.423124,-0.462219,-20.679733,,,,,,,
1530638980.868558,0.006135,0.121948,-0.503535,-0.026661,-0.004619,-0.046186,0.006089,-0.121646,-0.992555,-0.004029,-0.007611,-0.007979,8.546507,-0.578087,-20.678215,,,,,,,
1530638980.888527,0.006143,0.121789,-0.504194,0.002556,-0.005857,-0.028166,0.006097,-0.121488,-0.992574,-0.006784,-0.006747,-0.016551,8.490171,-0.428345,-20.658943,,,,,,,
1530638980.908496,0.006090,0.122253,-0.504802,0.028800,-0.005841,-0.031683,0.006045,-0.121949,-0.992518,-0.010836,-0.007080,-0.009328,8.497396,-0.219772,-20.380463,,,,,,,
1530638980.928464,0.006004,0.122819,-0.505523,0.022552,-0.010218,-0.037031,0.005959,-0.122510,-0.992449,-0.008095,-0.008914,0.003756,8.605761,-0.625237,-20.321228,,,,,,,
1530638980.948433,0.005902,0.122985,-0.506226,-0.001603,-0.009138,-0.032452,0.005858,-0.122675,-0.992430,-0.007612,-0.008886,0.002027,8.533663,-0.449066,-20.417465,,,,,,,
1530638980.968402,0.005861,0.122713,-0.506921,-0.017310,-0.000280,-0.035477,0.005816,-0.122405,-0.992463,-0.007586,-0.008439,-0.001784,8.529745,-0.441978,-20.506729,,,,,,,
1530638980.988371,0.005911,0.122547,-0.507453,-0.000634,-0.003686,-0.022728,0.005867,-0.122241,-0.992483,-0.001396,-0.008024,-0.005960,8.504000,-0.376343,-20.358398,,,,,,,
1530638981.008339,0.005674,0.122753,-0.507716,0.015001,-0.017018,-0.011101,0.005631,-0.122445,-0.992459,-0.003693,-0.010383,-0.000400,8.426973,-0.293434,-20.459526,,,,,,,
1530638981.028308,0.005186,0.123159,-0.507962,0.015014,-0.028050,-0.012230,0.005147,-0.122848,-0.992412,-0.005543,-0.012299,0.003307,8.500727,-0.217415,-20.477791,,,,,,,
1530638981.048277,0.004660,0.123379,-0.508233,0.006631,-0.025832,-0.013210,0.004624,-0.123067,-0.992388,-0.007157,-0.015117,0.003267,8.385366,-0.366463,-20.436485,,,,,,,
1530638981.068246,0.004199,0.123354,-0.508502,-0.007002,-0.025829,-0.013062,0.004167,-0.123041,-0.992393,-0.008180,-0.011511,-0.004510,8.455790,-0.300270,-20.489899,,,,,,,
1530638981.088214,0.003910,0.123134,-0.508745,-0.010170,-0.011492,-0.010804,0.003881,-0.122823,-0.992421,-0.004460,-0.010691,-0.011775,8.274881,-0.398697,-20.509369,,,,,,,
1530638981.108182,0.003812,0.123202,-0.508849,0.010742,-0.001615,-0.003429,0.003783,-0.122890,-0.992413,-0.002852,-0.010227,-0.015857,8.451231,-0.326996,-20.496582,,,,,,,
1530638981.128151,0.003692,0.123714,-0.508922,0.025433,-0.012650,-0.004722,0.003663,-0.123399,-0.992350,-0.003175,-0.012282,-0.009557,8.514406,-0.454010,-20.482231,,,,,,,
1530638981.148120,0.003528,0.124184,-0.508998,0.015977,-0.002728,-0.002411,0.003501,-0.123865,-0.992293,0.000329,-0.013052,-0.003786,8.464293,-0.399734,-20.497658,,,,,,,
1530638981.168088,0.003490,0.124369,-0.508973,0.005443,0.000549,0.003106,0.003463,-0.124049,-0.992270,-0.001632,-0.012487,-0.006784,8.377371,-0.478233,-20.717819,,,,,,,
1530638981.188057,0.003510,0.124556,-0.508998,0.010751,0.002808,-0.004483,0.003483,-0.124234,-0.992247,-0.002537,-0.011859,-0.008806,8.574877,-0.415886,-20.607361,,,,,,,
1530638981.208026,0.003603,0.124927,-0.509068,0.022257,0.006094,-0.001360,0.003575,-0.124603,-0.992200,0.000439,-0.011826,-0.007372,8.439142,-0.337463,-20.441879,,,,,,,
1530638981.227995,0.003820,0.125556,-0.509034,0.030620,0.011589,0.001814,0.003790,-0.125227,-0.992121,0.003092,-0.012667,-0.001837,8.517004,-0.400284,-20.621231,,,,,,,
1530638981.247963,0.004123,0.126116,-0.509004,0.023278,0.016007,0.001914,0.004090,-0.125782,-0.992049,0.000914,-0.013286,0.001907,8.463026,-0.556999,-20.548225,,,,,,,
1530638981.267932,0.004438,0.126424,-0.509018,0.008639,0.013840,-0.003334,0.004403,-0.126088,-0.992009,0.000495,-0.010066,-0.000697,8.461920,-0.415916,-20.551735,,,,,,,
1530638981.287901,0.004491,0.126398,-0.508997,-0.003968,-0.000530,-0.000033,0.004455,-0.126061,-0.992012,0.001832,-0.004737,-0.011146,8.526407,-0.655724,-20.559029,,,,,,,
1530638981.307870,0.004517,0.126555,-0.508909,0.013807,0.002733,0.006265,0.004481,-0.126218,-0.991992,0.001119,-0.000522,-0.021283,8.564104,-0.710762,-20.713531,,,,,,,
1530638981.327839,0.004700,0.127087,-0.508652,0.030489,0.016997,0.018023,0.004662,-0.126746,-0.991924,-0.001672,-0.000253,-0.018711,8.562868,-0.631042,-20.543976,,,,,,,
1530638981.347807,0.005017,0.127869,-0.508115,0.040852,0.019097,0.033020,0.004976,-0.127521,-0.991823,-0.002306,-0.001294,-0.014463,8.458532,-0.497070,-20.506752,,,,,,,
1530638981.367776,0.005283,0.128849,-0.507360,0.050220,0.017931,0.041541,0.005239,-0.128493,-0.991697,-0.003545,-0.001878,-0.006839,8.489553,-0.572060,-20.375351,,,,,,,
1530638981.387745,0.005350,0.129892,-0.506477,0.051219,0.003536,0.047932,0.005305,-0.129528,-0.991562,-0.007441,-0.005040,0.001388,8.467127,-0.671989,-20.572884,,,,,,,
1530638981.407714,0.005062,0.130876,-0.505473,0.045952,-0.013043,0.051141,0.005019,-0.130503,-0.991435,-0.012069,-0.007345,0.002528,8.428148,-0.641129,-20.735313,,,,,,,
1530638981.427682,0.004775,0.131810,-0.504517,0.047054,-0.005272,0.044701,0.004733,-0.131429,-0.991314,-0.017108,-0.010554,0.006314,8.453737,-0.459648,-20.609406,,,,,,,
1530638981.447651,0.004588,0.132520,-0.503643,0.029250,-0.003037,0.041664,0.004548,-0.132133,-0.991222,-0.023606,-0.012139,0.007137,8.428110,-0.632072,-20.681763,,,,,,,
1530638981.467620,0.004517,0.132963,-0.503024,0.018901,0.002604,0.024544,0.004477,-0.132572,-0.991163,-0.025885,-0.009426,0.010481,8.471689,-0.624199,-20.643417,,,,,,,
1530638981.487589,0.004806,0.133228,-0.502800,0.010637,0.027004,0.008572,0.004763,-0.132834,-0.991127,-0.013598,-0.012109,0.022224,8.480082,-0.647156,-20.714035,,,,,,,
1530638981.507557,0.005153,0.133366,-0.502426,0.005275,0.011446,0.023655,0.005107,-0.132971,-0.991107,-0.003291,-0.017054,0.024249,8.385183,-0.608948,-20.577568,,,,,,,
1530638981.527526,0.004697,0.133403,-0.501985,-0.007255,-0.035980,0.018167,0.004655,-0.133008,-0.991104,-0.010621,-0.016696,0.021606,8.527052,-0.811401,-20.582863,,,,,,,
1530638981.547495,0.003381,0.132955,-0.501986,-0.033212,-0.067770,-0.012988,0.003351,-0.132564,-0.991169,-0.016398,-0.013173,0.011066,8.580481,-0.711334,-20.681229,,,,,,,
1530638981.567464,0.002285,0.131994,-0.502419,-0.057232,-0.052220,-0.025600,0.002265,-0.131611,-0.991299,-0.012717,-0.006847,-0.011066,8.493258,-0.727249,-20.379547,,,,,,,
1530638981.587432,0.001803,0.130669,-0.502955,-0.071934,-0.008068,-0.024152,0.001788,-0.130298,-0.991473,-0.003878,-0.001111,-0.024045,8.441519,-0.470627,-20.654755,,,,,,,
1530638981.607401,0.002112,0.129681,-0.502968,-0.034485,0.022577,0.012266,0.002094,-0.129318,-0.991601,0.006908,0.000732,-0.032737,8.444483,-0.699371,-20.541313,,,,,,,
1530638981.627370,0.002445,0.129817,-0.502323,0.027164,0.013537,0.039604,0.002425,-0.129453,-0.991583,0.006303,-0.003588,-0.025843,8.520025,-0.445869,-20.580879,,,,,,,
1530638981.647339,0.001992,0.130816,-0.501470,0.056533,-0.031737,0.040155,0.001975,-0.130443,-0.991454,0.000909,-0.007802,-0.010759,8.644812,-0.533073,-20.508881,,,,,,,
1530638981.667307,0.001079,0.131927,-0.500812,0.050330,-0.043804,0.029375,0.001070,-0.131545,-0.991310,0.000044,-0.011995,0.000160,8.544882,-0.470970,-20.790466,,,,,,,
1530638981.687276,0.000338,0.132351,-0.500134,0.004121,-0.023974,0.037518,0.000335,-0.131965,-0.991254,-0.002929,-0.013085,0.007139,8.542868,-0.737106,-20.856827,,,,,,,
1530638981.707245,0.000137,0.131965,-0.499370,-0.028400,0.000319,0.037974,0.000135,-0.131583,-0.991305,-0.005293,-0.011118,-0.003919,8.428934,-0.523819,-20.517868,,,,,,,
1530638981.727214,0.000279,0.131536,-0.498667,-0.015789,0.009169,0.034651,0.000277,-0.131157,-0.991362,-0.003359,-0.008980,-0.011751,8.446623,-0.649567,-20.608574,,,,,,,
1530638981.747183,0.000232,0.131566,-0.497985,0.007293,-0.002971,0.033263,0.000230,-0.131187,-0.991358,-0.004243,-0.009789,-0.008520,8.502161,-0.476646,-20.645645,,,,,,,
1530638981.767151,-0.000079,0.131886,-0.497295,0.015669,-0.009612,0.035302,-0.000078,-0.131504,-0.991316,-0.005309,-0.011960,0.001097,8.553473,-0.578636,-20.764534,,,,,,,
1530638981.787120,-0.000406,0.132057,-0.496630,-0.000010,-0.010667,0.028993,-0.000402,-0.131674,-0.991293,-0.009836,-0.013087,0.002478,8.534147,-0.628510,-20.793449,,,,,,,
1530638981.807089,-0.000480,0.131963,-0.496178,-0.013551,0.002665,0.017335,-0.000476,-0.131581,-0.991305,-0.011945,-0.011638,0.001300,8.484362,-0.578590,-20.642006,,,,,,,
1530638981.827058,-0.000355,0.131507,-0.495945,-0.034458,0.012665,0.008978,-0.000352,-0.131128,-0.991365,-0.010985,-0.011221,0.000399,8.482744,-0.411896,-20.736290,,,,,,,
1530638981.847026,-0.000024,0.130608,-0.495781,-0.051239,0.019292,0.009192,-0.000024,-0.130237,-0.991483,-0.008155,-0.009519,-0.003787,8.475363,-0.358284,-20.750923,,,,,,,
1530638981.866995,0.000350,0.129583,-0.495571,-0.050200,0.021493,0.010269,0.000347,-0.129221,-0.991616,-0.009090,-0.008841,-0.011055,8.425886,-0.360199,-20.746887,,,,,,,
1530638981.886964,0.000761,0.129051,-0.495391,-0.015574,0.022603,0.007748,0.000754,-0.128693,-0.991684,-0.009559,-0.007980,-0.013199,8.410498,-0.375458,-20.521057,,,,,,,
1530638981.906933,0.000766,0.129244,-0.495428,0.022319,-0.008204,-0.008987,0.000759,-0.128884,-0.991659,-0.011181,-0.007667,-0.013727,8.514166,-0.403931,-20.546410,,,,,,,
1530638981.926902,0.000570,0.129864,-0.495754,0.028703,-0.010339,-0.019844,0.000565,-0.129499,-0.991579,-0.011689,-0.006228,-0.004682,8.318029,-0.205605,-20.551643,,,,,,,
1530638981.946870,0.000676,0.130225,-0.496141,0.009800,0.017248,-0.017355,0.000671,-0.129857,-0.991533,-0.005981,-0.007060,0.000367,8.527899,-0.501205,-20.682198,,,,,,,
1530638981.966839,0.001197,0.130163,-0.496250,-0.012349,0.028188,-0.001965,0.001187,-0.129796,-0.991540,-0.005826,-0.006282,0.002648,8.538721,-0.423904,-20.672638,,,,,,,
1530638981.986808,0.001800,0.129805,-0.496228,-0.018661,0.027071,0.000250,0.001785,-0.129440,-0.991586,-0.005035,-0.008316,-0.001365,8.662741,-0.648949,-20.699127,,,,,,,
1530638982.006777,0.001963,0.129600,-0.496243,-0.001865,0.002789,-0.001123,0.001946,-0.129238,-0.991612,-0.007028,-0.007481,-0.001858,8.418337,-0.513985,-20.368500,,,,,,,
1530638982.026746,0.001870,0.129703,-0.496308,0.007610,-0.006015,-0.005581,0.001855,-0.129340,-0.991599,-0.008568,-0.007165,-0.001459,8.524492,-0.401917,-20.492287,,,,,,,
1530638982.046714,0.001827,0.129841,-0.496434,0.005503,0.002809,-0.004436,0.001812,-0.129477,-0.991581,-0.007564,-0.006998,-0.001965,8.530493,-0.197426,-20.737541,,,,,,,
1530638982.066683,0.001920,0.129988,-0.496407,0.003353,0.006077,0.002075,0.001904,-0.129622,-0.991562,-0.010403,-0.008012,-0.004395,8.475737,-0.355385,-20.784180,,,,,,,
1530638982.086652,0.002053,0.130016,-0.496401,-0.002915,0.011620,-0.001067,0.002035,-0.129650,-0.991558,-0.012747,-0.009953,-0.001805,8.441980,-0.208656,-20.750504,,,,,,,
1530638982.106621,0.002212,0.129970,-0.496528,-0.002861,0.002834,-0.007582,0.002193,-0.129604,-0.991563,-0.010555,-0.009068,-0.005370,8.437571,-0.428391,-20.717117,,,,,,,
1530638982.126592,0.002289,0.129980,-0.496732,-0.001769,0.002871,-0.012987,0.002269,-0.129615,-0.991562,-0.013179,-0.008615,-0.004868,8.490522,-0.403557,-20.539101,,,,,,,
1530638982.146559,0.002354,0.129957,-0.497039,0.000373,0.006219,-0.018386,0.002334,-0.129592,-0.991565,-0.013976,-0.009782,-0.006208,8.429094,-0.311050,-20.622032,,,,,,,
1530638982.166528,0.002683,0.130141,-0.497384,0.015043,0.018351,-0.017405,0.002660,-0.129774,-0.991540,-0.008840,-0.010546,-0.006308,8.412458,-0.548752,-20.590935,,,,,,,
1530638982.186498,0.002942,0.130600,-0.497744,0.023445,0.008421,-0.018621,0.002917,-0.130230,-0.991480,-0.008135,-0.010777,-0.000769,8.373926,-0.259697,-20.610176,,,,,,,
1530638982.206467,0.002975,0.130999,-0.498196,0.017217,-0.002564,-0.026157,0.002950,-0.130625,-0.991427,-0.007878,-0.010260,0.000735,8.648352,-0.418098,-20.822495,,,,,,,
1530638982.226436,0.002933,0.131256,-0.498771,0.004675,-0.002523,-0.031417,0.002908,-0.130880,-0.991394,-0.010476,-0.009044,0.001327,8.631769,-0.463562,-20.689041,,,,,,,
1530638982.246404,0.003146,0.131293,-0.499365,-0.001648,0.012910,-0.028040,0.003119,-0.130916,-0.991389,-0.009253,-0.008549,-0.001608,8.584490,-0.350288,-20.700371,,,,,,,
1530638982.266373,0.003511,0.131288,-0.500025,0.001565,0.019593,-0.036675,0.003481,-0.130911,-0.991388,-0.009035,-0.006601,-0.002173,8.608744,-0.602028,-20.621651,,,,,,,
1530638982.286342,0.004062,0.131421,-0.500832,0.007883,0.025133,-0.039949,0.004027,-0.131043,-0.991368,-0.004546,-0.005447,0.000356,8.500700,-0.422974,-20.759041,,,,,,,
1530638982.306311,0.004431,0.131493,-0.501572,-0.001597,0.010747,-0.034526,0.004393,-0.131114,-0.991358,-0.003218,-0.005712,0.000589,8.607939,-0.439560,-20.545914,,,,,,,
1530638982.326280,0.004724,0.131414,-0.502197,-0.004770,0.012934,-0.031246,0.004683,-0.131036,-0.991367,-0.006957,-0.005408,-0.004163,8.544935,-0.428551,-20.394157,,,,,,,
1530638982.346248,0.004954,0.131378,-0.502856,-0.000520,0.005250,-0.037798,0.004912,-0.131000,-0.991370,-0.013655,-0.003018,-0.004251,8.865549,-0.633713,-20.615326,,,,,,,
1530638982.366217,0.005309,0.131300,-0.503754,-0.006736,0.019669,-0.047368,0.005263,-0.130923,-0.991379,-0.010207,-0.000379,0.002609,8.716299,-0.539429,-20.711571,,,,,,,
1530638982.386186,0.006146,0.131147,-0.504638,-0.008920,0.044992,-0.037519,0.006094,-0.130772,-0.991394,0.005259,-0.004986,0.012191,8.684153,-0.485802,-20.457527,,,,,,,
1530638982.406155,0.006948,0.130872,-0.505096,-0.022752,0.028266,-0.012646,0.006889,-0.130499,-0.991425,0.007042,-0.010034,0.017578,8.573095,-0.612259,-20.604454,,,,,,,
1530638982.426124,0.006894,0.130141,-0.505247,-0.041624,-0.022516,-0.011608,0.006835,-0.129774,-0.991520,-0.007430,-0.011324,0.005512,8.622789,-0.493065,-20.801933,,,,,,,
1530638982.446092,0.006223,0.129254,-0.505855,-0.044530,-0.033352,-0.040747,0.006171,-0.128894,-0.991639,-0.015250,-0.006344,-0.008712,8.743040,-0.484505,-20.503227,,,,,,,
1530638982.466061,0.005984,0.128528,-0.506764,-0.031918,-0.005729,-0.045067,0.005935,-0.128174,-0.991734,-0.010970,-0.004898,-0.016948,8.640387,-0.267876,-20.703506,,,,,,,
1530638982.486030,0.006404,0.127977,-0.507394,-0.027933,0.027215,-0.020144,0.006351,-0.127628,-0.991802,-0.005543,-0.005413,-0.013569,8.822268,-0.271042,-20.669052,,,,,,,
1530638982.505999,0.006887,0.127586,-0.507478,-0.014497,0.018209,0.004480,0.006830,-0.127240,-0.991848,-0.002192,-0.007953,-0.008396,8.647318,-0.180252,-20.835396,,,,,,,
1530638982.525968,0.006923,0.127555,-0.507299,0.007512,-0.004993,0.006286,0.006867,-0.127210,-0.991852,-0.008499,-0.013156,-0.002624,8.653353,-0.185516,-20.734634,,,,,,,
1530638982.545936,0.006461,0.127650,-0.507310,0.002371,-0.031402,-0.005652,0.006408,-0.127303,-0.991843,-0.012908,-0.016038,0.003241,8.787828,-0.242706,-20.623749,,,,,,,
1530638982.565905,0.005804,0.127537,-0.507603,-0.013253,-0.035725,-0.018447,0.005757,-0.127192,-0.991861,-0.013890,-0.015203,0.001551,8.713762,-0.093483,-20.492035,,,,,,,
1530638982.585874,0.005256,0.127063,-0.507914,-0.034263,-0.025814,-0.013856,0.005213,-0.126721,-0.991925,-0.017161,-0.012622,-0.003421,8.687273,-0.199303,-20.698196,,,,,,,
1530638982.605843,0.005111,0.126206,-0.508178,-0.044752,0.002897,-0.014691,0.005071,-0.125871,-0.992034,-0.013982,-0.011992,-0.007509,8.656691,-0.117172,-20.777336,,,,,,,
1530638982.625812,0.005152,0.125593,-0.508546,-0.026859,-0.004783,-0.022465,0.005112,-0.125264,-0.992110,-0.011856,-0.012447,-0.009370,8.655859,-0.258080,-20.733147,,,,,,,
1530638982.645780,0.005112,0.125401,-0.509061,-0.004808,-0.005870,-0.025941,0.005072,-0.125073,-0.992135,-0.006918,-0.012226,-0.006751,8.491663,-0.023399,-20.607002,,,,,,,
1530638982.665749,0.004825,0.125531,-0.509543,0.007747,-0.020253,-0.021828,0.004787,-0.125202,-0.992120,-0.002422,-0.013821,0.001290,8.659861,-0.216408,-20.554764,,,,,,,
1530638982.685718,0.004426,0.125484,-0.510078,-0.008991,-0.019108,-0.027038,0.004391,-0.125155,-0.992127,-0.003018,-0.015333,0.009782,8.652315,-0.180885,-20.622543,,,,,,,
1530638982.705687,0.004190,0.125062,-0.510651,-0.027834,-0.015762,-0.031136,0.004158,-0.124737,-0.992181,-0.001594,-0.014469,0.001932,8.682264,-0.216270,-20.465790,,,,,,,
1530638982.725656,0.004018,0.124456,-0.511358,-0.030924,-0.010189,-0.038633,0.003987,-0.124135,-0.992257,0.000652,-0.009151,-0.006095,8.722956,-0.147064,-20.682930,,,,,,,
1530638982.745624,0.004015,0.123927,-0.512123,-0.026753,-0.003589,-0.035403,0.003985,-0.123610,-0.992323,0.005476,-0.007036,-0.009386,8.583899,-0.076027,-20.705902,,,,,,,
1530638982.765593,0.003948,0.123644,-0.512668,-0.012174,-0.013617,-0.022664,0.003918,-0.123329,-0.992358,0.005512,-0.006752,-0.015210,8.699148,-0.147652,-20.760605,,,,,,,
1530638982.785562,0.003791,0.123610,-0.513072,0.000375,-0.007027,-0.018452,0.003762,-0.123296,-0.992363,0.001136,-0.005946,-0.013542,8.684908,-0.204994,-20.533485,,,,,,,
1530638982.805531,0.003685,0.123644,-0.513514,0.000427,-0.005879,-0.024918,0.003656,-0.123330,-0.992359,0.000524,-0.007118,-0.009655,8.751638,-0.097717,-20.652382,,,,,,,
1530638982.825500,0.003810,0.123533,-0.514086,-0.011088,0.007393,-0.027970,0.003781,-0.123219,-0.992372,0.002674,-0.003033,-0.011885,8.618933,-0.087456,-20.531776,,,,,,,
1530638982.845469,0.004188,0.123251,-0.514513,-0.014323,0.018358,-0.017094,0.004156,-0.122939,-0.992406,0.005137,-0.002778,-0.015132,8.668463,-0.004326,-20.628647,,,,,,,
1530638982.865437,0.004748,0.123164,-0.514625,-0.000816,0.030393,-0.002083,0.004712,-0.122853,-0.992414,0.002734,-0.003856,-0.008960,8.667341,-0.034760,-20.703491,,,,,,,
1530638982.885406,0.005290,0.123484,-0.514624,0.020145,0.021542,-0.000190,0.005250,-0.123170,-0.992372,0.000274,-0.005873,0.000199,8.599371,0.189972,-20.484833,,,,,,,
1530638982.905375,0.005413,0.123879,-0.514696,0.015991,-0.001609,-0.004570,0.005371,-0.123562,-0.992322,-0.002548,-0.007648,0.006437,8.817831,-0.105484,-20.313393,,,,,,,
1530638982.925344,0.005336,0.124216,-0.514873,0.018142,-0.009292,-0.011105,0.005294,-0.123896,-0.992281,-0.004715,-0.004171,0.001879,8.794664,-0.074890,-20.331871,,,,,,,
1530638982.945312,0.005028,0.124871,-0.514937,0.043176,-0.022664,0.005824,0.004989,-0.124546,-0.992201,-0.006682,-0.003170,0.003981,8.832769,-0.118080,-20.398109,,,,,,,
1530638982.965281,0.004474,0.125890,-0.514610,0.051434,-0.028297,0.021883,0.004438,-0.125557,-0.992076,-0.012998,-0.004844,0.007579,8.765276,-0.217339,-20.298012,,,,,,,
1530638982.985250,0.003943,0.126672,-0.514099,0.024135,-0.018378,0.025453,0.003912,-0.126334,-0.991980,-0.020590,-0.007272,0.012580,8.755636,-0.091675,-20.471024,,,,,,,
1530638983.005219,0.004104,0.126624,-0.513381,-0.021106,0.049962,0.042450,0.004071,-0.126285,-0.991986,-0.012555,-0.013714,0.026882,8.816717,-0.047302,-20.439377,,,,,,,
1530638983.025187,0.005360,0.125699,-0.511840,-0.058274,0.060623,0.098976,0.005318,-0.125368,-0.992096,-0.004738,-0.007261,0.001969,8.728338,0.058792,-20.453972,,,,,,,
1530638983.045156,0.005654,0.124847,-0.509073,-0.028352,0.022658,0.159950,0.005610,-0.124523,-0.992201,-0.008403,-0.009358,-0.009981,8.667761,-0.085190,-20.407928,,,,,,,
1530638983.065125,0.005092,0.124633,-0.505775,-0.012576,-0.015952,0.155282,0.005053,-0.124311,-0.992230,-0.034655,-0.001086,-0.001544,8.813887,-0.210548,-20.343567,,,,,,,
1530638983.085093,0.004248,0.123861,-0.503362,-0.069731,-0.043094,0.092131,0.004215,-0.123545,-0.992330,-0.067097,0.040293,0.020116,8.817762,-0.041855,-20.307152,,,,,,,
1530638983.105062,-0.001731,0.120327,-0.503007,-0.200961,-0.335977,-0.011424,-0.001719,-0.120037,-0.992768,-0.030249,-0.048512,0.053284,8.659941,-0.083549,-20.282860,,,,,,,
1530638983.125031,-0.003203,0.118402,-0.502455,-0.030690,0.025553,0.060766,-0.003180,-0.118125,-0.992994,-0.007791,-0.049782,-0.038882,8.721991,-0.085213,-20.325478,,,,,,,
1530638983.145000,-0.006525,0.119829,-0.501856,0.118922,-0.313966,-0.016883,-0.006478,-0.119543,-0.992808,-0.083045,0.076559,-0.091985,8.554579,0.049019,-20.543724,,,,,,,
1530638983.164969,-0.015067,0.124866,-0.503406,0.370250,-0.348787,-0.101700,-0.014949,-0.124541,-0.992102,-0.073339,0.002441,-0.018015,8.497679,-0.318108,-20.547668,,,,,,,
1530638983.184937,-0.018006,0.137452,-0.502776,0.793854,-0.085768,0.156055,-0.017835,-0.137019,-0.990408,-0.074588,0.058391,-0.096750,8.435251,-0.336769,-20.575294,,,,,,,
1530638983.204906,-0.022575,0.157984,-0.490032,1.154292,-0.099211,0.965350,-0.022292,-0.157327,-0.987295,-0.041489,0.191293,0.071127,8.608187,-1.103828,-20.721458,,,,,,,
1530638983.224875,-0.025475,0.181813,-0.455527,1.245000,0.264173,2.050047,-0.025052,-0.180813,-0.983198,0.011991,0.281964,0.274321,8.652861,-1.691566,-20.389069,,,,,,,
1530638983.244844,-0.032751,0.202669,-0.405050,0.993754,-0.074371,2.648595,-0.032075,-0.201285,-0.979007,-0.036986,0.317847,0.352115,8.699755,-2.448311,-20.552010,,,,,,,
1530638983.264813,-0.058784,0.215299,-0.346105,0.636128,-1.100672,2.935425,-0.057393,-0.213639,-0.975225,-0.055003,0.415376,0.368017,8.446947,-3.256897,-20.498199,,,,,,,
1530638983.284781,-0.113134,0.221212,-0.284595,0.536499,-2.783304,2.977988,-0.110142,-0.219412,-0.969395,-0.098064,0.475729,0.332036,7.591391,-3.540520,-20.891922,,,,,,,
1530638983.304750,-0.214071,0.226266,-0.222126,0.917895,-5.243860,2.949110,-0.207025,-0.224340,-0.952267,-0.218390,0.609564,0.293224,5.759451,-4.134598,-21.065529,,,,,,,
1530638983.324719,-0.349278,0.235072,-0.157680,1.481838,-6.319862,2.876436,-0.332807,-0.232913,-0.913778,-0.106798,0.667240,0.462133,3.627367,-5.105484,-21.313683,,,,,,,
1530638983.344688,-0.495763,0.237619,-0.088661,1.421822,-6.562521,3.169259,-0.462336,-0.235389,-0.854890,-0.019018,0.704795,0.551439,1.240210,-6.050407,-21.246590,,,,,,,
1530638983.364657,-0.636772,0.219536,-0.017266,0.910972,-5.941331,3.558419,-0.580332,-0.217777,-0.784722,-0.013891,0.743046,0.578515,-0.879097,-6.601341,-20.966446,,,,,,,
1530638983.384626,-0.755052,0.181167,0.049624,0.536999,-4.848269,3.868590,-0.674110,-0.180178,-0.716318,0.036827,0.703417,0.411722,-2.979939,-6.665710,-20.495575,,,,,,,
1530638983.404594,-0.852211,0.128462,0.112028,0.226475,-4.110299,4.122442,-0.746535,-0.128109,-0.652896,0.066664,0.596478,0.361728,-4.511677,-6.875641,-19.822876,,,,,,,
1530638983.424563,-0.929494,0.060376,0.162651,-0.374410,-3.308095,4.360290,-0.799857,-0.060339,-0.597149,0.120658,0.531530,0.213788,-6.002470,-6.537247,-19.604912,,,,,,,
1530638983.444532,-0.987626,-0.021627,0.204515,-0.766151,-2.666552,4.673857,-0.834526,0.021625,-0.550544,0.127846,0.525036,-0.013024,-7.267344,-5.841591,-19.348717,,,,,,,
1530638983.464501,-1.033728,-0.111426,0.243336,-0.625823,-2.294251,4.945948,-0.853884,0.111195,-0.508446,0.029711,0.517436,-0.313499,-8.451862,-5.212326,-19.235886,,,,,,,
1530638983.484470,-1.065454,-0.203522,0.289349,-0.162417,-1.792797,5.203346,-0.856949,0.202120,-0.474115,-0.175369,0.405653,-0.496527,-9.516253,-4.533714,-19.020485,,,,,,,
1530638983.504438,-1.084908,-0.293782,0.340905,0.190680,-1.525084,5.104880,-0.846375,0.289574,-0.446986,-0.399765,0.207252,-0.634191,-10.456079,-3.943947,-18.575218,,,,,,,
1530638983.524407,-1.096185,-0.376529,0.398631,0.715378,-1.531997,4.802659,-0.827160,0.367695,-0.424979,-0.651417,-0.014576,-0.751092,-11.543289,-3.127068,-18.580566,,,,,,,
1530638983.544376,-1.098828,-0.448909,0.461907,1.098766,-1.422713,4.465835,-0.802428,0.433983,-0.409595,-0.799653,-0.180290,-0.874570,-12.318047,-2.509155,-18.410301,,,,,,,
1530638983.564345,-1.091383,-0.508552,0.532804,1.591061,-1.007294,3.753998,-0.774983,0.486913,-0.402887,-1.101620,-0.455281,-0.758780,-13.287428,-1.796799,-18.152908,,,,,,,
1530638983.584314,-1.064424,-0.544487,0.600091,1.748086,0.081137,2.474133,-0.748049,0.517980,-0.414873,-1.200223,-0.640630,-0.492964,-13.706469,-1.643883,-18.196053,,,,,,,
1530638983.604282,-1.021557,-0.559404,0.653976,1.482631,1.066463,1.437704,-0.722912,0.530681,-0.442465,-1.113300,-0.784969,-0.237192,-13.796261,-1.588493,-18.411987,,,,,,,
1530638983.624251,-0.974009,-0.560541,0.689615,1.113482,1.593935,0.526360,-0.700565,0.531645,-0.475986,-0.993893,-0.779921,-0.088498,-13.486477,-1.662613,-18.941620,,,,,,,
1530638983.644220,-0.930724,-0.548979,0.707713,0.889833,1.703784,-0.342169,-0.684197,0.521816,-0.509492,-0.835655,-0.734264,0.072221,-13.001343,-1.721237,-19.292892,,,,,,,
1530638983.664189,-0.897841,-0.527229,0.711113,0.719070,1.430200,-0.999568,-0.675793,0.503141,-0.538658,-0.625476,-0.631788,0.217369,-12.535103,-2.043739,-19.561646,,,,,,,
1530638983.684158,-0.879444,-0.499422,0.701993,0.475875,0.942593,-1.513780,-0.676289,0.478918,-0.559705,-0.407954,-0.526098,0.367429,-12.209730,-2.585884,-19.694229,,,,,,,
1530638983.704127,-0.876806,-0.470737,0.682580,0.123119,0.331364,-1.706019,-0.685092,0.453543,-0.570042,-0.217115,-0.444892,0.529866,-11.781301,-3.366608,-19.727631,,,,,,,
1530638983.724095,-0.892581,-0.445343,0.657266,-0.221029,-0.556382,-1.661336,-0.702742,0.430768,-0.566209,-0.014375,-0.297147,0.733964,-11.871132,-3.701431,-19.807693,,,,,,,
1530638983.744064,-0.926948,-0.444108,0.616159,-2.845364,-0.894585,-0.680488,-0.722207,0.429653,-0.542047,0.646142,0.823368,2.240777,-12.157867,-2.821320,-19.507950,,,,,,,
1530638983.764033,-0.982534,-0.502435,0.543409,-4.311847,-1.275260,0.800107,-0.729093,0.481561,-0.486335,0.072492,-0.438989,0.243675,-12.422691,-1.582458,-18.920326,,,,,,,
1530638983.784002,-1.052418,-0.533945,0.482920,-2.213106,-2.569794,-0.628439,-0.747716,0.508933,-0.426506,-0.312586,0.180428,-0.124504,-13.370394,-1.035591,-18.290718,,,,,,,
1530638983.803971,-1.132992,-0.525418,0.449790,-0.670956,-3.405122,-1.069537,-0.783521,0.501574,-0.366767,-0.004336,-0.084292,0.256339,-14.050001,-1.371048,-17.430984,,,,,,,
1530638983.823940,-1.212835,-0.515934,0.425449,-0.922198,-3.268221,-0.740483,-0.814696,0.493347,-0.304759,-0.035310,-0.015488,0.184688,-14.855139,-1.628548,-16.335754,,,,,,,
1530638983.843908,-1.283993,-0.510328,0.399065,-1.042308,-2.749517,-0.555505,-0.836942,0.488463,-0.246843,-0.035388,-0.143874,-0.102049,-15.348135,-1.721565,-15.561096,,,,,,,
1530638983.863877,-1.341275,-0.502205,0.376190,-0.633940,-1.926931,-0.758660,-0.853537,0.481359,-0.199419,-0.243906,-0.197317,-0.106687,-15.838095,-1.890862,-14.639191,,,,,,,
1530638983.883846,-1.380015,-0.490164,0.359223,-0.711911,-1.406081,-0.726198,-0.866248,0.470771,-0.167299,-0.222757,-0.267478,0.065904,-16.000122,-2.230156,-14.415451,,,,,,,
1530638983.903815,-1.413748,-0.476994,0.334575,-1.103880,-0.909124,-0.895420,-0.877446,0.459111,-0.138945,-0.177196,-0.269764,0.029952,-15.888094,-2.436493,-14.267982,,,,,,,
1530638983.923784,-1.441113,-0.464302,0.301802,-1.462186,-0.490050,-0.818395,-0.886626,0.447799,-0.115630,-0.289552,-0.305236,-0.094194,-15.793826,-2.486404,-14.033623,,,,,,,
1530638983.943752,-1.456443,-0.451808,0.271078,-1.121143,0.193687,-0.734611,-0.893783,0.436593,-0.102655,0.007293,-0.010308,-0.104392,-15.644585,-2.338020,-14.186607,,,,,,,
1530638983.963721,-1.454881,-0.444152,0.250018,-0.877989,0.728522,-0.345279,-0.896916,0.429692,-0.104434,0.099339,-0.008916,0.118732,-15.276802,-2.321533,-14.413467,,,,,,,
1530638983.983690,-1.445013,-0.442687,0.228137,-1.059274,1.118872,-0.113893,-0.896465,0.428369,-0.113359,0.018306,0.046210,0.154909,-14.658991,-2.289116,-14.737610,,,,,,,
1530638984.003659,-1.427895,-0.445823,0.204843,-0.997807,1.475350,0.055418,-0.893059,0.431201,-0.128495,-0.078422,0.024641,-0.046615,-14.054255,-2.131813,-15.276466,,,,,,,
1530638984.023628,-1.399557,-0.448550,0.188687,-0.559979,1.888597,-0.020597,-0.887898,0.433660,-0.153547,-0.064861,0.222483,0.154493,-13.361700,-2.042404,-15.863693,,,,,,,
1530638984.043597,-1.378097,-0.453290,0.182223,-0.235726,0.559972,0.371828,-0.882371,0.437926,-0.172168,0.219804,0.152498,0.146137,-13.152174,-1.976471,-16.232483,,,,,,,
1530638984.063565,-1.386748,-0.465407,0.181987,0.005543,-0.743563,0.652010,-0.878546,0.448787,-0.163545,0.137838,0.084447,0.056749,-13.274277,-1.770622,-15.872452,,,,,,,
1530638984.083534,-1.392875,-0.479389,0.193256,0.500151,-0.426726,0.945940,-0.873270,0.461237,-0.157034,0.152002,0.313055,-0.139185,-13.218506,-1.365356,-15.782303,,,,,,,
1530638984.103503,-1.392161,-0.501832,0.211792,0.685128,-0.421164,1.409916,-0.862752,0.481033,-0.155778,0.066747,0.240342,-0.408720,-13.219555,-1.340446,-15.645866,,,,,,,
1530638984.123472,-1.386437,-0.528136,0.238978,1.105951,-0.309309,1.497639,-0.849111,0.503924,-0.158339,-0.139216,0.324185,-0.530320,-12.989386,-1.374031,-15.598648,,,,,,,
1530638984.143441,-1.368083,-0.548189,0.276478,1.559759,0.110341,1.133521,-0.835994,0.521143,-0.171827,-0.278416,0.272253,-0.447710,-12.918051,-1.694344,-15.759605,,,,,,,
1530638984.163410,-1.336379,-0.555586,0.324546,2.130254,0.390865,0.608940,-0.826355,0.527442,-0.197340,-0.242050,0.142663,-0.375841,-12.898819,-1.781967,-16.066406,,,,,,,
1530638984.183378,-1.299875,-0.554121,0.380125,2.363895,0.312006,0.507922,-0.819346,0.526196,-0.227574,-0.116750,0.244357,-0.074932,-12.887772,-2.135536,-16.414001,,,,,,,
1530638984.203347,-1.285296,-0.551814,0.425062,1.260244,-1.222055,0.345126,-0.817104,0.524233,-0.239835,-0.173542,0.099425,0.749540,-12.990080,-2.512459,-15.838051,,,,,,,
1530638984.223316,-1.303964,-0.554377,0.437615,0.160998,-1.004610,0.241414,-0.820140,0.526414,-0.224185,-0.108678,0.045928,0.649555,-13.273169,-2.398201,-15.849945,,,,,,,
1530638984.243285,-1.303936,-0.562671,0.437556,-0.150217,0.702179,0.556029,-0.815894,0.533448,-0.223049,-0.235925,0.202728,0.359066,-13.187836,-2.152954,-16.061859,,,,,,,
1530638984.263254,-1.282543,-0.568777,0.439268,0.109054,1.168488,-0.001003,-0.807798,0.538602,-0.239522,-0.560382,0.182437,0.087681,-12.690453,-2.354355,-16.352196,,,,,,,
1530638984.283223,-1.249162,-0.560396,0.443957,0.445243,1.746814,-0.477433,-0.803608,0.531522,-0.267766,-0.447613,-0.131711,0.356130,-12.317034,-2.227638,-16.942581,,,,,,,
1530638984.303191,-1.194075,-0.539706,0.454682,0.944920,2.992767,-1.086119,-0.797703,0.513884,-0.315584,-0.465359,-0.157988,0.646349,-11.411392,-2.893326,-17.698738,,,,,,,
1530638984.323160,-1.124331,-0.502579,0.455026,0.495872,3.662310,-2.104852,-0.790443,0.481687,-0.378388,-0.542183,-0.163495,0.501557,-10.432823,-3.202972,-18.554001,,,,,,,
1530638984.343129,-1.066693,-0.458017,0.420359,-0.884739,3.707152,-2.936554,-0.785360,0.442170,-0.433238,-0.197977,-0.298386,0.414714,-8.905230,-3.603180,-19.212891,,,,,,,
1530638984.363098,-1.009978,-0.423030,0.360527,-1.665517,4.396097,-2.754498,-0.772172,0.410526,-0.484994,0.269410,-0.374149,0.345803,-7.273809,-3.461845,-20.332054,,,,,,,
1530638984.383067,-0.948950,-0.400427,0.293308,-2.041216,4.498666,-2.723037,-0.748507,0.389812,-0.536455,0.042269,-0.305431,0.291246,-5.403233,-3.092278,-21.045250,,,,,,,
1530638984.403036,-0.871357,-0.381640,0.222828,-2.002225,5.351613,-2.510104,-0.710150,0.372443,-0.597472,0.582831,-0.048530,0.090193,-3.243683,-2.586739,-21.526779,,,,,,,
1530638984.423005,-0.818965,-0.380727,0.160672,-2.122264,2.413173,-1.733514,-0.678136,0.371596,-0.634073,0.549474,0.247865,-0.306265,-1.889790,-2.039635,-21.809052,,,,,,,
1530638984.442973,-0.829529,-0.382041,0.114625,-1.253067,-0.471404,-1.130079,-0.684435,0.372815,-0.626544,0.802050,0.187640,0.044070,-1.789591,-1.339516,-21.593430,,,,,,,
1530638984.462942,-0.849311,-0.391693,0.089555,-1.325938,-0.603703,-0.034156,-0.693961,0.381753,-0.610477,0.445456,-0.072046,0.297275,-1.846838,-0.813744,-21.738014,,,,,,,
1530638984.482911,-0.882464,-0.416831,0.064929,-1.843326,-1.376318,0.291191,-0.706179,0.404865,-0.580858,0.168932,-0.091923,0.455248,-2.213327,0.182930,-21.567688,,,,,,,
1530638984.502880,-0.917034,-0.450099,0.034347,-2.316032,-0.840927,0.634232,-0.714742,0.435054,-0.547605,0.287465,-0.096965,0.380506,-2.446789,0.894386,-21.319786,,,,,,,
1530638984.522849,-0.935017,-0.501552,0.004589,-2.735709,-0.126007,1.672146,-0.705511,0.480787,-0.520670,0.222082,-0.128035,-0.029074,-2.292454,2.054497,-21.331879,,,,,,,
1530638984.542818,-0.969956,-0.565138,-0.017460,-2.505147,-1.516522,2.238913,-0.696607,0.535533,-0.477434,0.317762,-0.122538,0.037126,-2.347834,2.983978,-20.976891,,,,,,,
1530638984.562786,-1.016503,-0.638136,-0.025945,-2.182998,-2.614428,3.269879,-0.682945,0.595700,-0.422762,0.348259,0.006916,-0.127653,-2.750153,4.173584,-20.663895,,,,,,,
1530638984.582755,-1.090302,-0.723047,-0.022856,-1.856367,-4.631136,4.031052,-0.664891,0.661673,-0.346568,0.154287,0.074060,-0.097005,-3.490696,5.093109,-20.108788,,,,,,,
1530638984.602724,-1.203711,-0.820363,-0.002199,-0.980293,-7.287809,5.200662,-0.636522,0.731393,-0.244752,-0.011809,0.102698,-0.066497,-5.029167,6.210182,-19.220230,,,,,,,
1530638984.622693,-1.325453,-0.932860,0.042326,0.061480,-7.982960,6.063038,-0.577705,0.803326,-0.144650,-0.423836,0.292224,-0.169910,-6.367361,7.084496,-18.276474,,,,,,,
1530638984.642662,-1.421660,-1.053247,0.109848,0.971118,-7.071348,6.371585,-0.489260,0.869034,-0.073512,-0.783628,0.283615,0.052837,-7.364325,8.171440,-17.283485,,,,,,,
1530638984.662631,-1.451280,-1.182142,0.210440,1.543381,-5.544850,7.014562,-0.376241,0.925420,-0.045182,-0.718516,0.136775,0.087235,-7.464430,9.300438,-16.632782,,,,,,,
1530638984.682600,-1.349597,-1.334541,0.417998,2.064976,-4.552826,8.483811,-0.228361,0.972221,-0.051354,-0.375918,-0.182579,0.187523,-6.524057,10.222748,-16.295723,,,,,,,
1530638984.702568,-0.674092,-1.469043,1.204285,2.174345,-5.633090,8.729805,-0.063404,0.994828,-0.079360,-0.153820,-0.156678,0.278106,-5.693420,10.973724,-16.277557,,,,,,,
1530638984.722537,0.684143,-1.420235,2.684458,1.286898,-5.551976,8.376201,0.094796,0.988687,-0.116238,-0.310968,0.099600,1.462994,-4.550480,11.479897,-16.122368,,,,,,,
1530638984.742506,1.174897,-1.306630,-3.030257,-2.798446,-2.267678,7.750748,0.240908,0.965310,-0.100692,-0.177584,0.156775,1.339996,-2.753149,12.562996,-15.569824,,,,,,,
1530638984.762475,1.461740,-1.166786,-2.673831,-4.237577,-3.106672,8.459851,0.390773,0.919492,-0.042786,-0.064067,0.063449,0.110093,-0.809000,13.940910,-14.466621,,,,,,,
1530638984.782444,1.553083,-0.993919,-2.477979,-3.862573,-4.558190,9.061449,0.545323,0.838170,-0.009660,0.076839,0.305080,-0.089201,1.416315,14.551498,-13.386009,,,,,,,
1530638984.802413,1.548433,-0.824651,-2.366034,-2.948003,-4.546376,7.629188,0.678643,0.734311,-0.015180,0.039237,0.789660,-0.227664,3.347681,14.738983,-12.835480,,,,,,,
1530638984.822382,1.521514,-0.743523,-2.284222,-2.918469,-4.064754,1.676666,0.735195,0.676885,-0.036262,0.232289,1.116419,-0.463647,3.952169,14.826973,-12.137611,,,,,,,
1530638984.842351,1.520215,-0.783872,-2.196625,-3.344957,-1.939130,-3.175906,0.707280,0.706027,-0.035806,0.856121,0.738935,-0.643317,2.920511,15.479645,-11.491150,,,,,,,
1530638984.862319,1.584188,-0.839196,-2.129315,-1.609689,2.271068,-1.960771,0.668001,0.744107,0.008946,0.744780,0.188465,-0.826177,2.451670,16.085884,-10.804993,,,,,,,
1530638984.882288,1.663500,-0.857452,-2.111379,-0.118335,3.420231,-0.592776,0.651557,0.756177,0.060575,-0.231284,-0.202680,-0.697385,2.943594,16.326958,-10.524216,,,,,,,
1530638984.902257,1.715783,-0.867373,-2.115462,0.304477,2.271103,-0.460463,0.640046,0.762632,0.093454,-0.488175,-0.413587,-0.593713,3.444147,16.085213,-10.843178,,,,,,,
1530638984.922226,1.736819,-0.877806,-2.124198,0.363585,0.887964,-0.473157,0.630056,0.769339,0.105576,-0.493551,-0.508536,-0.486572,3.737665,16.070778,-10.692162,,,,,,,
1530638984.942195,1.739332,-0.886567,-2.129108,0.085708,0.141908,-0.328191,0.623120,0.774906,0.106024,-0.302197,-0.515217,-0.173208,3.660570,16.161285,-11.079018,,,,,,,
1530638984.962164,1.767641,-0.884906,-2.113564,-0.957086,1.457737,0.205887,0.621130,0.773856,0.123870,0.003031,-0.414115,0.234879,4.034372,16.256966,-10.800728,,,,,,,
1530638984.982133,1.852831,-0.871559,-2.064645,-2.032396,2.782652,0.225899,0.618205,0.765333,0.179130,-0.046229,-0.241011,-0.128105,4.717379,16.357147,-9.887253,,,,,,,
1530638985.002101,1.962872,-0.855781,-1.997748,-2.396893,2.968204,-0.089641,0.605879,0.755083,0.250521,0.042040,-0.165682,-0.429628,5.159643,16.881355,-8.923515,,,,,,,
1530638985.022070,2.067240,-0.839191,-1.933093,-2.167434,2.666323,-0.186292,0.587418,0.744103,0.318201,0.112900,-0.170571,-0.543634,5.329393,17.277077,-7.914635,,,,,,,
1530638985.042039,2.151341,-0.822697,-1.883927,-1.641535,2.211913,-0.109965,0.568798,0.732983,0.373101,0.055745,-0.223660,-0.507195,5.361570,17.454948,-7.217796,,,,,,,
1530638985.062008,2.194449,-0.811450,-1.856645,-0.451370,-0.335704,-0.038958,0.558847,0.725286,0.402056,-0.016062,-0.370275,-0.481127,5.384043,17.366135,-7.302696,,,,,,,
1530638985.081977,2.142762,-0.818797,-1.876749,1.362996,-2.102500,0.111128,0.574377,0.730325,0.369752,-0.276068,-0.264962,0.109450,5.269098,17.248856,-8.156487,,,,,,,
1530638985.101946,2.076022,-0.840776,-1.924058,2.183520,-1.204269,-0.354897,0.583568,0.745161,0.322776,-0.425075,-0.009321,0.214593,4.827707,17.119118,-9.090652,,,,,,,
1530638985.121915,2.024639,-0.876464,-1.976081,2.355581,-0.292232,-1.030725,0.575097,0.768481,0.280534,-0.259744,0.167997,0.383162,4.537580,16.841217,-10.254623,,,,,,,
1530638985.141883,1.993350,-0.914188,-2.023040,1.891747,0.674840,-1.014641,0.556742,0.792067,0.250333,0.161672,0.392839,0.997165,4.407187,16.233597,-10.914871,,,,,,,
1530638985.161852,1.994947,-0.936241,-2.050497,0.789139,1.293965,-0.458482,0.540288,0.805335,0.243973,0.470713,0.619744,1.202057,4.684603,16.116692,-11.181496,,,,,,,
1530638985.181821,2.010541,-0.944742,-2.059143,0.310091,1.080515,-0.219287,0.530205,0.810346,0.249445,0.435890,0.472461,0.862234,5.006662,15.905937,-11.421700,,,,,,,
1530638985.201790,2.023271,-0.952045,-2.072405,0.679649,1.201318,-0.146068,0.521650,0.814603,0.253580,0.033877,0.020861,0.461890,5.293783,16.004211,-11.696983,,,,,,,
1530638985.221759,2.017962,-0.965344,-2.097126,1.012323,0.346413,-0.412580,0.513174,0.822245,0.246100,-0.067572,-0.018351,0.308969,5.474966,15.917145,-12.217239,,,,,,,
1530638985.241728,1.985550,-0.987308,-2.121162,1.182640,-1.221960,-0.941811,0.504227,0.834546,0.222009,0.003143,0.112842,-0.428277,5.439867,15.562500,-12.966179,,,,,,,
1530638985.261697,1.921804,-1.023392,-2.155163,1.747466,-1.848481,-1.520316,0.488737,0.853878,0.178961,0.074953,0.136951,-0.838385,4.844118,15.064995,-13.867447,,,,,,,
1530638985.281666,1.835039,-1.065934,-2.214400,2.188882,-1.654362,-1.516539,0.466897,0.875241,0.126328,0.402884,0.218677,-0.642060,4.320818,14.517601,-14.629959,,,,,,,
1530638985.301634,1.743121,-1.096995,-2.295824,2.186280,-0.493304,-0.840072,0.449514,0.889840,0.078238,0.348978,0.026969,-0.360404,4.040567,14.208252,-15.535583,,,,,,,
1530638985.321603,1.668723,-1.111871,-2.385388,2.054725,0.633381,-0.295049,0.440861,0.896529,0.043311,0.056011,-0.314620,-0.248358,4.482763,13.617226,-16.530586,,,,,,,
1530638985.341572,1.607182,-1.116994,-2.473926,1.890978,1.021272,-0.028273,0.438095,0.898787,0.015947,-0.096710,-0.523970,-0.093279,4.945028,13.091621,-17.061111,,,,,,,
1530638985.361541,1.561253,-1.114768,-2.551265,1.582683,1.249257,0.222017,0.440365,0.897809,-0.004203,-0.162426,-0.559033,-0.051904,5.605238,12.659081,-17.636406,,,,,,,
1530638985.381510,1.529113,-1.108307,-2.612296,1.197268,1.010424,0.296156,0.445789,0.894945,-0.018593,-0.125461,-0.373003,-0.090279,6.051619,12.320251,-17.884041,,,,,,,
1530638985.401479,1.510253,-1.103612,-2.648906,0.601227,0.479878,0.101511,0.449548,0.892840,-0.027250,-0.009134,-0.126788,-0.132845,6.363237,12.019028,-18.111015,,,,,,,
1530638985.421448,1.501607,-1.103328,-2.660594,0.092819,-0.151554,-0.035242,0.449549,0.892712,-0.031154,0.188711,0.140522,-0.194203,6.453325,11.913437,-18.185516,,,,,,,
1530638985.441417,1.494359,-1.102733,-2.657666,-0.106525,-0.649309,0.117629,0.449840,0.892444,-0.034452,0.274403,0.317807,-0.195010,6.532476,11.753151,-18.275185,,,,,,,
1530638985.461385,1.481782,-1.096879,-2.655138,0.037083,-0.762702,0.385186,0.454568,0.889787,-0.040570,0.142600,0.320494,-0.127185,6.676874,11.538467,-18.502037,,,,,,,
1530638985.481354,1.450691,-1.086124,-2.669410,0.719264,-1.148465,0.584201,0.462562,0.884828,-0.055825,-0.060416,0.174056,-0.135246,6.597353,11.317047,-18.842430,,,,,,,
1530638985.501323,1.391174,-1.073609,-2.712109,1.172349,-0.828798,0.311282,0.469281,0.878928,-0.085212,-0.316587,0.105936,0.276206,6.630743,10.554672,-19.394119,,,,,,,
1530638985.521292,1.360666,-1.070359,-2.754849,0.924719,1.165425,-0.235137,0.469255,0.877373,-0.100082,-0.397219,-0.003700,0.488113,7.014963,10.253174,-19.629883,,,,,,,
