timestamp(unix),attitude_roll(radians),attitude_pitch(radians),attitude_yaw(radians),rotation_rate_x(radians/s),rotation_rate_y(radians/s),rotation_rate_z(radians/s),gravity_x(G),gravity_y(G),gravity_z(G),user_acc_x(G),user_acc_y(G),user_acc_z(G),magnetic_field_x(microteslas),magnetic_field_y(microteslas),magnetic_field_z(microteslas),latitude(degree),longitude(degree),altitude(meter),speed(m/s),course(degree),timestamp(unix),User Mark
,,,,,,,,,,,,,,,,39.779046,-84.063536,292.210903,0.980000,90.351562,1530639689.000038,
1530639694.313183,0.163150,0.418320,-0.501241,-0.270762,0.192411,0.047954,0.148422,-0.406226,-0.901638,-0.029098,0.030616,-0.036045,26.139694,-16.281311,-44.465546,,,,,,,
1530639694.333151,0.165397,0.412571,-0.496071,-0.371865,0.216580,0.229267,0.150829,-0.400966,-0.903591,0.008488,-0.036443,-0.033604,26.312252,-16.112053,-44.475098,,,,,,,
,,,,,,,,,,,,,,,,39.779046,-84.063536,292.210903,0.980000,90.351562,1530639694.296231,
1530639694.353120,0.166615,0.403147,-0.488472,-0.653854,0.163763,0.217995,0.152549,-0.392315,-0.907093,-0.066368,-0.039386,-0.038830,26.363068,-15.919037,-44.612518,,,,,,,
1530639694.373089,0.166087,0.387079,-0.482040,-0.918145,0.066450,0.095237,0.153093,-0.377485,-0.913273,-0.097933,-0.066088,-0.045285,26.400581,-15.569183,-44.752991,,,,,,,
1530639694.393058,0.168519,0.368521,-0.478537,-0.885433,0.310407,-0.064638,0.156462,-0.360236,-0.919646,-0.035887,-0.093041,-0.136857,26.528152,-14.574181,-44.975555,,,,,,,
1530639694.413027,0.179728,0.356946,-0.478231,-0.333433,0.701420,-0.123639,0.167495,-0.349414,-0.921876,-0.039946,-0.018353,-0.267577,27.184486,-13.944626,-44.851807,,,,,,,
1530639694.432995,0.198199,0.358912,-0.481425,0.391384,0.935416,-0.152888,0.184357,-0.351255,-0.917950,-0.015443,0.004530,-0.275883,27.981030,-13.510719,-44.531525,,,,,,,
1530639694.452964,0.221735,0.371408,-0.487890,0.796546,1.107846,-0.203835,0.204928,-0.362928,-0.909003,-0.001406,-0.015093,-0.109139,29.028954,-13.654114,-44.327393,,,,,,,
1530639694.472933,0.245712,0.385983,-0.496253,0.749651,0.933661,-0.235448,0.225351,-0.376470,-0.898603,-0.020014,-0.004572,0.052045,30.266144,-13.702904,-43.523941,,,,,,,
1530639694.492902,0.259649,0.395101,-0.503502,0.363656,0.317623,-0.209499,0.236962,-0.384901,-0.892020,0.035438,-0.003313,0.073447,30.911205,-13.773239,-43.162964,,,,,,,
1530639694.512871,0.264292,0.397390,-0.507487,0.089324,0.140520,-0.127615,0.240869,-0.387013,-0.890058,0.038946,0.002263,0.081784,31.348259,-13.634682,-43.154434,,,,,,,
1530639694.532839,0.271280,0.399798,-0.510405,0.240059,0.374310,-0.100055,0.246833,-0.389232,-0.887452,0.006813,0.016765,0.049897,31.383919,-13.174767,-43.296707,,,,,,,
1530639694.552808,0.279906,0.405655,-0.515318,0.321848,0.276902,-0.225427,0.253844,-0.394621,-0.883084,-0.019759,-0.001741,0.013256,31.788258,-12.900024,-42.853378,,,,,,,
1530639694.572777,0.287123,0.408199,-0.525023,0.241064,0.124102,-0.474441,0.259926,-0.396957,-0.880263,-0.028512,-0.005539,-0.000108,31.915554,-12.410126,-42.710831,,,,,,,
1530639694.592746,0.295096,0.409784,-0.538788,0.283494,0.156305,-0.663482,0.266752,-0.398411,-0.877560,-0.070524,0.022114,0.029827,32.259335,-11.687218,-42.342926,,,,,,,
1530639694.612715,0.310106,0.410973,-0.554876,0.250981,0.573662,-0.672982,0.279750,-0.399502,-0.873005,-0.013576,0.054089,0.096195,32.885010,-10.926186,-42.156166,,,,,,,
1530639694.632683,0.325131,0.410646,-0.567766,0.117424,0.343947,-0.492555,0.292876,-0.399201,-0.868828,0.057679,0.051255,0.016090,33.518272,-10.350517,-41.643044,,,,,,,
1530639694.652652,0.327923,0.409978,-0.575331,0.079007,-0.176426,-0.269243,0.295386,-0.398589,-0.868259,0.087411,0.019500,0.018542,33.661797,-10.068565,-41.367233,,,,,,,
1530639694.672621,0.323907,0.409116,-0.579989,-0.029533,-0.321476,-0.200837,0.292006,-0.397798,-0.869763,-0.013412,0.076509,0.107266,33.527264,-9.576431,-41.560493,,,,,,,
1530639694.692590,0.319873,0.405094,-0.583234,-0.201445,-0.225306,-0.211479,0.288996,-0.394105,-0.872446,-0.009532,0.032838,0.115473,33.510780,-8.786736,-41.585144,,,,,,,
1530639694.712558,0.315539,0.399432,-0.586218,-0.209773,-0.386448,-0.215410,0.285900,-0.388896,-0.875797,0.025364,0.008524,0.027088,33.284592,-8.479927,-41.605865,,,,,,,
1530639694.732527,0.302827,0.395372,-0.589915,-0.099309,-0.905113,-0.246051,0.275213,-0.385151,-0.880861,0.043772,0.021351,0.002184,32.863663,-7.996544,-42.203201,,,,,,,
1530639694.752496,0.283985,0.391656,-0.596989,-0.094439,-1.124473,-0.452079,0.258967,-0.381720,-0.887257,0.004934,0.029638,0.053838,31.780136,-7.261192,-42.873825,,,,,,,
1530639694.772465,0.273829,0.386543,-0.608835,-0.083304,-0.396534,-0.678414,0.250467,-0.376988,-0.891709,-0.010462,-0.008494,0.088807,31.424385,-6.978714,-43.282761,,,,,,,
1530639694.792434,0.278004,0.382249,-0.623604,0.020692,-0.045310,-0.709107,0.254631,-0.373008,-0.892204,0.038384,-0.039895,-0.054955,31.156479,-6.493408,-43.407318,,,,,,,
1530639694.812401,0.277013,0.380912,-0.638536,0.182101,-0.504744,-0.687158,0.253882,-0.371767,-0.892935,0.044763,0.011217,-0.081049,30.799446,-6.302513,-43.884232,,,,,,,
1530639694.832370,0.272263,0.381241,-0.655356,0.233155,-0.543900,-0.774171,0.249604,-0.372073,-0.894013,0.006911,0.033800,0.003037,30.306622,-5.851463,-44.068573,,,,,,,
1530639694.852339,0.269357,0.380203,-0.672407,0.066388,-0.409169,-0.773901,0.247109,-0.371109,-0.895106,-0.002098,-0.001816,0.083949,29.641735,-5.448540,-44.330978,,,,,,,
1530639694.872308,0.268347,0.372840,-0.687402,-0.293460,-0.328584,-0.756734,0.246922,-0.364261,-0.897966,0.013485,-0.035824,0.057313,29.231808,-4.913651,-44.748489,,,,,,,
1530639694.892277,0.264484,0.362516,-0.699899,-0.338395,-0.470653,-0.643692,0.244422,-0.354628,-0.902495,0.057641,-0.037996,-0.016695,28.789661,-4.290298,-44.983810,,,,,,,
1530639694.912245,0.258040,0.356105,-0.708377,-0.096591,-0.409949,-0.334286,0.239176,-0.348626,-0.906231,0.033087,-0.001960,-0.073734,28.300617,-4.019676,-45.498001,,,,,,,
1530639694.932214,0.254425,0.358047,-0.712250,0.280845,-0.210973,-0.072038,0.235727,-0.350446,-0.906432,-0.010797,0.038709,-0.134873,27.891434,-4.081314,-45.710388,,,,,,,
1530639694.952183,0.250921,0.367030,-0.715970,0.554529,-0.287263,-0.067770,0.231759,-0.358845,-0.904167,-0.055215,0.026325,-0.093529,27.671619,-4.759483,-46.002106,,,,,,,
1530639694.972152,0.244147,0.378987,-0.721032,0.660582,-0.533395,-0.078718,0.224576,-0.369980,-0.901488,-0.036633,-0.028397,-0.037340,27.233387,-5.205887,-46.033783,,,,,,,
1530639694.992120,0.232754,0.390647,-0.726511,0.605353,-0.725195,-0.116801,0.213281,-0.380787,-0.899729,-0.003075,-0.005520,-0.007330,26.844387,-5.783173,-46.323135,,,,,,,
1530639695.012089,0.220910,0.400120,-0.731441,0.474124,-0.644676,-0.100993,0.201810,-0.389529,-0.898632,0.020236,0.020953,0.023922,26.259136,-6.263947,-46.640259,,,,,,,
1530639695.032058,0.210550,0.408091,-0.734448,0.428270,-0.531583,-0.010445,0.191835,-0.396858,-0.897609,0.015227,0.018852,-0.004994,25.807251,-6.603661,-46.840073,,,,,,,
1530639695.055763,0.201929,0.417698,-0.736631,0.394866,-0.269769,-0.035789,0.183317,-0.405657,-0.895454,-0.035337,0.036837,0.036017,25.384182,-7.057991,-47.366501,,,,,,,
1530639695.075732,0.201656,0.422397,-0.742565,0.206551,-0.087581,-0.352145,0.182688,-0.409948,-0.893626,-0.072611,0.018285,0.081538,25.304779,-7.185440,-47.318497,,,,,,,
1530639695.095701,0.204195,0.421165,-0.755720,0.000901,-0.243929,-0.720640,0.185058,-0.408824,-0.893653,-0.081589,-0.016424,0.073295,25.254803,-7.195351,-47.333267,,,,,,,
1530639695.115669,0.201396,0.417393,-0.774117,-0.002605,-0.665327,-0.923238,0.182864,-0.405379,-0.895672,-0.066348,-0.009950,0.020413,24.847721,-6.956726,-47.525681,,,,,,,
1530639695.135638,0.195991,0.415128,-0.796007,0.167269,-0.685478,-1.050255,0.178199,-0.403307,-0.897546,-0.061026,0.019060,-0.042930,24.309566,-6.537941,-47.967056,,,,,,,
1530639695.155607,0.194597,0.416828,-0.820657,0.379361,-0.489899,-1.087162,0.176814,-0.404862,-0.897119,-0.055568,0.076005,-0.049963,23.978848,-6.207352,-48.444504,,,,,,,
1530639695.175576,0.195549,0.421899,-0.842684,0.460043,-0.352643,-0.825282,0.177267,-0.409494,-0.894925,0.029429,0.048593,-0.002444,23.732685,-6.458397,-48.182938,,,,,,,
1530639695.195545,0.196870,0.427565,-0.858664,0.376301,-0.188651,-0.590639,0.177993,-0.414656,-0.892401,0.072862,-0.008196,0.062780,23.500870,-6.607414,-48.317490,,,,,,,
1530639695.215513,0.199779,0.430177,-0.870904,0.131038,-0.089985,-0.479698,0.180372,-0.417032,-0.890814,0.044726,-0.010565,0.090949,23.490208,-6.428871,-48.222351,,,,,,,
1530639695.235482,0.201052,0.427352,-0.879328,-0.162551,-0.110624,-0.354789,0.181740,-0.414462,-0.891735,0.030967,-0.008771,0.060528,23.439510,-6.202995,-48.354431,,,,,,,
1530639695.255451,0.202520,0.421492,-0.883882,-0.272864,0.051757,-0.205070,0.183535,-0.409123,-0.893831,0.033781,0.026707,-0.003096,23.512936,-5.690796,-48.282822,,,,,,,
1530639695.275420,0.205877,0.416501,-0.885227,-0.177567,0.165551,-0.063174,0.186950,-0.404563,-0.895197,0.054200,0.040900,-0.062368,23.532696,-5.650650,-48.430542,,,,,,,
1530639695.295389,0.207365,0.415566,-0.885200,0.036808,-0.001748,0.014620,0.188359,-0.403708,-0.895288,0.053722,0.011679,-0.093466,23.680504,-5.907295,-48.347748,,,,,,,
1530639695.315357,0.204858,0.418426,-0.885565,0.190036,-0.203745,0.004463,0.185878,-0.406323,-0.894623,0.017720,0.010327,-0.072921,23.524075,-5.897346,-48.235779,,,,,,,
1530639695.335326,0.200685,0.422690,-0.887188,0.242827,-0.247623,-0.038374,0.181797,-0.410215,-0.893685,0.017254,0.009916,-0.057288,23.357235,-6.076469,-48.170258,,,,,,,
1530639695.355295,0.198397,0.427107,-0.888956,0.222707,-0.094313,-0.018005,0.179393,-0.414240,-0.892314,0.021657,0.013879,-0.031606,23.195148,-6.462502,-48.408249,,,,,,,
1530639695.375264,0.198244,0.429462,-0.888723,0.068757,0.039721,0.082431,0.179063,-0.416382,-0.891382,0.038954,-0.003952,-0.008642,23.230537,-6.408310,-48.648315,,,,,,,
1530639695.395233,0.199282,0.430336,-0.886533,0.026638,0.116877,0.101585,0.179916,-0.417176,-0.890839,0.006699,-0.004928,-0.040756,23.311722,-6.297089,-48.423187,,,,,,,
1530639695.415201,0.200708,0.431711,-0.885353,0.087871,0.069730,0.052167,0.181072,-0.418425,-0.890019,-0.008815,-0.012300,-0.048107,23.186543,-6.317284,-48.422073,,,,,,,
1530639695.435170,0.200695,0.434688,-0.885071,0.191839,-0.037276,0.036524,0.180811,-0.421128,-0.888796,0.006246,-0.010269,-0.048445,23.315853,-6.668419,-48.558655,,,,,,,
1530639695.455139,0.200023,0.440030,-0.885666,0.297822,-0.030627,0.027876,0.179764,-0.425967,-0.886700,-0.003220,-0.000486,-0.020465,23.237488,-6.896957,-48.461884,,,,,,,
1530639695.475108,0.200513,0.445257,-0.886336,0.226519,0.027919,0.025682,0.179753,-0.430690,-0.884418,0.007747,-0.007604,0.024448,23.291420,-7.242516,-48.553680,,,,,,,
1530639695.495076,0.201453,0.448133,-0.885969,0.095243,0.091835,0.047883,0.180335,-0.433284,-0.883031,-0.001289,0.002101,0.026052,23.286072,-7.153519,-48.451355,,,,,,,
1530639695.515045,0.203734,0.449353,-0.885105,0.053238,0.139276,0.053952,0.182242,-0.434382,-0.882099,0.003229,-0.001790,-0.004512,23.522621,-7.492386,-48.387405,,,,,,,
1530639695.535014,0.205579,0.451575,-0.884645,0.157243,0.086405,0.032095,0.183672,-0.436384,-0.880814,0.001448,-0.001620,-0.030334,23.608276,-7.379280,-48.226471,,,,,,,
1530639695.554983,0.206376,0.456474,-0.885587,0.302332,-0.025944,-0.010978,0.183934,-0.440786,-0.878565,-0.003102,0.001821,-0.034094,23.452965,-7.710411,-48.196625,,,,,,,
1530639695.574952,0.206087,0.463075,-0.887855,0.354965,-0.066645,-0.034382,0.183080,-0.446701,-0.875751,0.000224,0.007370,0.004062,23.423527,-7.879578,-48.306549,,,,,,,
1530639695.594920,0.206212,0.468962,-0.889575,0.275992,0.007082,0.003484,0.182648,-0.451961,-0.873138,0.002197,0.005840,0.002945,23.399727,-8.151764,-48.311539,,,,,,,
1530639695.614889,0.208744,0.473750,-0.890393,0.244437,0.170419,0.011079,0.184408,-0.456227,-0.870546,-0.029485,0.014073,-0.006575,23.474854,-8.298141,-48.102203,,,,,,,
1530639695.634858,0.211260,0.477780,-0.890982,0.192981,0.083151,0.021992,0.186210,-0.459809,-0.868275,-0.019539,-0.007125,-0.000729,23.693726,-8.628700,-47.972992,,,,,,,
1530639695.654827,0.212644,0.481128,-0.891678,0.168028,-0.048048,-0.001022,0.187086,-0.462779,-0.866507,-0.024229,0.009028,0.024038,23.615314,-8.975510,-48.127655,,,,,,,
1530639695.674796,0.206572,0.483200,-0.891479,0.078427,-0.374125,0.064153,0.181624,-0.464616,-0.866686,0.024720,-0.034896,0.029497,23.304684,-8.899025,-48.299133,,,,,,,
1530639695.694764,0.193782,0.483936,-0.889375,-0.029829,-0.761835,0.103336,0.170459,-0.465266,-0.868603,0.000745,0.016582,0.015316,22.794952,-9.063362,-48.437256,,,,,,,
1530639695.714733,0.175704,0.481541,-0.886588,-0.200599,-0.793662,0.084515,0.154923,-0.463146,-0.872637,-0.003556,0.003215,0.078997,22.062000,-8.890656,-48.707474,,,,,,,
1530639695.734702,0.163980,0.477189,-0.884287,-0.243349,-0.362840,0.043912,0.145010,-0.459284,-0.876373,-0.031011,0.009470,0.077331,21.601990,-8.484428,-48.792007,,,,,,,
1530639695.754671,0.161795,0.472904,-0.884565,-0.176176,-0.021855,-0.100766,0.143411,-0.455473,-0.878622,-0.070718,0.036146,0.016043,21.348583,-8.187180,-48.799988,,,,,,,
1530639695.774640,0.164232,0.471578,-0.888502,0.054416,0.020817,-0.216260,0.145650,-0.454293,-0.878865,-0.031468,0.029336,-0.041530,21.489716,-8.153168,-48.993683,,,,,,,
1530639695.794608,0.165877,0.475801,-0.894766,0.357774,-0.111524,-0.249254,0.146777,-0.458050,-0.876725,0.012998,0.028927,-0.069396,21.531620,-8.527359,-48.934540,,,,,,,
1530639695.814578,0.166756,0.483977,-0.901593,0.468576,-0.088677,-0.206107,0.146921,-0.465303,-0.872873,0.023276,0.024736,-0.014456,21.475620,-8.847885,-48.905350,,,,,,,
1530639695.834547,0.168222,0.491035,-0.906058,0.312567,0.027725,-0.110053,0.147647,-0.471539,-0.869397,0.018720,0.004620,0.038785,21.510811,-9.158882,-48.936874,,,,,,,
1530639695.854516,0.170867,0.493669,-0.908061,0.074008,0.133363,-0.049838,0.149734,-0.473860,-0.867777,-0.004471,-0.008287,0.024240,21.592117,-9.316147,-48.729950,,,,,,,
1530639695.874485,0.174661,0.493427,-0.908736,-0.000633,0.190642,-0.028271,0.153045,-0.473647,-0.867315,-0.001861,-0.004258,-0.014063,21.753212,-9.457886,-48.742157,,,,,,,
1530639695.894453,0.177935,0.494358,-0.910002,0.128591,0.083705,-0.054972,0.155806,-0.474467,-0.866375,0.000902,0.006526,-0.065144,21.812038,-9.516716,-48.734222,,,,,,,
1530639695.914422,0.179453,0.499135,-0.912406,0.331105,-0.021148,-0.067344,0.156715,-0.478666,-0.863897,-0.009849,0.005003,-0.068430,21.874641,-9.602333,-48.669037,,,,,,,
1530639695.934391,0.181082,0.507500,-0.916613,0.495115,0.016692,-0.119599,0.157395,-0.485994,-0.859672,-0.022736,0.007127,-0.040840,21.879242,-9.918640,-48.563354,,,,,,,
1530639695.954360,0.184921,0.517359,-0.920413,0.517475,0.132012,-0.035156,0.159805,-0.494587,-0.854310,0.008957,0.010776,0.016191,21.987663,-10.475143,-48.425278,,,,,,,
1530639695.974329,0.186741,0.526400,-0.921705,0.422380,-0.004367,0.055794,0.160524,-0.502424,-0.849589,0.022857,-0.005099,0.042903,22.033955,-10.797874,-48.334656,,,,,,,
1530639695.994297,0.183824,0.532432,-0.922249,0.260365,-0.241250,-0.002938,0.157488,-0.507630,-0.847059,-0.010439,-0.023345,0.025862,21.962757,-11.264969,-48.382736,,,,,,,
1530639696.014266,0.182793,0.535781,-0.924438,0.150947,0.017735,-0.094355,0.156305,-0.510513,-0.845544,-0.018350,0.008224,0.057306,21.912594,-11.333511,-48.341995,,,,,,,
1530639696.034235,0.185590,0.536238,-0.926968,-0.007403,0.087342,-0.095564,0.158626,-0.510906,-0.844875,-0.000697,-0.001652,0.033733,22.025848,-11.305115,-48.322083,,,,,,,
1530639696.054204,0.187821,0.534706,-0.928244,-0.087461,0.046213,-0.050693,0.160656,-0.509588,-0.845286,0.018101,0.010260,0.012401,22.243118,-11.392059,-48.077347,,,,,,,
1530639696.074173,0.187721,0.533160,-0.928998,-0.061188,-0.068575,-0.054762,0.160718,-0.508258,-0.846075,0.023577,0.013629,-0.011285,21.950974,-11.092453,-48.232651,,,,,,,
1530639696.094141,0.186009,0.532520,-0.930212,-0.009765,-0.131495,-0.057767,0.159330,-0.507706,-0.846669,0.011095,0.009857,-0.000011,21.633354,-10.958992,-48.241287,,,,,,,
1530639696.114110,0.183713,0.532412,-0.931803,0.018775,-0.160016,-0.085179,0.157396,-0.507613,-0.847087,-0.018174,0.002684,-0.017431,21.651382,-11.148903,-48.353363,,,,,,,
1530639696.134079,0.182875,0.533431,-0.934183,0.095326,-0.082757,-0.086698,0.156592,-0.508491,-0.846709,-0.006521,0.012916,-0.016603,21.798946,-11.384705,-48.363449,,,,,,,
1530639696.154048,0.182124,0.535436,-0.936425,0.129707,-0.117187,-0.058108,0.155771,-0.510216,-0.845822,0.015128,0.012459,-0.003009,21.613522,-11.352203,-48.211273,,,,,,,
1530639696.174017,0.179340,0.538307,-0.937388,0.172201,-0.210371,0.005700,0.153153,-0.512684,-0.844807,-0.008164,0.024189,-0.005748,21.407806,-11.529388,-48.282669,,,,,,,
1530639696.193985,0.174792,0.543043,-0.939185,0.322067,-0.337684,-0.108680,0.148886,-0.516744,-0.843094,-0.119482,0.065069,-0.026855,21.020958,-11.627983,-48.361801,,,,,,,
1530639696.213954,0.168912,0.552022,-0.949483,0.655735,-0.683857,-0.509723,0.143140,-0.524410,-0.839348,-0.176221,0.092784,-0.032814,20.500240,-12.261505,-48.439163,,,,,,,
1530639696.233923,0.161172,0.566834,-0.969592,0.988712,-1.092444,-0.824784,0.135378,-0.536964,-0.832672,-0.125719,0.103782,0.012512,19.587902,-12.797760,-48.475403,,,,,,,
1530639696.253892,0.147639,0.585817,-0.994245,1.136015,-1.468577,-0.875623,0.122576,-0.552880,-0.824196,-0.097261,0.091958,0.047905,18.619137,-13.589478,-48.748230,,,,,,,
1530639696.273861,0.131297,0.603385,-1.019825,0.899953,-1.565971,-0.987896,0.107802,-0.567433,-0.816332,-0.130659,0.103001,0.156679,17.527790,-14.063690,-48.983612,,,,,,,
1530639696.293829,0.115158,0.610992,-1.046045,0.245101,-1.639042,-0.926261,0.094115,-0.573680,-0.813654,-0.068877,0.130824,0.261851,16.212177,-13.916069,-49.235641,,,,,,,
1530639696.313798,0.093849,0.602087,-1.060988,-0.773489,-1.371159,-0.505350,0.077232,-0.566364,-0.820528,0.091454,0.052219,0.305422,15.081734,-13.083092,-49.653000,,,,,,,
1530639696.333767,0.073085,0.575162,-1.059360,-1.665584,-0.732033,0.340947,0.061271,-0.543971,-0.836864,0.397637,-0.232549,0.364101,14.260796,-11.495323,-49.882339,,,,,,,
1530639696.353736,0.055547,0.536760,-1.037467,-2.065584,-0.125282,0.897108,0.047711,-0.511354,-0.858044,-0.049573,-0.045546,0.213879,13.936371,-9.993774,-50.473770,,,,,,,
1530639696.373705,0.044935,0.497787,-1.017292,-1.918923,-0.015476,0.655561,0.039469,-0.477482,-0.877754,-0.229883,0.095356,0.104317,13.795849,-8.243721,-50.742416,,,,,,,
1530639696.393673,0.034637,0.463694,-1.006279,-1.594258,-0.478099,0.332786,0.030973,-0.447255,-0.893870,-0.059400,0.086354,-0.029851,13.280079,-6.864021,-50.894592,,,,,,,
1530639696.413642,0.013924,0.437105,-0.995688,-1.184662,-0.979648,0.526604,0.012614,-0.423319,-0.905893,0.039952,0.028284,-0.058249,12.424297,-5.855492,-51.296463,,,,,,,
1530639696.433611,-0.014022,0.418383,-0.981675,-0.792797,-1.116755,0.699718,-0.012812,-0.406283,-0.913657,-0.035283,0.088916,-0.024285,11.065216,-5.084633,-51.276215,,,,,,,
1530639696.453580,-0.040324,0.406114,-0.964399,-0.488054,-0.903903,0.874374,-0.037034,-0.395043,-0.917916,-0.122848,0.097847,0.149361,10.179554,-4.920753,-51.574356,,,,,,,
1530639696.473549,-0.070843,0.398385,-0.942180,-0.229151,-1.296719,1.155524,-0.065241,-0.387931,-0.919377,-0.210699,0.119589,0.317860,8.969231,-4.740242,-51.567612,,,,,,,
1530639696.493517,-0.113309,0.391923,-0.914483,-0.339483,-1.606911,1.319139,-0.104493,-0.381966,-0.918250,-0.288924,0.063409,0.590201,7.231575,-4.371758,-51.516312,,,,,,,
1530639696.513486,-0.155766,0.375184,-0.894799,-0.977506,-1.835588,0.734886,-0.144345,-0.366443,-0.919176,-0.254901,0.189258,0.480745,5.561508,-3.460091,-51.562363,,,,,,,
1530639696.533455,-0.191954,0.345798,-0.888754,-1.503256,-1.621749,0.646618,-0.179484,-0.338947,-0.923526,-0.074453,0.235386,0.233569,3.895527,-2.257591,-51.605850,,,,,,,
1530639696.553424,-0.234314,0.317162,-0.869145,-0.907534,-2.075267,1.548348,-0.220596,-0.311872,-0.924161,-0.042969,0.386212,0.014737,1.919706,-1.282646,-51.564026,,,,,,,
1530639696.573393,-0.310724,0.304536,-0.829763,0.432370,-4.180625,2.150531,-0.291680,-0.299850,-0.908302,0.103432,0.500503,-0.027825,-1.917450,-1.584846,-50.879517,,,,,,,
1530639696.593361,-0.443355,0.314103,-0.772414,2.037890,-6.466207,2.462121,-0.407985,-0.308963,-0.859122,0.114833,0.671253,0.314856,-7.703833,-2.829185,-49.754990,,,,,,,
1530639696.613330,-0.612189,0.331693,-0.695194,2.760435,-7.769522,3.006803,-0.543337,-0.325644,-0.773783,0.313265,0.752188,0.343623,-14.639049,-4.477852,-47.035736,,,,,,,
1530639696.633299,-0.814841,0.324322,-0.596191,2.914924,-8.814943,4.278161,-0.689684,-0.318666,-0.650222,0.416399,0.923585,0.211501,-22.087612,-5.312622,-42.699661,,,,,,,
1530639696.653268,-1.029443,0.286560,-0.474347,3.973931,-8.939355,5.456960,-0.822065,-0.282654,-0.494283,0.488721,1.030350,-0.021494,-29.288433,-5.387886,-37.213272,,,,,,,
1530639696.673237,-1.239983,0.216241,-0.336078,4.834950,-8.520942,6.210151,-0.923752,-0.214560,-0.317248,0.153977,1.045736,0.090808,-35.037888,-4.651573,-30.668747,,,,,,,
1530639696.693205,-1.407096,0.119029,-0.219431,3.971933,-6.557747,6.029301,-0.979650,-0.118749,-0.161817,-0.321925,0.777104,0.502515,-38.879829,-2.434326,-24.840698,,,,,,,
1530639696.713174,-1.513033,0.008491,-0.146773,2.500697,-4.195764,5.837437,-0.998296,-0.008490,-0.057729,-0.399760,0.490455,0.431677,-44.897804,4.005302,-18.221802,,,,,,,
1530639696.733143,-1.571526,-0.106945,-0.103803,1.763920,-2.383102,5.868055,-0.994287,0.106741,0.000726,-0.276191,0.354044,0.110755,-45.471088,7.654381,-15.799622,,,,,,,
1530639696.753112,-1.599604,-0.225030,-0.074544,1.486960,-1.281210,5.854753,-0.974383,0.223136,0.028078,-0.338987,0.319497,-0.167299,-45.284554,11.687119,-14.514786,,,,,,,
1530639696.773081,-1.608378,-0.335355,-0.047749,1.471267,-0.625300,5.190476,-0.943627,0.329104,0.035480,-0.733131,0.084760,-0.242694,-44.656517,15.239281,-14.254570,,,,,,,
1530639696.793049,-1.612137,-0.430457,-0.018065,1.697838,-0.894905,4.417776,-0.907999,0.417286,0.037559,-1.141287,-0.182240,-0.475441,-43.945290,18.139931,-13.856941,,,,,,,
1530639696.813017,-1.615870,-0.507613,0.027180,2.508114,-1.440606,3.315042,-0.873020,0.486092,0.039376,-1.616329,-0.405465,-0.576791,-43.370895,19.824738,-13.352188,,,,,,,
1530639696.832986,-1.616091,-0.559864,0.093101,3.164816,-1.803800,2.007745,-0.846459,0.531071,0.038366,-1.692955,-0.552998,-0.333563,-43.410275,20.892143,-12.871025,,,,,,,
1530639696.852955,-1.606957,-0.590974,0.170218,3.321945,-1.453283,1.119054,-0.829856,0.557170,0.030021,-1.496011,-0.693782,0.067086,-43.640217,20.740234,-12.506516,,,,,,,
1530639696.872923,-1.588786,-0.602621,0.241936,2.590798,-0.884129,0.103924,-0.823720,0.566803,0.014820,-1.446651,-0.755860,0.602917,-43.955101,20.314674,-12.722679,,,,,,,
1530639696.892892,-1.573441,-0.592725,0.285725,1.285559,-0.173860,-0.856955,-0.829419,0.558623,0.002193,-1.146671,-0.806594,0.823963,-44.317764,19.203156,-13.024422,,,,,,,
1530639696.912861,-1.563477,-0.567065,0.299510,0.087588,0.344052,-1.463988,-0.843459,0.537159,-0.006173,-0.692110,-0.738987,0.832040,-44.630638,18.119652,-13.391090,,,,,,,
1530639696.932830,-1.556285,-0.543929,0.267291,-2.428043,1.852039,-0.871213,-0.855592,0.517502,-0.012417,0.350343,-0.212830,1.641582,-44.257336,17.824760,-14.177582,,,,,,,
1530639696.952799,-1.551692,-0.529490,0.191570,-3.234847,1.945828,-0.826566,-0.862907,0.505093,-0.016487,0.010673,-0.519132,0.363594,-43.863049,18.194954,-15.087151,,,,,,,
1530639696.972767,-1.557214,-0.505388,0.142728,-1.407379,0.277766,-1.385812,-0.874906,0.484147,-0.011884,-0.143573,-0.150270,-0.344012,-43.922520,17.901535,-15.074104,,,,,,,
1530639696.992736,-1.573393,-0.478759,0.128500,-0.214484,-0.714522,-1.301934,-0.887564,0.460678,0.002305,0.255820,-0.165863,-0.011506,-44.211937,17.102509,-14.757576,,,,,,,
1530639697.012705,-1.582736,-0.453085,0.129188,0.075614,-0.597905,-1.258089,-0.899037,0.437742,0.010734,-0.008861,-0.329328,0.202782,-44.363647,16.146103,-14.145027,,,,,,,
1530639697.032674,-1.601058,-0.427361,0.139596,0.717457,-1.142602,-1.380805,-0.909646,0.414471,0.027536,-0.102881,-0.097027,-0.142267,-44.880226,15.085533,-13.485023,,,,,,,
1530639697.052644,-1.608897,-0.402506,0.165176,1.158861,-0.912734,-1.119088,-0.919414,0.391726,0.035047,0.014553,-0.009890,-0.309049,-45.171741,14.053177,-12.772659,,,,,,,
1530639697.072613,-1.616974,-0.384649,0.193828,1.403397,-0.821681,-0.888296,-0.925942,0.375233,0.042788,-0.004798,0.055522,-0.410266,-45.515659,13.016243,-12.441452,,,,,,,
,,,,,,,,,,,,,,,,39.779061,-84.063394,294.783230,0.410000,-1.000000,1530639697.000052,
1530639697.092580,-1.615874,-0.371799,0.229936,1.738612,-0.588699,-0.593078,-0.930729,0.363292,0.041984,0.122623,0.026951,-0.372169,-45.806351,12.086647,-12.441742,,,,,,,
1530639697.112549,-1.612896,-0.365641,0.271594,2.044268,-0.556824,-0.268307,-0.933067,0.357548,0.039305,0.244881,0.207852,-0.292510,-45.827972,11.545944,-12.185760,,,,,,,
1530639697.132519,-1.603295,-0.367913,0.321532,2.490906,-0.413761,0.253935,-0.932587,0.359669,0.030319,0.364335,0.224163,-0.303146,-45.727810,10.903229,-12.071098,,,,,,,
1530639697.152488,-1.602572,-0.388197,0.375445,2.470452,-1.338838,1.371357,-0.925125,0.378520,0.029407,0.634445,0.157475,-0.131305,-45.816040,11.229507,-11.710358,,,,,,,
1530639697.172455,-1.622506,-0.430405,0.419906,1.869751,-2.112961,2.397547,-0.907582,0.417239,0.046973,0.748356,0.077100,0.119943,-45.874153,12.614365,-10.450226,,,,,,,
1530639697.192425,-1.655587,-0.491239,0.449141,1.334081,-2.348503,3.280041,-0.878581,0.471719,0.074675,0.722011,-0.064447,0.072054,-45.685505,14.836494,-8.503517,,,,,,,
1530639697.212394,-1.691065,-0.571754,0.466921,1.124507,-2.179654,4.414460,-0.834879,0.541108,0.100897,0.610819,-0.131455,-0.006506,-44.962574,18.223221,-7.049789,,,,,,,
1530639697.232363,-1.728709,-0.680861,0.477959,1.271943,-2.135753,5.880967,-0.767363,0.629462,0.122193,0.372725,0.019067,-0.028154,-43.419720,22.460815,-5.542999,,,,,,,
1530639697.252331,-1.754380,-0.815508,0.485851,1.562500,-1.014292,7.001703,-0.673979,0.728074,0.125140,0.352370,-0.000657,0.094479,-38.704311,29.872597,-5.130051,,,,,,,
1530639697.272300,-1.759995,-0.955498,0.491029,1.112069,-0.713803,6.032973,-0.566901,0.816601,0.108555,0.132453,0.476383,-0.005559,-35.262325,34.230881,-5.151672,,,,,,,
1530639697.292269,-1.764299,-1.069126,0.488634,1.052490,0.347675,5.468192,-0.471914,0.876781,0.092473,0.153936,-0.014003,0.255854,-31.629543,37.655029,-6.549438,,,,,,,
1530639697.312238,-1.740548,-1.179282,0.494356,1.223297,1.291524,5.460135,-0.376102,0.924332,0.064464,0.224094,-0.290299,0.182469,-27.351082,40.075443,-8.118416,,,,,,,
1530639697.332206,-1.676035,-1.289417,0.533247,1.461533,1.220517,5.181150,-0.276142,0.960673,0.029169,0.189442,-0.374080,-0.069528,-23.029583,42.313297,-9.364830,,,,,,,
1530639697.352175,-1.554338,-1.378559,0.641437,1.409995,0.588709,3.800302,-0.191025,0.981579,-0.003144,-0.089050,0.242679,-0.117461,-19.898354,42.942501,-11.128021,,,,,,,
1530639697.372144,-1.399144,-1.419723,0.807337,1.029335,-1.388019,0.889290,-0.148284,0.988610,-0.025706,-0.508500,1.841804,-0.425191,-20.078684,42.794586,-11.019760,,,,,,,
1530639697.392112,-1.441969,-1.383614,0.838919,0.172115,-4.959031,-3.083445,-0.184546,0.982533,-0.023907,-0.523752,2.267574,-0.599506,-23.425800,41.516384,-9.098946,,,,,,,
1530639697.412081,-1.588685,-1.307297,0.792647,-0.395010,-4.344973,-3.895189,-0.260416,0.965485,0.004659,0.101359,0.695709,0.078120,-26.717155,40.079849,-7.860893,,,,,,,
1530639697.432050,-1.518447,-1.251375,0.852045,1.384151,3.118848,-2.098604,-0.313585,0.949417,-0.016431,0.288637,-0.363022,0.831952,-27.462048,38.711266,-9.731415,,,,,,,
1530639697.452019,-1.365938,-1.222476,0.922191,1.126720,4.424378,-0.910743,-0.334181,0.939947,-0.069434,0.298765,-0.493430,0.263739,-27.220444,38.019417,-12.752602,,,,,,,
1530639697.471988,-1.292343,-1.210175,0.936733,-0.135317,1.807175,-0.398683,-0.339263,0.935678,-0.096988,0.124419,-0.337671,0.066120,-27.005424,37.829773,-13.404305,,,,,,,
1530639697.491956,-1.342894,-1.208131,0.888479,-1.083627,-1.357155,-0.280876,-0.345593,0.934954,-0.080154,0.008786,-0.028735,-0.306489,-27.575039,38.115898,-12.285851,,,,,,,
1530639697.511925,-1.448489,-1.206596,0.821751,-1.030956,-2.187257,-0.289759,-0.353539,0.934409,-0.043457,-0.090125,0.147287,-0.067947,-28.076824,38.049751,-10.652100,,,,,,,
1530639697.531894,-1.472410,-1.202650,0.810202,0.338100,0.266515,-0.160945,-0.358145,0.932996,-0.035351,-0.143091,0.145526,0.149364,-28.153458,37.875328,-10.740524,,,,,,,
1530639697.551863,-1.429234,-1.198205,0.846563,0.747022,0.276272,-0.154476,-0.360388,0.931387,-0.051361,-0.001093,0.002085,-0.200074,-28.336014,37.660706,-11.431458,,,,,,,
1530639697.571832,-1.403514,-1.191838,0.880664,0.607422,-0.595147,-0.245625,-0.364787,0.929051,-0.061598,0.083781,-0.084751,-0.149950,-28.399267,37.158379,-11.502159,,,,,,,
1530639697.591800,-1.391888,-1.185742,0.907599,0.516688,-0.533754,-0.179647,-0.369614,0.926778,-0.066842,0.149430,-0.103139,0.030465,-28.548056,36.922195,-11.670837,,,,,,,
1530639697.611769,-1.370091,-1.181355,0.933955,0.511662,0.132424,-0.094419,-0.372050,0.925121,-0.075691,0.089731,0.025898,0.067101,-28.760239,36.859665,-12.160179,,,,,,,
1530639697.631738,-1.345008,-1.179012,0.955436,0.345101,0.308394,0.008513,-0.372146,0.924229,-0.085484,0.005813,0.017650,0.002949,-28.723518,36.747765,-12.630829,,,,,,,
1530639697.651707,-1.327505,-1.178492,0.968786,0.203375,0.275187,0.028194,-0.371059,0.924031,-0.092100,-0.078435,0.002163,0.020887,-28.385645,36.615082,-12.817123,,,,,,,
1530639697.671676,-1.313254,-1.177454,0.978413,0.170260,0.291030,-0.026380,-0.370636,0.923633,-0.097622,-0.115005,-0.038456,0.029629,-28.493633,36.569908,-13.044205,,,,,,,
1530639697.691645,-1.303328,-1.175761,0.984576,0.112051,0.205367,-0.087650,-0.371157,0.922983,-0.101710,-0.136427,-0.052759,0.018565,-28.319614,36.416084,-13.034050,,,,,,,
1530639697.711613,-1.297020,-1.173478,0.986742,0.033496,0.294906,-0.101480,-0.372536,0.922102,-0.104619,-0.146370,-0.046263,0.058675,-28.251495,36.187042,-13.323402,,,,,,,
1530639697.731582,-1.288806,-1.172018,0.986166,-0.016177,0.568412,-0.060804,-0.372957,0.921536,-0.108050,-0.143431,-0.044354,0.078646,-28.003822,36.318367,-13.577789,,,,,,,
1530639697.751551,-1.279359,-1.170972,0.982507,-0.089458,0.687784,-0.078854,-0.372842,0.921129,-0.111845,-0.141074,-0.028917,0.046247,-27.823326,36.167755,-13.636276,,,,,,,
1530639697.771520,-1.275376,-1.168767,0.973248,-0.166327,0.640956,-0.167782,-0.374336,0.920269,-0.113920,-0.143135,-0.011959,0.034590,-27.688515,36.168633,-14.233948,,,,,,,
1530639697.791489,-1.272616,-1.165042,0.961834,-0.142663,0.743029,-0.243037,-0.377294,0.918805,-0.115959,-0.123149,-0.015225,0.054817,-27.638010,36.132408,-14.516747,,,,,,,
1530639697.811459,-1.266525,-1.159934,0.951972,-0.090870,0.784210,-0.294079,-0.381054,0.916777,-0.119659,-0.097965,-0.015333,0.041199,-27.541943,36.154427,-14.971161,,,,,,,
1530639697.831427,-1.262879,-1.154650,0.941847,-0.127666,0.595344,-0.278426,-0.385226,0.914653,-0.122515,-0.078763,-0.036998,0.024034,-27.307373,35.775894,-15.262421,,,,,,,
1530639697.851396,-1.261523,-1.150180,0.932050,-0.096498,0.545400,-0.241249,-0.388951,0.912837,-0.124280,-0.072658,-0.074123,0.048810,-27.288940,35.824203,-15.469269,,,,,,,
1530639697.871365,-1.255100,-1.145985,0.927117,0.015251,0.591347,-0.186136,-0.391781,0.911117,-0.127963,-0.065754,-0.091887,0.049853,-27.158836,35.683289,-15.833534,,,,,,,
1530639697.891334,-1.242849,-1.141722,0.928141,0.137931,0.583566,-0.184244,-0.393858,0.909351,-0.134003,-0.065035,-0.085636,0.046235,-27.019590,35.596939,-16.264374,,,,,,,
1530639697.911303,-1.226473,-1.136396,0.934373,0.251318,0.552726,-0.199624,-0.396164,0.907123,-0.142068,-0.044007,-0.090854,0.066979,-26.803297,35.568947,-16.555824,,,,,,,
1530639697.931271,-1.206138,-1.130161,0.944794,0.352868,0.565797,-0.179073,-0.398469,0.904481,-0.152108,-0.021498,-0.107514,0.089440,-26.661804,35.355469,-17.197899,,,,,,,
1530639697.951240,-1.180831,-1.124937,0.959924,0.434909,0.642377,-0.082514,-0.398858,0.902240,-0.163936,0.001076,-0.119785,0.139186,-26.432846,35.094437,-17.920776,,,,,,,
1530639697.971209,-1.148057,-1.119552,0.979842,0.543963,0.852116,-0.086980,-0.397697,0.899905,-0.178909,-0.006875,-0.069339,0.188857,-25.929482,34.764183,-18.669952,,,,,,,
1530639697.991178,-1.109718,-1.113215,1.002505,0.579292,0.911448,-0.048239,-0.395646,0.897124,-0.196554,-0.030197,-0.001967,0.195943,-25.520065,34.698814,-19.619156,,,,,,,
1530639698.011147,-1.075114,-1.109563,1.023892,0.440555,0.675164,0.124661,-0.391488,0.895504,-0.211681,-0.057105,0.012226,0.193905,-24.938190,34.401695,-20.203987,,,,,,,
1530639698.031116,-1.050433,-1.110169,1.041474,0.290576,0.359633,0.263873,-0.385674,0.895774,-0.221008,-0.106132,0.009774,0.198608,-24.612202,34.427513,-20.492790,,,,,,,
1530639698.051084,-1.031369,-1.112053,1.057343,0.279141,0.225023,0.254714,-0.379942,0.896609,-0.227453,-0.146654,0.001767,0.189779,-24.067074,34.505943,-20.953346,,,,,,,
1530639698.071053,-1.013518,-1.112984,1.073613,0.325525,0.177738,0.225947,-0.375113,0.897021,-0.233757,-0.168329,0.026242,0.172813,-23.774307,34.481598,-21.058525,,,,,,,
,,,,,,,,,,,,,,,,39.779063,-84.063384,290.936123,0.410000,-1.000000,1530639698.000056,
1530639698.091022,-0.995244,-1.113144,1.090045,0.329869,0.222026,0.206704,-0.370659,0.897092,-0.240494,-0.196602,0.061755,0.181077,-23.336447,34.313721,-21.626282,,,,,,,
1530639698.110991,-0.977113,-1.113055,1.104406,0.272458,0.333786,0.171183,-0.366304,0.897053,-0.247220,-0.250319,0.066570,0.197400,-22.956150,34.199860,-22.053963,,,,,,,
1530639698.130960,-0.957334,-1.112943,1.116822,0.222301,0.553673,0.143656,-0.361425,0.897003,-0.254474,-0.305461,0.070511,0.235522,-22.453781,34.242943,-22.318871,,,,,,,
1530639698.150929,-0.930372,-1.111040,1.127790,0.280954,1.053537,0.011708,-0.355801,0.896161,-0.265144,-0.359837,0.116565,0.282844,-21.884192,34.137016,-22.979721,,,,,,,
1530639698.170897,-0.894909,-1.105983,1.137699,0.344728,1.472697,-0.103431,-0.349708,0.893905,-0.280424,-0.350259,0.155503,0.352369,-21.083189,34.256012,-23.860176,,,,,,,
1530639698.190866,-0.858363,-1.100782,1.143713,0.184283,1.557766,-0.105624,-0.342742,0.891562,-0.296050,-0.418031,0.252390,0.486571,-20.067154,34.022217,-24.487244,,,,,,,
1530639698.210835,-0.842619,-1.102183,1.133963,-0.553803,0.872503,-0.109686,-0.337106,0.892195,-0.300577,-0.607337,0.276094,0.723734,-19.394903,33.948044,-24.708832,,,,,,,
1530639698.230804,-0.891583,-1.115370,1.082297,-1.719656,-0.717235,-0.359451,-0.342229,0.898074,-0.276302,-0.680659,0.140516,0.672466,-19.523357,34.632370,-23.767036,,,,,,,
1530639698.250773,-0.999013,-1.130696,0.989252,-2.216230,-1.317717,-0.662274,-0.358264,0.904709,-0.230538,-0.591352,0.067276,0.420388,-20.412235,35.670403,-21.752968,,,,,,,
1530639698.270742,-1.129284,-1.139503,0.878899,-2.248801,-1.659143,-0.774659,-0.377958,0.908426,-0.178634,-0.442630,0.036246,0.163528,-21.436535,36.238205,-19.264160,,,,,,,
1530639698.290710,-1.274086,-1.141917,0.764972,-2.278415,-2.347204,-0.726973,-0.397680,0.909432,-0.121585,-0.275950,0.041434,0.033679,-22.421150,36.766838,-16.799179,,,,,,,
1530639698.310679,-1.432850,-1.137920,0.649738,-2.321411,-2.832997,-0.714836,-0.415498,0.907763,-0.057683,-0.166518,0.079389,-0.052059,-23.526649,37.243866,-14.061256,,,,,,,
1530639698.330648,-1.586447,-1.125705,0.541125,-2.209813,-2.683606,-0.772467,-0.430487,0.902571,0.006738,-0.118829,0.143358,-0.198617,-24.655870,37.608086,-10.925606,,,,,,,
1530639698.350617,-1.718564,-1.107254,0.449477,-2.017193,-2.353826,-0.739494,-0.442246,0.894474,0.065830,-0.046447,0.135876,-0.393222,-25.445061,37.460686,-7.970612,,,,,,,
1530639698.370586,-1.824440,-1.085880,0.371722,-1.926791,-1.437047,-0.660546,-0.451220,0.884714,0.116968,-0.041685,0.327414,-0.411982,-25.809971,37.211884,-5.837234,,,,,,,
1530639698.390555,-1.895567,-1.063293,0.303301,-1.835295,-0.001302,-0.599592,-0.460591,0.873960,0.155077,-0.004009,0.545732,-0.409106,-26.037024,36.975922,-3.990341,,,,,,,
1530639698.410523,-1.920055,-1.040957,0.253334,-1.310291,1.340584,-0.715196,-0.474882,0.862888,0.172947,-0.026201,0.561276,-0.033650,-26.048630,36.667282,-3.536766,,,,,,,
1530639698.430492,-1.935359,-1.014731,0.222602,-1.226975,-0.259533,-1.119621,-0.493158,0.849338,0.188199,-0.119162,0.284481,0.016238,-26.467541,36.424026,-3.078857,,,,,,,
1530639698.450461,-1.988096,-0.982160,0.193722,-1.362376,-1.928111,-1.192018,-0.507581,0.831699,0.225030,0.059949,0.096951,-0.321145,-27.102430,35.948822,-1.506409,,,,,,,
1530639698.470430,-2.051680,-0.953799,0.170022,-1.069295,-2.333451,-0.857356,-0.512969,0.815619,0.267633,0.220382,-0.057013,-0.578501,-27.732317,35.152832,1.388161,,,,,,,
1530639698.490399,-2.111200,-0.933012,0.156599,-0.738245,-2.534568,-0.683905,-0.510570,0.803417,0.306331,0.145396,-0.182949,-0.525157,-27.831455,34.541733,2.818169,,,,,,,
1530639698.510368,-2.168876,-0.912958,0.150806,-0.675131,-2.709087,-0.832100,-0.505278,0.791315,0.344257,0.031356,-0.263438,-0.402622,-28.242306,34.346413,4.526299,,,,,,,
1530639698.530336,-2.219735,-0.890127,0.149919,-0.670176,-2.356234,-0.933987,-0.501390,0.777152,0.380320,0.084641,-0.330939,-0.366068,-28.448967,33.658035,5.939583,,,,,,,
1530639698.550305,-2.259401,-0.870956,0.150840,-0.457617,-1.886900,-0.649263,-0.497328,0.764945,0.409297,0.257811,-0.348472,-0.460750,-28.219475,33.170700,6.941231,,,,,,,
1530639698.570274,-2.291835,-0.862712,0.153555,-0.012306,-1.686876,-0.222715,-0.488513,0.759609,0.429358,0.369770,-0.317913,-0.572409,-27.987337,32.893753,7.559814,,,,,,,
1530639698.590243,-2.319316,-0.867041,0.157394,0.409601,-1.462836,0.244101,-0.474117,0.762418,0.440377,0.462856,-0.322873,-0.584923,-27.564285,33.242126,7.769981,,,,,,,
1530639698.610212,-2.341487,-0.883831,0.159375,0.769439,-1.024747,0.729868,-0.454989,0.773174,0.441798,0.530642,-0.362789,-0.564112,-26.848162,33.419403,7.889320,,,,,,,
1530639698.630181,-2.355065,-0.910923,0.156980,0.973499,-0.334471,1.151649,-0.433957,0.790070,0.432978,0.575177,-0.432465,-0.470149,-25.830132,33.969788,7.149750,,,,,,,
1530639698.650149,-2.357490,-0.943224,0.149356,1.006533,0.438162,1.325430,-0.414661,0.809455,0.415737,0.565784,-0.484733,-0.296718,-24.995153,34.507362,5.986450,,,,,,,
1530639698.670118,-2.339027,-0.974821,0.148561,1.204490,1.290725,0.947790,-0.403664,0.827602,0.390038,0.457101,-0.422633,0.112633,-24.134233,34.699539,4.403320,,,,,,,
1530639698.690087,-2.282698,-1.005135,0.175687,1.679734,1.646726,0.528126,-0.405796,0.844234,0.350138,0.179508,-0.103710,0.909567,-23.549015,34.824890,2.623055,,,,,,,
1530639698.710056,-2.260043,-1.017849,0.192235,0.018379,-0.140690,-0.165976,-0.405307,0.850980,0.334002,-0.902539,0.724093,1.778929,-23.442728,34.386475,2.163322,,,,,,,
1530639698.730025,-2.238880,-0.995525,0.199894,-0.599700,1.477845,-1.441488,-0.427093,0.839045,0.337037,-1.212418,1.473150,0.927200,-23.894428,33.794144,1.483803,,,,,,,
1530639698.749994,-2.188919,-0.965554,0.222770,-0.332823,1.149171,-1.496607,-0.463684,0.822364,0.329716,-0.535401,0.835457,-0.018391,-24.558542,33.211632,0.981026,,,,,,,
1530639698.769962,-2.180098,-0.941984,0.233847,-0.408159,-0.592084,-0.959551,-0.482337,0.808727,0.336614,-0.007638,-0.120662,-0.030400,-24.900900,32.702240,0.855522,,,,,,,
1530639698.789931,-2.177756,-0.930912,0.245786,0.277642,0.085345,-0.458850,-0.490450,0.802165,0.340570,0.276323,-0.598460,-0.198862,-25.014477,32.582886,0.106895,,,,,,,
1530639698.809900,-2.142394,-0.939170,0.273220,1.312145,0.792043,0.102986,-0.496595,0.807069,0.319423,0.360746,-0.721284,-0.935481,-24.680367,32.579834,-1.061157,,,,,,,
1530639698.829869,-2.096914,-0.968642,0.319352,2.193954,0.091832,0.906648,-0.489817,0.824117,0.284443,0.379740,-0.539327,-1.073216,-24.068909,32.832184,-2.984337,,,,,,,
1530639698.849838,-2.082409,-1.011986,0.341544,0.375227,-0.392176,1.862023,-0.462290,0.847887,0.259566,-0.125814,0.704329,1.505006,-22.799366,33.413902,-3.483566,,,,,,,
1530639698.869807,-2.133624,-1.031934,0.279400,-0.952650,0.584521,1.485076,-0.434003,0.858293,0.273811,-0.209918,1.044478,0.097421,-21.984360,34.259987,-3.376076,,,,,,,
1530639698.889775,-2.145141,-1.043026,0.245725,-0.099041,0.896308,0.576913,-0.422802,0.863932,0.273601,-0.016651,0.420354,-0.869900,-21.304626,34.752571,-4.198067,,,,,,,
1530639698.909744,-2.120116,-1.049435,0.251087,0.461969,1.188940,0.057886,-0.424784,0.867142,0.260040,0.274531,-0.076889,-0.651748,-20.931873,34.664383,-5.354813,,,,,,,
1530639698.929713,-2.068575,-1.055964,0.273419,0.729674,1.836111,0.005301,-0.432633,0.870375,0.235103,0.408891,-0.287398,-0.511348,-20.687176,34.748032,-6.364830,,,,,,,
1530639698.949682,-2.007432,-1.063936,0.300869,0.771996,1.768174,0.089728,-0.439890,0.874273,0.205286,0.379083,-0.235128,-0.498926,-20.125452,34.651237,-8.098404,,,,,,,
1530639698.969651,-1.960815,-1.071988,0.322742,0.539522,1.096343,0.194662,-0.442453,0.878153,0.181882,0.248743,-0.043970,-0.456662,-19.705832,34.641800,-9.100990,,,,,,,
1530639698.989620,-1.931541,-1.079520,0.335109,0.438160,1.117872,0.278894,-0.441385,0.881732,0.166514,0.003306,0.249296,-0.169108,-19.209850,34.909256,-10.060600,,,,,,,
1530639699.009588,-1.855800,-1.092156,0.366269,1.146607,3.092720,0.413519,-0.441992,0.887622,0.129495,-0.223444,0.370908,0.124000,-18.058270,34.534592,-11.745811,,,,,,,
1530639699.029557,-1.755201,-1.104969,0.413181,1.126446,2.559029,0.327035,-0.441545,0.893450,0.082359,-0.154890,0.169538,-0.210670,-16.932508,34.270195,-13.568268,,,,,,,
1530639699.049526,-1.685338,-1.112917,0.455041,0.919816,1.094800,0.240212,-0.439150,0.896992,0.050522,-0.059355,-0.099262,-0.192795,-16.382046,34.403351,-14.826080,,,,,,,
1530639699.069495,-1.634664,-1.120678,0.498373,1.054311,0.372007,0.353927,-0.434183,0.900396,0.027768,-0.023382,-0.269384,-0.070798,-15.905556,34.261871,-15.679619,,,,,,,
,,,,,,,,,,,,,,,,39.779064,-84.063376,290.845486,-1.000000,-1.000000,1530639699.000058,
1530639699.089464,-1.584224,-1.129627,0.551992,1.239487,-0.038049,0.417925,-0.426958,0.904253,0.005733,-0.038039,-0.262010,-0.093517,-15.600332,34.093277,-16.794144,,,,,,,
1530639699.109433,-1.530087,-1.136733,0.613994,1.337777,-0.119135,0.325886,-0.420211,0.907265,-0.017116,-0.024644,-0.291633,-0.039738,-15.356266,33.589027,-17.622520,,,,,,,
1530639699.129401,-1.473980,-1.140175,0.677657,1.288113,-0.041261,0.241588,-0.415480,0.908707,-0.040351,0.035704,-0.375229,0.022071,-15.144224,33.149826,-18.709351,,,,,,,
1530639699.149370,-1.421035,-1.142181,0.734722,1.085608,0.107762,0.252020,-0.410958,0.909542,-0.062010,0.028344,-0.396069,0.053877,-14.775520,32.792908,-19.666626,,,,,,,
1530639699.169339,-1.371451,-1.143719,0.783098,0.931445,0.443455,0.244492,-0.406009,0.910180,-0.082025,-0.078549,-0.312494,0.116403,-14.302315,32.608269,-20.284691,,,,,,,
1530639699.189308,-1.306114,-1.143523,0.831044,1.028136,1.566480,0.190640,-0.399959,0.910099,-0.108406,-0.254383,-0.130543,0.250435,-13.464785,32.192032,-21.700821,,,,,,,
1530639699.209277,-1.207621,-1.138061,0.887682,1.327978,2.744184,0.042130,-0.392002,0.907822,-0.148973,-0.335934,0.078872,0.258470,-11.936810,31.548630,-23.241684,,,,,,,
1530639699.229246,-1.091253,-1.125684,0.949126,1.482742,3.146546,-0.042784,-0.381995,0.902562,-0.198649,-0.247263,0.183925,0.329584,-10.266031,30.625755,-25.074539,,,,,,,
1530639699.249214,-0.981347,-1.114531,1.001442,0.962478,2.996879,0.233828,-0.366246,0.897704,-0.244930,-0.088496,0.066865,0.797665,-8.473223,30.340363,-26.158043,,,,,,,
1530639699.269183,-0.946347,-1.123320,1.007190,-0.799722,0.369517,0.482618,-0.351036,0.901542,-0.252973,-0.140312,0.014230,0.663786,-7.415476,30.541389,-26.426826,,,,,,,
1530639699.289152,-0.994939,-1.142535,0.971179,-1.223406,-1.235059,0.268006,-0.348314,0.909689,-0.226148,-0.411482,0.133860,0.155912,-7.733095,31.516235,-25.863235,,,,,,,
1530639699.309121,-1.054712,-1.156285,0.935733,-0.779149,-1.381481,0.189226,-0.350288,0.915313,-0.198744,-0.532540,0.079316,0.038573,-8.190838,32.174850,-25.444489,,,,,,,
1530639699.329090,-1.088761,-1.160715,0.924513,0.022622,-1.014890,-0.021396,-0.353255,0.917088,-0.184823,-0.634538,0.063289,0.048822,-8.874681,32.544495,-25.694214,,,,,,,
1530639699.349059,-1.092839,-1.149604,0.938219,0.736972,-0.737565,-0.569098,-0.363032,0.912602,-0.188057,-0.598852,0.171444,0.082359,-9.694071,32.582359,-26.139023,,,,,,,
1530639699.369027,-1.077698,-1.129214,0.959653,0.864584,0.163960,-0.680438,-0.376458,0.904076,-0.202299,-0.541725,0.241447,0.447050,-9.986641,32.256294,-26.972466,,,,,,,
1530639699.388996,-1.075975,-1.119308,0.946578,-0.904822,0.520007,-0.521796,-0.383971,0.899799,-0.207190,-0.571794,0.220654,1.170767,-10.134899,32.529869,-26.839012,,,,,,,
1530639699.408965,-1.220804,-1.129689,0.809336,-3.769121,-2.046197,-0.923170,-0.401056,0.904280,-0.146393,-0.550390,0.088762,0.597794,-11.538612,34.342079,-25.023109,,,,,,,
1530639699.428934,-1.453066,-1.124810,0.608361,-4.073150,-2.730324,-1.431212,-0.428359,0.902186,-0.050665,-0.368790,0.191488,0.052298,-13.989878,36.500504,-21.851151,,,,,,,
1530639699.448903,-1.660459,-1.089367,0.445063,-3.303697,-3.417520,-2.025135,-0.461183,0.886334,0.041462,-0.303618,0.340976,-0.511097,-16.995094,37.849388,-18.656479,,,,,,,
1530639699.468872,-1.829511,-1.039425,0.337517,-2.832410,-3.919458,-1.937669,-0.489850,0.862113,0.129637,-0.168048,0.316964,-0.643568,-20.081724,38.455444,-14.866501,,,,,,,
1530639699.488840,-1.962481,-0.990240,0.261552,-2.554809,-2.969625,-1.539155,-0.506948,0.836158,0.209383,-0.132319,0.581719,-0.520479,-22.520161,38.993477,-11.818680,,,,,,,
1530639699.508809,-2.028231,-0.947779,0.208445,-1.921554,0.271244,-1.216424,-0.523497,0.812122,0.257695,-0.063570,0.960446,-0.286153,-23.894556,38.964439,-9.713181,,,,,,,
1530639699.528778,-1.983448,-0.919150,0.188006,-0.618234,4.481277,-0.914510,-0.555584,0.795086,0.243228,0.219845,1.044116,-0.169116,-23.961594,38.581680,-10.278656,,,,,,,
1530639699.548747,-1.895845,-0.904814,0.196930,0.129811,2.188312,-0.771765,-0.585477,0.786310,0.197307,0.279431,0.590399,0.054234,-23.948467,38.424812,-11.431259,,,,,,,
1530639699.568716,-1.921667,-0.886210,0.191037,-0.829621,-2.347176,-0.799584,-0.593823,0.774681,0.217348,0.219601,0.125679,-0.131121,-25.133625,38.357040,-10.580841,,,,,,,
1530639699.588685,-1.998744,-0.867229,0.160538,-1.335797,-2.747771,-0.315096,-0.588598,0.762539,0.268482,0.443547,-0.118023,-0.472187,-26.221916,38.292976,-7.943863,,,,,,,
1530639699.608653,-2.077344,-0.857183,0.128355,-0.898117,-2.849410,0.154293,-0.572369,0.756002,0.317570,0.433041,-0.279424,-0.749638,-26.705486,38.521072,-5.464592,,,,,,,
1530639699.628622,-2.149647,-0.857798,0.113365,-0.041082,-3.204764,0.257765,-0.547542,0.756404,0.357834,0.279232,-0.377880,-0.706100,-27.008179,38.682724,-3.497330,,,,,,,
1530639699.648591,-2.204054,-0.863343,0.120085,0.534136,-2.794184,-0.077496,-0.523884,0.760020,0.384592,0.075032,-0.457209,-0.363458,-27.420143,38.449837,-2.162895,,,,,,,
1530639699.668560,-2.232763,-0.862341,0.139009,0.399079,-1.864048,-0.642106,-0.513229,0.759368,0.399939,0.011169,-0.498504,-0.203528,-28.105053,38.314476,-1.189140,,,,,,,
1530639699.688529,-2.249680,-0.854911,0.157463,0.249871,-1.526395,-0.614084,-0.510767,0.754512,0.412096,0.307124,-0.494441,-0.484026,-28.677517,37.891312,-0.184364,,,,,,,
1530639699.708498,-2.271073,-0.855522,0.169684,0.456732,-1.623425,-0.001999,-0.501482,0.754913,0.422630,0.504702,-0.449997,-0.672615,-28.947624,37.723305,0.632698,,,,,,,
1530639699.728466,-2.298332,-0.871591,0.173082,0.779406,-1.449169,0.804292,-0.480654,0.765354,0.428017,0.611452,-0.452656,-0.653878,-28.341375,38.199455,1.178673,,,,,,,
1530639699.748435,-2.322226,-0.903668,0.167291,1.086777,-0.691575,1.543453,-0.452112,0.785601,0.422395,0.666056,-0.459613,-0.536714,-27.371874,38.886070,0.742012,,,,,,,
1530639699.768404,-2.331973,-0.946928,0.153897,1.288913,0.441596,1.932874,-0.422956,0.811625,0.402948,0.656217,-0.449518,-0.312890,-25.925037,39.782646,-0.468468,,,,,,,
1530639699.788373,-2.316628,-0.992106,0.142936,1.387330,1.615772,1.665699,-0.401727,0.837180,0.371132,0.569360,-0.332449,0.212074,-24.861206,40.531906,-2.129433,,,,,,,
1530639699.808342,-2.274360,-1.019828,0.147236,0.406357,1.667650,0.436113,-0.399195,0.852018,0.338676,-0.089560,0.445544,1.684044,-24.695122,40.301540,-2.587288,,,,,,,
1530639699.828311,-2.257803,-0.994402,0.140785,-1.290539,1.167584,-1.719270,-0.421363,0.838433,0.345651,-1.370232,1.342582,1.801734,-25.998470,39.779953,-2.462311,,,,,,,
1530639699.848279,-2.196117,-0.945181,0.179252,-0.177948,1.445703,-2.879499,-0.474782,0.810603,0.342779,-0.825633,1.116323,0.013590,-27.768141,38.253441,-2.651207,,,,,,,
1530639699.868248,-2.147663,-0.905521,0.225461,-0.008207,0.052541,-1.927068,-0.517381,0.786747,0.336659,-0.216460,0.337994,-0.026112,-28.867855,37.088493,-2.522423,,,,,,,
1530639699.888217,-2.136865,-0.891132,0.240987,0.145332,0.095388,-0.308557,-0.530486,0.777784,0.337090,0.364303,-0.514982,0.073860,-28.911285,36.517456,-2.797577,,,,,,,
1530639699.908186,-2.115756,-0.902641,0.250434,0.826079,1.054278,0.676734,-0.529793,0.784966,0.321156,0.619820,-0.618416,-0.309132,-28.283134,36.909134,-3.827644,,,,,,,
1530639699.928155,-2.080646,-0.937200,0.264708,1.476319,1.125395,1.695818,-0.516744,0.805904,0.288943,0.534521,-0.306117,-0.871158,-26.943022,37.395592,-5.074448,,,,,,,
1530639699.948124,-2.077690,-0.991255,0.261635,0.601606,-0.685873,2.657376,-0.478773,0.836714,0.265857,0.079115,0.864717,0.638715,-25.300997,38.143356,-5.267372,,,,,,,
1530639699.968093,-2.121664,-1.023919,0.224682,-0.076271,-0.236802,1.285186,-0.443091,0.854153,0.272191,-0.687158,1.119343,-0.080372,-24.416704,38.687477,-5.203079,,,,,,,
1530639699.988061,-2.119088,-1.029817,0.219055,0.123912,0.646178,-0.138497,-0.439484,0.857205,0.268418,-0.129913,0.308353,-0.606171,-24.316452,38.420593,-5.623299,,,,,,,
1530639700.008030,-2.083829,-1.024294,0.232678,0.215740,1.425725,-0.488399,-0.452791,0.854348,0.255079,0.302645,-0.231346,-0.564130,-24.146235,38.179596,-6.152054,,,,,,,
1530639700.027999,-2.033969,-1.021106,0.247810,0.352699,1.981121,-0.193823,-0.467376,0.852686,0.233411,0.473541,-0.428385,-0.535077,-23.757423,37.790680,-7.373314,,,,,,,
1530639700.047968,-1.985183,-1.027688,0.258738,0.430756,1.783812,0.398661,-0.473055,0.856106,0.208077,0.469790,-0.374630,-0.566994,-23.313496,37.611053,-8.232719,,,,,,,
1530639700.067937,-1.958658,-1.043974,0.258740,0.256925,0.960168,0.903449,-0.465437,0.864409,0.190158,0.299879,-0.105529,-0.547198,-22.469894,37.696297,-8.876144,,,,,,,
,,,,,,,,,,,,,,,,39.779066,-84.063367,290.881985,-1.000000,-1.000000,1530639700.000059,
1530639700.087906,-1.946832,-1.063856,0.251658,0.343345,1.153936,0.974644,-0.451577,0.874234,0.178293,-0.055580,0.319018,-0.202814,-21.404110,37.961449,-9.581879,,,,,,,
1530639700.107874,-1.878092,-1.084938,0.272129,1.085706,3.118498,0.679605,-0.445088,0.884274,0.141248,-0.344936,0.536304,0.003451,-20.135983,38.061302,-11.400551,,,,,,,
1530639700.127843,-1.781877,-1.096147,0.313947,1.044709,2.548743,0.062537,-0.446879,0.889453,0.095754,-0.285055,0.348691,-0.293126,-19.174387,37.559052,-13.255562,,,,,,,
1530639700.147812,-1.707603,-1.097852,0.354410,0.916987,1.570513,-0.068081,-0.451250,0.890231,0.062122,-0.088393,-0.058169,-0.156940,-18.875462,37.379051,-14.615204,,,,,,,
1530639700.167781,-1.642845,-1.103661,0.393475,0.954288,1.410665,0.377259,-0.449159,0.892862,0.032417,0.040483,-0.289209,-0.013939,-18.039671,36.880653,-15.745056,,,,,,,
1530639700.187750,-1.583010,-1.114964,0.436387,1.034777,0.698485,0.555237,-0.440174,0.897895,0.005377,-0.007000,-0.214637,-0.194326,-17.280914,36.532448,-16.685753,,,,,,,
1530639700.207719,-1.531545,-1.124882,0.487718,1.215837,0.015570,0.487458,-0.430947,0.902217,-0.016924,0.031091,-0.291057,-0.140715,-16.896240,36.155083,-17.342079,,,,,,,
1530639700.227688,-1.472646,-1.132334,0.553305,1.496066,-0.098044,0.461272,-0.422502,0.905405,-0.041602,0.111864,-0.409266,-0.055230,-16.507547,35.631927,-18.263565,,,,,,,
1530639700.247656,-1.410220,-1.137255,0.628006,1.556032,-0.476608,0.446940,-0.414681,0.907484,-0.067166,0.136010,-0.456846,-0.049625,-16.407900,34.843719,-19.290306,,,,,,,
1530639700.267625,-1.355300,-1.140317,0.701233,1.467924,-0.575965,0.451712,-0.407652,0.908766,-0.089233,0.061201,-0.447462,0.076950,-16.295723,34.242096,-20.193176,,,,,,,
1530639700.287594,-1.282561,-1.142186,0.777001,1.565978,0.820254,0.481130,-0.398460,0.909544,-0.118140,-0.179878,-0.226286,0.314429,-15.618778,33.664665,-20.939629,,,,,,,
1530639700.307563,-1.172896,-1.138160,0.858865,1.720281,2.145043,0.301449,-0.386510,0.907864,-0.162458,-0.323390,0.013782,0.262769,-14.297806,32.953232,-22.593971,,,,,,,
1530639700.327532,-1.061025,-1.127008,0.932202,1.574841,2.331748,0.128097,-0.374772,0.903131,-0.209520,-0.310332,0.111166,0.271074,-12.938185,32.033585,-24.395737,,,,,,,
1530639700.347501,-0.948837,-1.113654,0.991292,1.340683,3.491977,0.137274,-0.358731,0.897317,-0.257163,-0.297565,0.168173,0.689125,-10.897017,31.142822,-25.649406,,,,,,,
1530639700.367470,-0.847914,-1.108724,1.019635,-0.015957,3.470834,0.226053,-0.334309,0.895131,-0.294921,-0.325252,0.225567,0.993148,-9.046265,30.809967,-25.940163,,,,,,,
1530639700.387438,-0.848458,-1.128860,0.981627,-1.824599,0.649373,0.130351,-0.320880,0.903925,-0.282763,-0.454862,0.201147,0.457629,-8.124479,31.365417,-25.221169,,,,,,,
1530639700.407407,-0.911847,-1.151858,0.913504,-1.637047,-0.214662,-0.086129,-0.321623,0.913521,-0.249072,-0.545717,0.076972,0.192951,-8.107054,32.131760,-24.268059,,,,,,,
1530639700.427376,-0.956239,-1.160473,0.868656,-0.567838,-0.199241,-0.291589,-0.325918,0.916992,-0.230008,-0.611033,0.057709,0.052381,-8.212517,32.288155,-23.860863,,,,,,,
1530639700.447345,-0.981062,-1.152275,0.853131,0.227748,-0.752495,-0.620900,-0.337763,0.913691,-0.226021,-0.632742,0.186163,0.079781,-8.567453,32.109146,-23.620850,,,,,,,
1530639700.467314,-1.004103,-1.137995,0.848183,0.191258,-1.038263,-0.640230,-0.353853,0.907794,-0.225161,-0.728575,0.263791,0.476092,-9.437931,31.678993,-23.294266,,,,,,,
1530639700.487283,-1.083342,-1.134707,0.799635,-1.575904,-2.338678,-0.716093,-0.373201,0.906410,-0.197842,-0.791640,0.166771,0.806347,-10.560139,32.001732,-22.055756,,,,,,,
1530639700.507252,-1.258052,-1.137211,0.671567,-2.910915,-3.163705,-1.073610,-0.399747,0.907465,-0.129261,-0.516894,0.116460,0.380344,-12.156729,32.755707,-19.788795,,,,,,,
1530639700.527220,-1.471622,-1.121733,0.519831,-3.000328,-4.292273,-1.655108,-0.431988,0.900854,-0.042983,-0.365116,0.268320,-0.370256,-14.457552,33.457878,-17.043037,,,,,,,
1530639700.547189,-1.683854,-1.084719,0.389266,-2.937614,-4.937694,-1.871361,-0.464179,0.884172,0.052704,-0.286370,0.248412,-0.593872,-17.008398,34.024681,-13.569443,,,,,,,
1530639700.567158,-1.861540,-1.037612,0.287997,-2.885349,-3.991420,-1.745481,-0.486947,0.861193,0.145705,-0.287223,0.528929,-0.520751,-18.971880,34.029472,-10.414841,,,,,,,
1530639700.587127,-1.983812,-0.988677,0.206861,-2.819253,-1.692025,-1.420168,-0.503565,0.835299,0.220673,-0.213277,0.834775,-0.391770,-20.014381,34.068329,-7.816795,,,,,,,
1530639700.607096,-2.012750,-0.945423,0.151042,-1.936554,2.556481,-1.234371,-0.529154,0.810744,0.250379,0.002939,1.084718,-0.202665,-20.393166,34.299751,-7.046768,,,,,,,
1530639700.627065,-1.932744,-0.918327,0.133988,-0.404629,5.373053,-0.897392,-0.567812,0.794587,0.214990,0.405489,0.879088,-0.236184,-20.005730,34.166840,-8.410645,,,,,,,
1530639700.647034,-1.880198,-0.903505,0.143332,-0.024781,-0.261129,-0.786248,-0.589474,0.785501,0.188436,0.303631,0.399039,-0.154516,-20.171446,33.967087,-9.220856,,,,,,,
1530639700.667002,-1.935521,-0.887928,0.136658,-0.724699,-3.220081,-0.527737,-0.589513,0.775766,0.225080,0.386923,0.025397,-0.320768,-20.856712,34.017517,-7.659515,,,,,,,
1530639700.686971,-2.020190,-0.876907,0.109806,-1.075494,-3.059475,0.049475,-0.576034,0.768764,0.277825,0.499969,-0.162792,-0.501641,-21.532101,34.477783,-5.651810,,,,,,,
1530639700.706940,-2.102492,-0.873183,0.080031,-0.765748,-3.045352,0.387049,-0.553707,0.766378,0.325689,0.405788,-0.304922,-0.694128,-21.696136,34.568390,-3.855362,,,,,,,
1530639700.726909,-2.180327,-0.876541,0.064589,-0.054402,-3.408538,0.352909,-0.524594,0.768530,0.366282,0.222973,-0.389807,-0.664164,-21.865070,35.073563,-2.522095,,,,,,,
1530639700.746878,-2.239010,-0.880268,0.069919,0.343143,-2.858489,-0.187938,-0.499956,0.770910,0.394641,-0.028975,-0.437185,-0.292880,-22.023619,35.069519,-1.118629,,,,,,,
1530639700.766847,-2.269004,-0.873656,0.089355,0.198840,-1.914045,-0.905536,-0.491790,0.766681,0.412724,-0.077134,-0.496799,-0.261006,-22.539606,34.905045,-0.514282,,,,,,,
1530639700.786816,-2.283163,-0.861916,0.112662,0.242163,-1.492903,-0.827390,-0.492675,0.759091,0.425500,0.287811,-0.557171,-0.567819,-23.141468,34.778244,-0.185951,,,,,,,
1530639700.806784,-2.297290,-0.862150,0.130545,0.591418,-1.295159,-0.066569,-0.486482,0.759244,0.432299,0.516191,-0.529340,-0.728289,-23.267054,34.753761,0.492416,,,,,,,
1530639700.826753,-2.309957,-0.880733,0.139407,0.972978,-0.735238,0.839101,-0.470457,0.771206,0.428846,0.628950,-0.529690,-0.698118,-22.782717,34.885208,0.297417,,,,,,,
1530639700.846722,-2.317627,-0.916306,0.136911,1.242049,-0.004598,1.646491,-0.446731,0.793359,0.413536,0.685455,-0.537240,-0.605842,-21.590504,35.464821,-0.430656,,,,,,,
1530639700.866691,-2.319479,-0.962759,0.124887,1.340314,0.576510,2.055924,-0.418495,0.820771,0.388840,0.661491,-0.518235,-0.365356,-20.316177,36.263840,-1.476715,,,,,,,
1530639700.886660,-2.311695,-1.008174,0.114357,1.313604,1.002533,1.591263,-0.393579,0.845859,0.360023,0.563806,-0.187153,0.728326,-18.901688,36.842400,-2.980568,,,,,,,
1530639700.906629,-2.329154,-1.014085,0.095254,-1.338911,-0.739156,-0.240674,-0.383598,0.848998,0.363394,-1.032967,1.094469,3.008173,-18.454426,37.093369,-2.684799,,,,,,,
1530639700.926598,-2.310242,-0.974757,0.106318,-0.585693,1.301109,-2.384045,-0.414763,0.827565,0.378295,-1.241716,1.541545,0.582368,-19.330719,36.761948,-1.982307,,,,,,,
1530639700.946566,-2.224874,-0.934618,0.173110,0.392131,1.420005,-2.702358,-0.471503,0.804372,0.361482,-0.397637,0.788142,-0.206346,-20.697292,35.819893,-2.801346,,,,,,,
1530639700.966535,-2.180628,-0.906531,0.207516,-0.222883,0.521401,-1.074799,-0.505356,0.787370,0.353077,0.247071,-0.119356,0.057491,-21.843044,35.283592,-3.027573,,,,,,,
1530639700.986504,-2.165670,-0.901752,0.210122,0.160377,0.894817,0.141645,-0.513692,0.784414,0.347584,0.627385,-0.591376,0.046749,-21.567802,35.357071,-3.781998,,,,,,,
1530639701.006473,-2.133442,-0.920800,0.218368,1.060340,1.335634,1.005621,-0.511892,0.796086,0.322821,0.604132,-0.446767,-0.666357,-20.652897,35.989212,-4.900742,,,,,,,
1530639701.026442,-2.108758,-0.965071,0.226305,1.368333,0.547757,2.221579,-0.488939,0.822089,0.291732,0.356233,0.194222,-0.643538,-19.198406,36.619926,-5.600555,,,,,,,
1530639701.046411,-2.139817,-1.003085,0.197540,-0.204828,-0.468718,1.624090,-0.452977,0.843134,0.289718,-0.895900,1.336813,0.709687,-18.190231,37.254333,-4.948494,,,,,,,
1530639701.066380,-2.164114,-1.013248,0.173413,-0.180709,0.006109,0.325421,-0.438678,0.848555,0.295832,-0.334714,0.489962,-0.635462,-18.090328,37.610046,-4.784645,,,,,,,
,,,,,,,,,,,,,,,,39.779069,-84.063358,290.924099,-1.000000,-1.000000,1530639701.000058,
1530639701.086348,-2.152816,-1.011951,0.175698,0.133066,0.755027,-0.235140,-0.442910,0.847868,0.291461,0.197702,-0.109709,-0.574497,-18.120991,37.625443,-5.090553,,,,,,,
1530639701.106317,-2.115939,-1.011182,0.189838,0.379941,1.539450,-0.180066,-0.453913,0.847460,0.275272,0.406794,-0.358950,-0.558475,-17.893822,37.558907,-5.859276,,,,,,,
1530639701.126286,-2.066250,-1.016594,0.204924,0.520461,1.922066,0.196686,-0.462983,0.850320,0.250203,0.460557,-0.362512,-0.563115,-17.302637,37.562706,-6.966728,,,,,,,
1530639701.146255,-2.024718,-1.029313,0.213082,0.418539,1.557110,0.616638,-0.463214,0.856945,0.226003,0.348758,-0.185772,-0.541921,-16.345001,37.821503,-7.609314,,,,,,,
