timestamp(unix),attitude_roll(radians),attitude_pitch(radians),attitude_yaw(radians),rotation_rate_x(radians/s),rotation_rate_y(radians/s),rotation_rate_z(radians/s),gravity_x(G),gravity_y(G),gravity_z(G),user_acc_x(G),user_acc_y(G),user_acc_z(G),magnetic_field_x(microteslas),magnetic_field_y(microteslas),magnetic_field_z(microteslas),latitude(degree),longitude(degree),altitude(meter),speed(m/s),course(degree),timestamp(unix),User Mark
,,,,,,,,,,,,,,,,39.779645,-84.063313,291.724087,-1.000000,-1.000000,1530638489.004530,
1530638496.336584,0.150801,0.400300,-1.038421,0.311586,-0.050125,0.134308,0.138353,-0.389694,-0.910492,0.007658,-0.015457,-0.069519,17.908457,-2.063347,-45.868713,,,,,,,
1530638496.356553,0.146151,0.405449,-1.037028,0.126352,-0.271666,0.093151,0.133824,-0.394432,-0.909128,-0.000386,-0.044121,0.018305,17.722925,-2.296120,-45.955597,,,,,,,
,,,,,,,,,,,,,,,,39.779645,-84.063313,291.724087,-1.000000,-1.000000,1530638496.318356,
1530638496.376523,0.139316,0.402793,-1.034179,-0.303820,-0.303734,0.121315,0.127753,-0.391989,-0.911056,0.000696,-0.066293,0.075698,17.499640,-2.169098,-45.798386,,,,,,,
1530638496.396492,0.131710,0.395781,-1.029655,-0.375574,-0.269861,0.175091,0.121177,-0.385529,-0.914704,0.012825,-0.059555,-0.010543,17.290136,-2.090508,-45.980316,,,,,,,
1530638496.416462,0.126447,0.391792,-1.024241,-0.120448,-0.068527,0.261779,0.116554,-0.381846,-0.916847,0.040184,-0.057318,-0.051277,17.131128,-1.818863,-45.926773,,,,,,,
,,,,,,,,,,,,,,,,39.779645,-84.063313,291.724091,-1.000000,-1.000000,1530638496.398281,
,,,,,,,,,,,,,,,,39.779645,-84.063313,291.724091,-1.000000,-1.000000,1530638496.405973,
1530638496.436431,0.122500,0.395119,-1.018642,0.272864,-0.046520,0.253378,0.112779,-0.384918,-0.916034,-0.000200,-0.029480,-0.066205,17.173120,-2.091576,-46.086121,,,,,,,
1530638496.456400,0.121634,0.402227,-1.016206,0.302530,0.010926,0.086168,0.111650,-0.391469,-0.913393,-0.039888,0.019750,0.033815,16.936384,-2.119507,-45.520523,,,,,,,
,,,,,,,,,,,,,,,,39.779645,-84.063313,291.724091,-1.000000,-1.000000,1530638496.446938,
1530638496.476370,0.123860,0.404018,-1.016764,-0.037212,0.100278,-0.047829,0.113597,-0.393116,-0.912444,0.000813,-0.019298,0.151931,17.083643,-2.195503,-45.922745,,,,,,,
,,,,,,,,,,,,,,,,39.779645,-84.063313,291.724091,-1.000000,-1.000000,1530638496.453141,
1530638496.496339,0.123573,0.400199,-1.016564,-0.288186,-0.061131,-0.001713,0.113519,-0.389602,-0.913960,0.006796,-0.062485,0.100575,17.092726,-2.415443,-46.200134,,,,,,,
1530638496.516309,0.121007,0.392193,-1.015582,-0.442265,-0.167012,-0.008130,0.111547,-0.382215,-0.917316,0.014247,-0.036181,0.064060,17.013906,-2.062790,-46.259888,,,,,,,
1530638496.536278,0.116271,0.384833,-1.014361,-0.290455,-0.214749,0.023459,0.107524,-0.375404,-0.920603,0.029057,-0.024315,-0.036245,16.870020,-1.831932,-46.125916,,,,,,,
1530638496.556247,0.112190,0.382944,-1.013235,0.003999,-0.188531,0.049562,0.103846,-0.373653,-0.921737,0.041464,0.000865,-0.054719,16.765280,-1.620789,-45.844772,,,,,,,
1530638496.576217,0.107196,0.385248,-1.011530,0.112536,-0.237592,0.115037,0.099149,-0.375789,-0.921386,0.056872,0.000408,-0.002030,16.586367,-1.646164,-46.125488,,,,,,,
1530638496.596186,0.100341,0.387030,-1.007674,0.026620,-0.311262,0.236390,0.092763,-0.377440,-0.921376,0.078913,0.006804,0.052083,16.280676,-1.645790,-46.375473,,,,,,,
1530638496.616155,0.092142,0.386507,-1.002293,-0.105253,-0.323148,0.205391,0.085224,-0.376956,-0.922302,-0.026935,0.009967,0.002960,16.093866,-2.076050,-46.723587,,,,,,,
1530638496.636125,0.085267,0.382793,-0.999540,-0.241550,-0.253733,0.071282,0.079000,-0.373513,-0.924255,-0.041677,-0.057365,0.017135,15.822123,-1.871155,-46.578003,,,,,,,
1530638496.656094,0.080967,0.377963,-0.997412,-0.222926,-0.188810,0.100516,0.075170,-0.369028,-0.926373,0.029566,-0.034750,-0.000797,15.630499,-1.596611,-46.800034,,,,,,,
1530638496.676064,0.076526,0.376016,-0.994378,-0.039771,-0.154950,0.144025,0.071110,-0.367218,-0.927413,0.004406,-0.018890,-0.065828,15.443274,-1.258797,-46.522079,,,,,,,
1530638496.696033,0.072629,0.377015,-0.991791,0.078006,-0.161334,0.103909,0.067469,-0.368147,-0.927316,-0.001276,0.010496,-0.059561,15.299589,-1.337143,-46.698486,,,,,,,
1530638496.716002,0.068287,0.379214,-0.989504,0.096728,-0.165889,0.123103,0.063386,-0.370190,-0.926791,0.023711,0.012219,-0.026243,15.171591,-1.482109,-46.927689,,,,,,,
1530638496.735972,0.064405,0.381284,-0.986780,0.102854,-0.170447,0.143507,0.059738,-0.372112,-0.926263,0.039993,-0.008167,-0.013831,14.972441,-1.441772,-47.101257,,,,,,,
1530638496.755942,0.060517,0.384198,-0.983168,0.139178,-0.078037,0.187787,0.056071,-0.374816,-0.925402,-0.006770,-0.021806,-0.019499,14.846731,-1.696854,-46.986237,,,,,,,
1530638496.775912,0.059004,0.386830,-0.979590,0.130019,0.001699,0.151598,0.054612,-0.377255,-0.924498,-0.018708,-0.013355,0.026671,14.863222,-1.930595,-47.016800,,,,,,,
1530638496.795881,0.058002,0.390314,-0.976683,0.174221,0.017276,0.131789,0.053609,-0.380479,-0.923234,-0.034490,-0.011275,0.002839,14.902178,-2.157288,-46.993637,,,,,,,
,,,,,,,,,,,,,,,,39.779335,-84.063592,291.952026,-1.000000,-1.000000,1530638496.753240,
1530638496.815850,0.057197,0.393086,-0.974589,0.109543,-0.032098,0.091254,0.052806,-0.383041,-0.922221,-0.016093,0.020675,0.002604,14.929152,-2.382561,-46.804779,,,,,,,
1530638496.835819,0.055484,0.395297,-0.972709,0.117950,-0.056379,0.089974,0.051179,-0.385082,-0.921462,0.012969,0.019954,-0.028520,14.903631,-2.398979,-47.293961,,,,,,,
1530638496.855788,0.053116,0.398103,-0.970826,0.132643,-0.107161,0.089569,0.048939,-0.387670,-0.920498,0.020550,0.023931,-0.039020,14.752069,-2.600006,-47.210968,,,,,,,
1530638496.875757,0.049843,0.400431,-0.968653,0.098927,-0.122740,0.109264,0.045881,-0.389815,-0.919749,0.017610,0.015685,-0.011174,14.629011,-2.640427,-47.042831,,,,,,,
1530638496.895727,0.046606,0.402707,-0.966392,0.125222,-0.103915,0.099371,0.042862,-0.391911,-0.919004,-0.002899,0.023106,-0.015505,14.582735,-2.604256,-47.256851,,,,,,,
1530638496.915697,0.045217,0.405932,-0.964684,0.182127,0.008920,0.062638,0.041528,-0.394875,-0.917795,-0.003533,0.034783,0.010187,14.451982,-2.793320,-47.281357,,,,,,,
1530638496.935667,0.044528,0.410385,-0.963242,0.219648,-0.001226,0.091311,0.040817,-0.398963,-0.916058,0.005188,0.025717,-0.000644,14.498861,-3.029411,-47.086700,,,,,,,
1530638496.955636,0.042238,0.413738,-0.960993,0.131375,-0.109555,0.116533,0.038663,-0.402035,-0.914807,-0.003613,0.022427,-0.001696,14.480879,-3.397621,-47.322586,,,,,,,
1530638496.975605,0.039274,0.415473,-0.958701,0.071753,-0.098367,0.097812,0.035923,-0.403623,-0.914220,-0.011448,0.038389,0.021825,14.184416,-3.279823,-47.279373,,,,,,,
1530638496.995574,0.036260,0.417096,-0.956550,0.094828,-0.112723,0.097495,0.033144,-0.405107,-0.913668,-0.017290,0.029588,-0.005262,14.254797,-3.251221,-47.042404,,,,,,,
1530638497.015543,0.033815,0.419197,-0.954862,0.109728,-0.076104,0.069468,0.030881,-0.407027,-0.912893,-0.040189,0.023895,0.015188,14.114386,-3.537346,-47.108566,,,,,,,
1530638497.035512,0.031818,0.421409,-0.953151,0.106415,-0.068518,0.090034,0.029030,-0.409046,-0.912051,-0.009773,0.015812,0.019778,14.150328,-3.676407,-47.254242,,,,,,,
1530638497.056731,0.028984,0.423415,-0.950829,0.082269,-0.111593,0.094398,0.026421,-0.410876,-0.911308,-0.001976,0.009204,-0.003334,14.077879,-3.779655,-47.460892,,,,,,,
1530638497.076699,0.025884,0.424182,-0.948830,0.005781,-0.113722,0.086576,0.023588,-0.411575,-0.911070,-0.023038,0.006867,0.028349,13.806253,-3.691162,-47.577896,,,,,,,
1530638497.096669,0.023241,0.423598,-0.947121,-0.037094,-0.079379,0.071021,0.021185,-0.411044,-0.911369,-0.026556,0.007677,0.019691,13.690672,-3.591599,-47.329239,,,,,,,
1530638497.116638,0.021371,0.423012,-0.945696,-0.015858,-0.065915,0.038506,0.019485,-0.410509,-0.911648,-0.017471,0.013903,-0.014011,13.811651,-3.715332,-47.355743,,,,,,,
1530638497.136607,0.020255,0.423384,-0.945225,0.017874,-0.023818,0.015695,0.018465,-0.410848,-0.911517,-0.031161,0.022451,-0.016660,13.848330,-3.738701,-47.308411,,,,,,,
1530638497.156578,0.019967,0.423476,-0.944120,0.003817,0.028820,0.066794,0.018202,-0.410932,-0.911484,-0.000395,0.005521,-0.003998,13.861616,-3.756859,-47.434464,,,,,,,
1530638497.176547,0.020163,0.424204,-0.942263,0.050806,0.065073,0.090191,0.018374,-0.411596,-0.911181,0.010465,0.013845,-0.007581,13.899446,-4.067085,-47.358276,,,,,,,
1530638497.196516,0.020688,0.425121,-0.940193,0.036113,0.070589,0.091451,0.018845,-0.412431,-0.910794,0.014083,0.014100,0.014645,13.884554,-3.926926,-47.313751,,,,,,,
1530638497.216486,0.021361,0.425539,-0.937717,0.007684,0.110246,0.104892,0.019454,-0.412811,-0.910608,0.005433,-0.000671,0.030573,13.959791,-4.091202,-47.426865,,,,,,,
1530638497.236454,0.022594,0.425889,-0.934761,0.019760,0.097668,0.167253,0.020574,-0.413130,-0.910439,0.038416,-0.011369,0.049294,13.982241,-4.131508,-47.306458,,,,,,,
1530638497.256424,0.022880,0.425669,-0.930323,-0.026752,0.127178,0.212112,0.020836,-0.412931,-0.910524,-0.013329,-0.003573,0.053606,14.139349,-4.133217,-47.287720,,,,,,,
1530638497.276393,0.023521,0.425639,-0.925483,0.033988,0.127088,0.222250,0.021420,-0.412903,-0.910523,0.014392,0.002808,0.040802,14.035471,-4.151833,-47.082626,,,,,,,
1530638497.296362,0.023200,0.431393,-0.918886,0.464751,0.117021,0.380468,0.021073,-0.418136,-0.908140,0.105346,-0.001419,-0.001773,14.294306,-4.488602,-47.146255,,,,,,,
1530638497.316333,0.025325,0.445286,-0.908672,0.774077,0.499132,0.503039,0.022853,-0.430716,-0.902198,0.001317,-0.028054,0.028510,14.642736,-5.256882,-47.115692,,,,,,,
1530638497.336302,0.040294,0.461565,-0.902163,0.826891,1.108475,0.184017,0.036068,-0.445350,-0.894629,-0.020138,0.067817,0.049506,15.252321,-6.033501,-46.696472,,,,,,,
1530638497.356272,0.065660,0.478162,-0.900435,0.793628,1.368201,0.141403,0.058254,-0.460148,-0.885929,-0.009975,0.034489,-0.022885,16.434587,-6.689369,-46.387665,,,,,,,
1530638497.376240,0.088694,0.491341,-0.895284,0.531900,1.154891,0.350241,0.078099,-0.471809,-0.878235,-0.011952,-0.066216,-0.059098,17.454790,-7.399216,-45.818436,,,,,,,
1530638497.396209,0.101099,0.499449,-0.886612,0.285995,0.604683,0.427869,0.088599,-0.478942,-0.873364,0.005151,-0.032609,-0.100315,18.106787,-7.998009,-45.495300,,,,,,,
1530638497.416179,0.104013,0.503429,-0.879201,0.091282,0.197409,0.267274,0.090944,-0.482432,-0.871199,-0.002199,0.044017,-0.080644,18.355177,-8.159081,-45.600769,,,,,,,
1530638497.436148,0.103876,0.503061,-0.876272,-0.101961,0.001370,0.050531,0.090843,-0.482110,-0.871388,-0.010597,0.052575,-0.055355,18.277132,-7.946480,-45.467239,,,,,,,
1530638497.456118,0.101289,0.500059,-0.874890,-0.172333,-0.151067,0.067800,0.088735,-0.479478,-0.873056,0.009928,-0.019149,-0.090582,18.372828,-7.980072,-45.347427,,,,,,,
1530638497.476088,0.097111,0.496959,-0.871545,-0.153177,-0.087688,0.160656,0.085230,-0.476754,-0.874894,-0.019327,-0.046546,-0.048522,18.276674,-7.914909,-45.608658,,,,,,,
1530638497.496057,0.094892,0.495445,-0.867339,-0.049542,0.015908,0.180544,0.083357,-0.475423,-0.875799,-0.030775,-0.021510,-0.041560,18.191790,-8.034286,-45.607239,,,,,,,
1530638497.516026,0.092986,0.496257,-0.863149,0.054254,-0.010640,0.183620,0.081651,-0.476137,-0.875571,-0.021257,0.001742,-0.074212,18.155966,-8.183571,-45.825363,,,,,,,
1530638497.535995,0.090574,0.497949,-0.859760,0.068279,-0.063310,0.136841,0.079466,-0.477624,-0.874962,-0.032179,0.014383,-0.050163,18.004511,-7.828987,-45.713989,,,,,,,
1530638497.555964,0.086777,0.499176,-0.856845,0.036842,-0.161548,0.136706,0.076092,-0.478702,-0.874673,-0.025509,0.002888,-0.042166,17.847097,-8.027199,-45.755753,,,,,,,
1530638497.575934,0.080899,0.499653,-0.853417,-0.003178,-0.233446,0.159433,0.070932,-0.479121,-0.874878,-0.028939,-0.003911,-0.035324,17.748373,-8.190033,-45.672897,,,,,,,
1530638497.595903,0.074097,0.499361,-0.849576,-0.036805,-0.255574,0.168311,0.064990,-0.478865,-0.875479,-0.025851,-0.000108,-0.016122,17.455587,-8.102249,-45.832489,,,,,,,
1530638497.615873,0.067314,0.498838,-0.845972,-0.030310,-0.246574,0.143483,0.059067,-0.478406,-0.876150,-0.030609,0.016553,-0.018427,17.308428,-8.173065,-45.742203,,,,,,,
1530638497.635843,0.061409,0.498708,-0.843232,-0.002740,-0.224242,0.105549,0.053895,-0.478291,-0.876545,-0.031282,0.027928,-0.014049,16.999353,-8.123787,-45.643875,,,,,,,
1530638497.655812,0.055406,0.498864,-0.840889,0.001481,-0.262864,0.103159,0.048629,-0.478428,-0.876779,-0.024764,0.017872,-0.016746,16.894487,-8.009590,-45.935989,,,,,,,
1530638497.675782,0.048656,0.498909,-0.838732,-0.003588,-0.294734,0.082567,0.042708,-0.478467,-0.877066,-0.025954,0.020658,-0.015894,16.620890,-8.211601,-46.137695,,,,,,,
1530638497.695751,0.042650,0.498745,-0.837364,-0.007515,-0.242611,0.048347,0.037443,-0.478324,-0.877384,-0.016920,0.023276,0.002140,16.490824,-8.245338,-46.282883,,,,,,,
1530638497.715720,0.037474,0.498971,-0.835905,0.021608,-0.222951,0.077252,0.032897,-0.478522,-0.877459,0.012895,0.013617,-0.014189,16.197729,-8.372681,-46.291702,,,,,,,
1530638497.735690,0.032010,0.499484,-0.833886,0.020498,-0.225210,0.084801,0.028094,-0.478973,-0.877379,0.002454,0.010528,-0.010819,16.039698,-8.356758,-46.420944,,,,,,,
1530638497.755659,0.026900,0.499412,-0.832094,-0.021317,-0.196380,0.068132,0.023612,-0.478909,-0.877546,-0.018805,0.016644,0.014738,15.913626,-8.528976,-46.218079,,,,,,,
1530638497.775629,0.022780,0.498615,-0.830588,-0.042292,-0.159939,0.067454,0.020005,-0.478210,-0.878017,-0.014817,0.011123,0.015575,15.799498,-8.405220,-46.461319,,,,,,,
1530638497.795598,0.018844,0.497849,-0.828761,-0.034045,-0.157852,0.084627,0.016556,-0.477537,-0.878455,-0.006928,0.007002,-0.006967,15.583460,-8.108116,-46.626587,,,,,,,
1530638497.815567,0.014956,0.497607,-0.827090,-0.000257,-0.159874,0.056215,0.013142,-0.477324,-0.878628,-0.008991,0.027678,-0.014179,15.485174,-8.393661,-46.601013,,,,,,,
1530638497.835537,0.011533,0.497873,-0.826770,0.020191,-0.159440,-0.007628,0.010133,-0.477558,-0.878541,-0.008912,0.032002,-0.008178,15.317434,-8.494392,-46.668228,,,,,,,
1530638497.855506,0.008885,0.498155,-0.827142,0.006644,-0.127341,-0.019198,0.007805,-0.477805,-0.878430,-0.013268,0.009101,0.007932,15.109659,-8.567047,-46.590134,,,,,,,
1530638497.875476,0.007300,0.497874,-0.827309,-0.022880,-0.050182,-0.001253,0.006414,-0.477559,-0.878576,-0.023885,-0.002269,0.022969,15.059431,-8.388947,-46.594040,,,,,,,
1530638497.895445,0.006857,0.497596,-0.826873,-0.000057,0.001493,0.027874,0.006026,-0.477314,-0.878711,-0.001158,0.001011,0.002613,15.070250,-8.444458,-46.880524,,,,,,,
1530638497.915414,0.006645,0.498195,-0.825973,0.045980,0.006912,0.040348,0.005837,-0.477840,-0.878427,0.007743,0.008587,-0.012977,15.190477,-8.635544,-46.661438,,,,,,,
1530638497.935384,0.005684,0.498903,-0.825099,0.020887,-0.048224,0.032804,0.004991,-0.478463,-0.878093,0.002470,0.007668,-0.003438,14.974016,-8.388359,-46.786591,,,,,,,
1530638497.955353,0.003915,0.498605,-0.824360,-0.035705,-0.077984,0.028947,0.003438,-0.478201,-0.878243,-0.006002,0.002783,0.003365,14.895914,-8.252602,-46.670319,,,,,,,
1530638497.975322,0.002275,0.497623,-0.823682,-0.049326,-0.050369,0.027073,0.001999,-0.477338,-0.878717,-0.009202,0.001767,0.009744,14.947504,-8.422836,-46.632965,,,,,,,
1530638497.995292,0.001545,0.497073,-0.822995,-0.008454,-0.005135,0.029009,0.001358,-0.476855,-0.878980,-0.007416,0.003726,0.000486,14.972155,-8.418243,-46.498199,,,,,,,
1530638498.015261,0.001179,0.497383,-0.822203,0.027175,-0.007374,0.031850,0.001036,-0.477127,-0.878833,-0.004607,0.011231,-0.010083,14.885878,-8.408020,-46.581085,,,,,,,
1530638498.035231,0.000486,0.497927,-0.821841,0.023209,-0.042510,0.004761,0.000427,-0.477605,-0.878574,-0.009338,0.013982,-0.004788,14.729513,-8.540550,-46.691193,,,,,,,
1530638498.055200,-0.000630,0.498090,-0.821806,-0.003990,-0.063426,-0.002596,-0.000553,-0.477748,-0.878496,-0.006359,-0.000218,0.010790,14.725908,-8.559624,-46.854202,,,,,,,
1530638498.075169,-0.002102,0.497365,-0.821501,-0.059785,-0.060279,0.023900,-0.001848,-0.477112,-0.878840,-0.006438,-0.015473,0.020549,14.726927,-8.578850,-46.616394,,,,,,,
1530638498.095139,-0.003304,0.495517,-0.820152,-0.101122,-0.010952,0.076345,-0.002907,-0.475486,-0.879718,0.001671,-0.020516,0.023211,14.648832,-8.387573,-46.666794,,,,,,,
1530638498.115108,-0.004487,0.493715,-0.818107,-0.076030,-0.015441,0.085762,-0.003951,-0.473901,-0.880569,-0.008409,-0.004279,-0.015107,14.585619,-8.290199,-46.881287,,,,,,,
1530638498.135077,-0.005538,0.492696,-0.816648,-0.032713,-0.022910,0.046436,-0.004880,-0.473003,-0.881047,-0.011325,0.018459,-0.028057,14.528826,-8.072952,-46.746735,,,,,,,
1530638498.155047,-0.006473,0.492450,-0.816215,-0.006152,-0.049127,0.005046,-0.005703,-0.472786,-0.881158,-0.002964,0.013252,-0.023276,14.548662,-8.181992,-46.918121,,,,,,,
1530638498.175016,-0.007890,0.492280,-0.815903,-0.021990,-0.077921,0.019098,-0.006953,-0.472636,-0.881230,0.004649,-0.006673,-0.002102,14.596582,-8.577126,-47.043274,,,,,,,
1530638498.194986,-0.009751,0.491234,-0.815189,-0.077711,-0.066979,0.035919,-0.008597,-0.471715,-0.881709,-0.003350,-0.020030,0.030772,14.604635,-8.184578,-47.132507,,,,,,,
1530638498.214955,-0.010900,0.488975,-0.814109,-0.118738,-0.012976,0.050640,-0.009622,-0.469722,-0.882762,-0.006109,-0.016118,0.026850,14.390936,-8.144630,-46.981277,,,,,,,
1530638498.234924,-0.011493,0.487037,-0.812866,-0.078914,0.002445,0.053529,-0.010156,-0.468010,-0.883664,0.007089,-0.007240,-0.019198,14.380796,-8.012306,-46.898010,,,,,,,
1530638498.254894,-0.012310,0.485856,-0.811677,-0.053711,-0.029551,0.049868,-0.010886,-0.466965,-0.884208,0.008612,-0.000152,-0.027947,14.512259,-8.110878,-46.937271,,,,,,,
1530638498.274863,-0.013540,0.484824,-0.810826,-0.052500,-0.047079,0.030356,-0.011980,-0.466053,-0.884675,-0.002516,0.003345,-0.024016,14.397337,-8.289314,-46.816833,,,,,,,
1530638498.294833,-0.015105,0.484011,-0.810341,-0.038737,-0.078990,0.014953,-0.013369,-0.465333,-0.885034,-0.000196,0.000199,-0.028540,14.392679,-8.188042,-46.923798,,,,,,,
1530638498.314802,-0.016545,0.483362,-0.810155,-0.029181,-0.055707,-0.000135,-0.014649,-0.464759,-0.885316,-0.008468,0.002326,-0.013869,14.439276,-8.165871,-46.872360,,,,,,,
1530638498.334771,-0.016978,0.483121,-0.810390,0.002423,-0.014745,-0.018608,-0.015034,-0.464545,-0.885422,-0.000942,0.003806,-0.005707,14.224546,-7.962273,-46.693420,,,,,,,
1530638498.354741,-0.016716,0.483575,-0.810596,0.032723,0.018274,-0.005829,-0.014799,-0.464948,-0.885214,0.019346,-0.006824,-0.014566,14.235254,-7.887993,-46.861877,,,,,,,
1530638498.374710,-0.016372,0.484084,-0.810318,0.018884,0.024730,0.019153,-0.014490,-0.465398,-0.884983,0.014704,-0.011455,-0.005749,14.351793,-8.024506,-47.207047,,,,,,,
1530638498.394680,-0.016365,0.484266,-0.809673,0.004180,0.010361,0.022478,-0.014483,-0.465559,-0.884898,0.012667,-0.008501,-0.011251,14.297964,-7.961525,-47.259964,,,,,,,
1530638498.414649,-0.016430,0.483970,-0.809189,-0.022020,0.007071,0.020585,-0.014542,-0.465297,-0.885035,0.012467,-0.004949,-0.000158,14.296080,-8.112885,-47.108658,,,,,,,
1530638498.434618,-0.016625,0.483591,-0.808557,-0.008492,0.001459,0.033354,-0.014718,-0.464962,-0.885208,0.013528,-0.008244,-0.010590,14.308054,-7.849182,-47.091797,,,,,,,
1530638498.454588,-0.016917,0.483911,-0.807684,0.027175,0.005872,0.031919,-0.014974,-0.465244,-0.885055,0.002843,-0.000332,-0.006989,14.229929,-8.044884,-47.063599,,,,,,,
1530638498.474557,-0.016579,0.484522,-0.807173,0.032534,0.037988,0.016918,-0.014670,-0.465785,-0.884776,-0.013788,0.005641,0.015223,14.278517,-8.055885,-47.033905,,,,,,,
1530638498.494526,-0.016253,0.485095,-0.806712,0.022042,0.014802,0.017994,-0.014377,-0.466292,-0.884513,0.003009,-0.004136,0.006233,14.409849,-8.103432,-47.099167,,,,,,,
1530638498.514496,-0.016171,0.484954,-0.806243,-0.027291,0.013673,0.023910,-0.014306,-0.466168,-0.884580,0.003976,-0.010242,0.022886,14.347040,-7.877686,-47.042068,,,,,,,
1530638498.534465,-0.016372,0.484085,-0.805538,-0.045216,0.000349,0.035897,-0.014491,-0.465399,-0.884982,0.001566,-0.008402,0.006640,14.268419,-7.929489,-47.158264,,,,,,,
1530638498.554435,-0.016539,0.483602,-0.804685,-0.003254,0.023535,0.033403,-0.014642,-0.464971,-0.885204,0.004663,0.001607,-0.009022,14.390024,-8.028587,-46.993958,,,,,,,
1530638498.574404,-0.016054,0.484244,-0.804117,0.048261,0.041296,0.016760,-0.014208,-0.465539,-0.884913,0.005236,0.000589,-0.015066,14.333403,-8.107399,-47.174072,,,,,,,
1530638498.594373,-0.015211,0.485170,-0.803576,0.037701,0.056693,0.025577,-0.013455,-0.466359,-0.884493,0.000928,-0.010738,-0.002729,14.497541,-8.223335,-47.126846,,,,,,,
1530638498.614343,-0.014756,0.485512,-0.802831,0.002007,0.026860,0.031208,-0.013050,-0.466661,-0.884339,-0.000271,-0.015242,0.001527,14.400312,-8.213455,-46.941956,,,,,,,
1530638498.634312,-0.014644,0.485092,-0.802311,-0.035562,0.018196,0.008916,-0.012954,-0.466290,-0.884537,-0.011536,-0.002476,0.017410,14.510981,-8.180962,-46.910950,,,,,,,
1530638498.654282,-0.013731,0.484221,-0.802566,-0.042656,0.053737,-0.022113,-0.012152,-0.465519,-0.884954,-0.024972,0.004536,0.029317,14.431002,-8.159889,-47.123383,,,,,,,
1530638498.674251,-0.012340,0.484002,-0.802774,0.012753,0.051366,-0.001144,-0.010922,-0.465325,-0.885072,0.007397,-0.001426,-0.012755,14.616312,-8.186470,-47.114609,,,,,,,
1530638498.694220,-0.011990,0.484734,-0.802491,0.035749,0.011546,0.009208,-0.010609,-0.465973,-0.884735,0.010837,-0.004044,-0.023331,14.643438,-8.122063,-47.037399,,,,,,,
1530638498.714190,-0.012748,0.484985,-0.802416,-0.006042,-0.074426,-0.008022,-0.011278,-0.466195,-0.884610,-0.002501,-0.001548,-0.019641,14.493067,-8.304382,-47.047897,,,,,,,
1530638498.734159,-0.014430,0.484152,-0.802881,-0.061421,-0.086383,-0.032296,-0.012771,-0.465458,-0.884978,-0.014893,0.000095,-0.000398,14.562929,-8.357582,-47.078445,,,,,,,
1530638498.754128,-0.014794,0.482975,-0.803786,-0.043514,-0.012346,-0.043994,-0.013101,-0.464416,-0.885520,-0.026419,-0.001831,0.017157,14.565199,-8.176666,-46.967468,,,,,,,
1530638498.774098,-0.013593,0.483024,-0.804802,0.030932,0.056076,-0.044456,-0.012038,-0.464459,-0.885512,-0.027132,-0.004306,0.008666,14.518892,-8.275444,-47.128098,,,,,,,
1530638498.794067,-0.011714,0.484059,-0.805528,0.056010,0.072553,-0.033858,-0.010368,-0.465376,-0.885052,-0.011986,-0.005633,-0.000690,14.594580,-8.175346,-47.075134,,,,,,,
1530638498.814037,-0.010922,0.484781,-0.806321,0.016240,-0.013488,-0.041398,-0.009663,-0.466014,-0.884724,-0.007717,-0.004079,-0.016643,14.533716,-7.969345,-47.099030,,,,,,,
1530638498.834006,-0.011096,0.484366,-0.807281,-0.038247,-0.035514,-0.046319,-0.009820,-0.465647,-0.884916,-0.006736,-0.001226,-0.007082,14.725592,-8.213249,-47.116943,,,,,,,
1530638498.853975,-0.011419,0.483453,-0.807880,-0.044751,-0.024653,-0.020308,-0.010110,-0.464839,-0.885337,-0.006507,-0.009907,0.001227,14.629992,-7.895737,-47.102097,,,,,,,
1530638498.873945,-0.011668,0.482563,-0.808027,-0.045933,-0.017037,-0.004081,-0.010335,-0.464051,-0.885748,-0.016017,-0.005447,0.013739,14.526209,-7.830452,-46.885788,,,,,,,
1530638498.893914,-0.012468,0.481526,-0.808195,-0.058401,-0.075449,-0.017177,-0.011050,-0.463132,-0.886220,-0.024213,0.009137,0.002004,14.544710,-7.828636,-47.061325,,,,,,,
1530638498.913883,-0.014881,0.479819,-0.809153,-0.104168,-0.176697,-0.060314,-0.013200,-0.461619,-0.886980,-0.029204,0.022074,-0.014296,14.267195,-7.629723,-47.075226,,,,,,,
1530638498.933853,-0.018018,0.477192,-0.811051,-0.150032,-0.208467,-0.093411,-0.016004,-0.459287,-0.888143,-0.031207,0.026685,-0.005823,14.170641,-7.545151,-47.134491,,,,,,,
1530638498.953822,-0.020173,0.474013,-0.813232,-0.165777,-0.121249,-0.093903,-0.017948,-0.456460,-0.889562,-0.035488,0.018792,0.014532,13.928141,-7.269264,-47.287247,,,,,,,
1530638498.973792,-0.020268,0.471157,-0.815395,-0.123827,-0.017472,-0.097088,-0.018058,-0.453918,-0.890860,-0.051522,0.024474,0.013983,13.853514,-7.131447,-46.932526,,,,,,,
1530638498.993761,-0.018534,0.469575,-0.817718,-0.054476,0.059908,-0.115784,-0.016527,-0.452507,-0.891607,-0.064085,0.041054,0.005377,14.091249,-7.148682,-47.142715,,,,,,,
1530638499.013730,-0.015847,0.469307,-0.820409,0.005363,0.057738,-0.123987,-0.014133,-0.452268,-0.891770,-0.038784,0.038298,-0.013992,14.100191,-7.133827,-47.029861,,,,,,,
1530638499.033700,-0.014760,0.468927,-0.823453,-0.054186,-0.055775,-0.148704,-0.013166,-0.451929,-0.891956,-0.015429,0.017633,0.000431,14.076200,-6.927216,-47.054016,,,,,,,
1530638499.053669,-0.015305,0.465837,-0.826893,-0.222950,-0.117490,-0.155830,-0.013673,-0.449171,-0.893341,-0.028075,0.008390,0.036072,14.083471,-6.887939,-47.175964,,,,,,,
1530638499.073639,-0.016396,0.459778,-0.830375,-0.333066,-0.132916,-0.154731,-0.014693,-0.443750,-0.896030,-0.018297,0.008142,0.028888,13.914759,-6.476311,-46.959229,,,,,,,
1530638499.093608,-0.017329,0.453281,-0.834002,-0.305734,-0.105266,-0.163516,-0.015578,-0.437918,-0.898880,0.016204,-0.000696,0.003204,13.875395,-6.458572,-47.292526,,,,,,,
1530638499.113577,-0.016453,0.449226,-0.837181,-0.134049,0.018086,-0.130238,-0.014820,-0.434268,-0.900662,0.066334,-0.017011,-0.023945,13.875143,-6.134430,-47.224304,,,,,,,
1530638499.133547,-0.014478,0.448604,-0.840020,0.011757,0.041260,-0.135996,-0.013045,-0.433708,-0.900959,0.058821,-0.028160,-0.034832,13.982866,-6.250923,-47.340591,,,,,,,
1530638499.153516,-0.012609,0.449136,-0.843185,0.011902,0.021510,-0.153351,-0.011358,-0.434187,-0.900751,0.047857,-0.010820,-0.021979,13.874781,-5.930679,-47.245224,,,,,,,
1530638499.173486,-0.011056,0.448658,-0.846277,-0.045973,-0.010660,-0.128080,-0.009961,-0.433757,-0.900975,0.069898,-0.011785,-0.010112,13.853346,-5.941185,-47.166794,,,,,,,
1530638499.193455,-0.010961,0.447487,-0.848688,-0.068237,-0.072688,-0.096866,-0.009882,-0.432701,-0.901483,0.073999,-0.030784,-0.020438,14.012209,-5.864029,-47.212570,,,,,,,
1530638499.213424,-0.011866,0.446195,-0.850617,-0.066213,-0.101456,-0.087322,-0.010704,-0.431536,-0.902032,0.057823,-0.018675,-0.013297,13.881559,-5.892715,-47.177505,,,,,,,
1530638499.233394,-0.012801,0.444935,-0.852456,-0.062106,-0.067304,-0.077495,-0.011554,-0.430399,-0.902564,0.045779,-0.012518,0.003776,13.835676,-5.834015,-47.214737,,,,,,,
1530638499.253363,-0.012992,0.444026,-0.853747,-0.041386,-0.028882,-0.047332,-0.011732,-0.429578,-0.902953,0.051328,-0.028369,-0.010560,13.682550,-5.414200,-47.243073,,,,,,,
1530638499.273332,-0.011411,0.442551,-0.855196,-0.151958,0.129538,-0.123040,-0.010312,-0.428246,-0.903603,0.060010,-0.044227,-0.004463,13.929312,-5.536278,-47.429932,,,,,,,
1530638499.293302,-0.012589,0.437228,-0.857649,-0.302529,-0.337970,-0.036329,-0.011404,-0.423430,-0.905857,0.128332,-0.075975,-0.100979,13.601130,-5.172241,-47.440811,,,,,,,
1530638499.313271,-0.022204,0.430524,-0.855996,-0.324998,-0.452954,0.149939,-0.020176,-0.417347,-0.908523,0.084553,-0.118374,-0.043000,13.154394,-4.976692,-47.726593,,,,,,,
1530638499.333241,-0.032053,0.426087,-0.851379,-0.129586,-0.368587,0.232389,-0.029182,-0.413311,-0.910122,0.059807,-0.060398,-0.027561,12.817797,-4.850700,-47.713364,,,,,,,
1530638499.353210,-0.038173,0.426105,-0.846825,0.065776,-0.097880,0.187390,-0.034752,-0.413327,-0.909919,-0.006233,0.002332,0.008323,12.576937,-4.961761,-47.818878,,,,,,,
1530638499.373179,-0.038951,0.428406,-0.842725,0.147551,0.091982,0.185277,-0.035422,-0.415421,-0.908939,-0.021967,0.013672,0.023609,12.747896,-5.230286,-47.827545,,,,,,,
1530638499.393149,-0.038057,0.432021,-0.838609,0.203222,0.135101,0.173028,-0.034552,-0.418707,-0.907464,-0.030985,0.021887,0.001870,12.724993,-5.401054,-47.633942,,,,,,,
1530638499.413118,-0.037161,0.436181,-0.834830,0.208607,0.093264,0.156590,-0.033674,-0.422481,-0.905746,-0.028536,0.036754,-0.004487,12.874113,-5.589134,-47.730652,,,,,,,
1530638499.433088,-0.037808,0.439295,-0.831671,0.122896,-0.005839,0.124670,-0.034210,-0.425302,-0.904405,-0.039017,0.031442,0.002351,12.834406,-5.724426,-47.892517,,,,,,,
1530638499.453057,-0.039696,0.440240,-0.829652,0.015506,-0.067107,0.050024,-0.035901,-0.426156,-0.903937,-0.047183,0.045404,0.016562,13.014906,-5.724487,-47.756546,,,,,,,
1530638499.473026,-0.041917,0.439684,-0.829147,-0.044995,-0.118705,0.011591,-0.037919,-0.425654,-0.904091,-0.056594,0.047785,-0.003349,12.812967,-5.799706,-47.769455,,,,,,,
1530638499.492996,-0.044325,0.438862,-0.828731,-0.021038,-0.093457,0.030870,-0.040112,-0.424910,-0.904346,-0.019184,0.019423,-0.014324,12.710649,-5.773453,-47.871521,,,,,,,
1530638499.512965,-0.046589,0.439198,-0.826843,0.047504,-0.058717,0.112275,-0.042152,-0.425214,-0.904111,-0.003029,-0.017596,-0.005374,12.646616,-5.707314,-47.815140,,,,,,,
1530638499.532935,-0.048339,0.439845,-0.823679,0.030489,0.010645,0.139758,-0.043721,-0.425799,-0.903760,0.009617,-0.011930,0.018049,12.687243,-5.828827,-47.489105,,,,,,,
1530638499.552904,-0.048958,0.439724,-0.820516,-0.005199,0.054795,0.142504,-0.044283,-0.425689,-0.903785,-0.015837,-0.007584,0.013435,12.711432,-5.670952,-47.697754,,,,,,,
1530638499.572873,-0.048861,0.439463,-0.818418,-0.002245,0.045582,0.037814,-0.044201,-0.425454,-0.903900,-0.048725,0.050255,-0.024567,12.689096,-5.800713,-47.681488,,,,,,,
1530638499.592843,-0.047372,0.440120,-0.818893,0.058204,0.071531,-0.045753,-0.042842,-0.426048,-0.903685,-0.019445,0.046700,-0.050233,12.895975,-5.896629,-47.671844,,,,,,,
1530638499.612812,-0.046278,0.442321,-0.819165,0.131169,0.030281,0.009353,-0.041809,-0.428038,-0.902793,0.036042,-0.015458,-0.045465,12.780233,-5.894859,-47.678253,,,,,,,
1530638499.632782,-0.046833,0.444356,-0.818316,0.068075,-0.038300,0.032342,-0.042270,-0.429876,-0.901898,0.036746,-0.015192,0.001400,12.723070,-6.109108,-47.731293,,,,,,,
1530638499.652751,-0.048214,0.444306,-0.817847,-0.030302,-0.055765,0.008500,-0.043516,-0.429832,-0.901860,0.000822,0.001563,0.034321,12.652979,-5.906425,-47.656998,,,,,,,
1530638499.672720,-0.048595,0.443682,-0.817563,-0.008339,0.022567,0.014040,-0.043872,-0.429268,-0.902111,-0.000088,-0.000801,0.038570,12.790129,-5.985107,-47.792770,,,,,,,
1530638499.692690,-0.047375,0.444235,-0.817163,0.047261,0.095439,0.009482,-0.042761,-0.429767,-0.901926,-0.022455,0.007007,0.037531,12.744768,-6.067810,-47.550705,,,,,,,
1530638499.712659,-0.044427,0.445282,-0.817146,0.044212,0.163977,-0.004176,-0.040082,-0.430713,-0.901598,-0.049457,0.020618,0.054537,12.941877,-6.081032,-47.576645,,,,,,,
1530638499.732629,-0.041379,0.446021,-0.816603,0.039651,0.155938,0.041133,-0.037321,-0.431380,-0.901398,-0.082812,0.011977,0.028397,13.040865,-6.328339,-47.706421,,,,,,,
1530638499.752598,-0.040930,0.446885,-0.815222,0.038912,-0.035914,0.007861,-0.036900,-0.432158,-0.901042,-0.114116,0.064772,0.023403,13.054457,-6.190315,-47.336243,,,,,,,
1530638499.772567,-0.039405,0.446650,-0.820489,-0.056359,0.012189,-0.398573,-0.035530,-0.431947,-0.901199,-0.278160,0.231767,0.060104,13.114359,-6.149521,-47.545013,,,,,,,
1530638499.792537,-0.032732,0.445114,-0.832947,-0.107023,0.089892,-0.617678,-0.029538,-0.430560,-0.902078,-0.289096,0.203143,0.042383,13.241049,-5.890976,-47.593002,,,,,,,
1530638499.812506,-0.020633,0.446120,-0.847900,0.168522,0.427229,-0.723605,-0.018613,-0.431468,-0.901936,-0.369769,0.193080,-0.011272,13.584723,-5.835304,-47.235397,,,,,,,
1530638499.832476,-0.000712,0.456662,-0.865904,0.736176,0.655654,-0.897880,-0.000639,-0.440955,-0.897529,-0.410951,0.221015,0.040900,14.211363,-6.213280,-47.237320,,,,,,,
1530638499.852445,0.023411,0.475358,-0.890826,0.996933,0.623711,-1.239478,0.020813,-0.457657,-0.888885,-0.493439,0.230636,0.174850,14.847410,-6.773628,-46.861130,,,,,,,
1530638499.872414,0.044998,0.490422,-0.925901,0.654024,-0.173092,-1.734704,0.039681,-0.470998,-0.881241,-0.604225,0.239751,0.286209,15.005362,-6.902756,-46.560699,,,,,,,
1530638499.892384,0.026250,0.504214,-0.968366,0.992691,-2.881831,-1.790208,0.022981,-0.483119,-0.875253,-0.434800,0.395809,0.037743,13.560923,-7.129494,-47.075409,,,,,,,
1530638499.912353,-0.006075,0.521651,-1.007323,0.786103,-3.162209,-1.782884,-0.005267,-0.498313,-0.866981,0.329532,-0.004068,0.389595,11.465857,-7.684021,-47.553726,,,,,,,
1530638499.932323,-0.018680,0.523027,-1.054457,-0.573384,-0.361431,-2.057944,-0.016182,-0.499505,-0.866159,0.726692,-0.597831,0.116266,10.247671,-7.161026,-47.603989,,,,,,,
1530638499.952292,-0.001827,0.504370,-1.093553,-1.050861,-0.075846,-1.508977,-0.001599,-0.483256,-0.875477,0.069333,0.176371,-0.208202,10.207655,-6.092400,-47.950272,,,,,,,
1530638499.972262,0.012558,0.481480,-1.121686,-1.214757,-0.029926,-0.958039,0.011130,-0.463091,-0.886240,-0.114066,-0.062269,-0.272314,10.347223,-4.814392,-47.813583,,,,,,,
1530638499.992231,0.010271,0.451081,-1.126174,-1.782619,-0.294572,0.143596,0.009243,-0.435939,-0.899929,0.137455,-0.147832,-0.195103,10.149084,-3.540985,-48.259308,,,,,,,
1530638500.012200,-0.005534,0.406434,-1.120521,-2.455176,-0.919585,0.203837,-0.005083,-0.395336,-0.918522,0.106981,0.167980,0.171467,9.586187,-1.628952,-48.347122,,,,,,,
1530638500.032170,-0.034369,0.354705,-1.114144,-2.573190,-1.597516,0.546950,-0.032223,-0.347314,-0.937195,0.246121,0.089944,0.163651,8.406034,0.473412,-48.100800,,,,,,,
1530638500.052139,-0.086535,0.307110,-1.092764,-2.054881,-2.838082,1.445719,-0.082383,-0.302305,-0.949644,0.086610,-0.117388,-0.048036,6.522867,2.570007,-48.207092,,,,,,,
1530638500.072109,-0.153814,0.280198,-1.074004,-0.651457,-2.480937,0.497394,-0.147233,-0.276546,-0.949655,-0.401793,0.047665,-0.027304,4.005907,3.802032,-48.362961,,,,,,,
1530638500.092078,-0.182589,0.282306,-1.087754,0.244151,-2.068611,-1.063241,-0.174389,-0.278572,-0.944450,-0.469196,0.626213,-0.031288,2.308256,3.874466,-48.543350,,,,,,,
1530638500.112047,-0.254242,0.294122,-1.102069,0.473005,-4.996599,-0.377687,-0.240711,-0.289899,-0.926292,0.120883,0.148435,0.154548,-0.969257,3.729836,-48.736801,,,,,,,
1530638500.132017,-0.372038,0.297507,-1.089062,0.320454,-5.942154,0.993420,-0.347546,-0.293138,-0.890664,0.167828,0.258378,0.668206,-5.630926,3.425980,-48.052032,,,,,,,
1530638500.151986,-0.502144,0.296651,-1.065893,0.504473,-6.368187,0.813604,-0.460283,-0.292319,-0.838265,-0.000289,0.432548,0.594521,-10.730112,3.326202,-46.527298,,,,,,,
1530638500.171956,-0.641900,0.302079,-1.051278,0.665185,-7.048785,0.411713,-0.571608,-0.297506,-0.764692,0.232741,0.449300,0.462660,-16.057928,3.099976,-44.732788,,,,,,,
1530638500.191925,-0.800013,0.301004,-1.022236,1.076095,-7.759281,1.607532,-0.685112,-0.296480,-0.665373,0.649986,0.750001,0.419767,-21.711906,2.926064,-41.625717,,,,,,,
1530638500.211894,-0.980536,0.279645,-0.966426,1.610880,-8.505715,3.045609,-0.798522,-0.276015,-0.534956,0.902556,0.978972,0.399779,-27.357773,3.422417,-37.587509,,,,,,,
1530638500.231864,-1.173551,0.226741,-0.896091,1.772085,-8.700189,4.501112,-0.898527,-0.224804,-0.376977,0.862089,1.086345,0.372613,-32.196972,4.492363,-32.359337,,,,,,,
1530638500.251833,-1.343149,0.131820,-0.838149,0.864448,-7.480171,5.953267,-0.965747,-0.131439,-0.223728,0.444751,1.109145,0.276371,-35.382900,7.378296,-26.909653,,,,,,,
1530638500.271803,-1.483658,0.011571,-0.801242,1.113899,-6.455327,6.201456,-0.996138,-0.011570,-0.087022,-0.055986,1.085087,-0.279937,-36.891121,11.481621,-21.672195,,,,,,,
1530638500.291772,-1.583887,-0.106997,-0.763182,1.925392,-4.136437,5.907388,-0.994195,0.106793,0.013015,-0.467322,0.756656,-0.502090,-36.866634,15.477554,-17.670052,,,,,,,
1530638500.311742,-1.632211,-0.227872,-0.733469,1.477114,-1.989015,6.044401,-0.972312,0.225905,0.059789,-0.559640,0.597887,-0.314779,-35.225483,19.296761,-16.130432,,,,,,,
1530638500.331711,-1.657915,-0.347146,-0.717491,1.152614,-1.430160,5.701112,-0.936780,0.340216,0.081818,-0.985064,0.397959,-0.347214,-33.095592,22.899483,-15.321075,,,,,,,
1530638500.351680,-1.686065,-0.449290,-0.695346,1.873380,-2.118790,4.518827,-0.894777,0.434326,0.103599,-1.553373,0.041946,-0.693946,-30.829260,25.588737,-14.862663,,,,,,,
1530638500.371650,-1.711836,-0.531276,-0.648838,2.855702,-2.464652,3.403362,-0.853600,0.506634,0.121196,-1.713920,-0.278958,-0.650020,-28.971334,27.235390,-14.692947,,,,,,,
1530638500.391619,-1.724608,-0.594434,-0.594705,2.509090,-1.704885,2.422792,-0.818684,0.560040,0.126926,-1.795146,-0.592938,-0.070606,-27.780893,28.272820,-15.116249,,,,,,,
1530638500.411589,-1.717068,-0.632703,-0.553229,1.634169,-0.293769,1.142545,-0.797820,0.591327,0.117538,-1.900438,-0.811023,0.342835,-26.981127,28.784073,-15.578300,,,,,,,
1530638500.431558,-1.697139,-0.642667,-0.526748,0.804251,0.373089,-0.108338,-0.794119,0.599333,0.100868,-1.691995,-1.000883,0.557167,-26.684835,28.740555,-16.238808,,,,,,,
1530638500.451527,-1.681395,-0.629944,-0.514187,0.263888,0.395805,-0.972839,-0.803123,0.589100,0.089188,-1.223596,-0.994434,0.556411,-27.001665,28.333328,-16.685669,,,,,,,
1530638500.471497,-1.673537,-0.607275,-0.517575,-0.852280,0.665024,-1.059937,-0.816875,0.570632,0.084223,-0.600774,-0.941939,0.870077,-27.482874,27.600685,-16.996773,,,,,,,
1530638500.491466,-1.683269,-0.586819,-0.561311,-2.422013,0.639780,-0.687409,-0.827444,0.553715,0.093459,-0.059748,-0.705051,1.066239,-27.730297,27.837692,-16.331734,,,,,,,
1530638500.511436,-1.709741,-0.566054,-0.623145,-2.739044,0.194430,-0.763829,-0.835889,0.536306,0.116895,-0.079822,-0.570623,0.476885,-28.113964,28.001884,-15.287079,,,,,,,
1530638500.531405,-1.738117,-0.542130,-0.674739,-2.110603,-0.030982,-0.922607,-0.844648,0.515961,0.142661,0.177945,-0.338654,0.155176,-28.582331,27.892159,-13.724350,,,,,,,
1530638500.551374,-1.745578,-0.511478,-0.703879,-0.911003,0.260087,-1.564934,-0.858735,0.489466,0.151639,-0.071410,-0.528910,0.107715,-29.213011,27.716721,-12.690651,,,,,,,
1530638500.571344,-1.736074,-0.479215,-0.691083,0.964065,-0.013189,-1.565758,-0.875264,0.461083,0.145993,0.095295,-0.056328,-0.169568,-30.415625,26.454124,-12.977272,,,,,,,
1530638500.591313,-1.730900,-0.460161,-0.651543,1.749992,-1.048941,-1.084091,-0.884521,0.444092,0.142837,0.327346,-0.063385,-0.260010,-31.224272,25.395500,-13.658302,,,,,,,
1530638500.611283,-1.734187,-0.450835,-0.606129,2.094172,-1.092177,-0.595084,-0.888094,0.435718,0.146411,0.321658,-0.125232,-0.164630,-31.655718,24.662674,-13.932495,,,,,,,
1530638500.631252,-1.728072,-0.449628,-0.551810,2.520974,-0.793783,-0.344743,-0.889493,0.434630,0.141060,0.170147,0.108842,-0.299309,-31.870375,23.918770,-14.829285,,,,,,,
1530638500.651222,-1.718821,-0.458503,-0.497777,2.445247,-0.602972,0.321355,-0.886909,0.442606,0.132251,0.254966,0.109961,-0.369266,-32.007824,23.554588,-15.570694,,,,,,,
1530638500.671190,-1.700965,-0.481577,-0.440463,2.872281,-0.301319,1.058125,-0.878767,0.463177,0.115039,0.220793,0.058490,-0.485140,-31.772326,23.410126,-16.643166,,,,,,,
1530638500.691159,-1.684163,-0.516780,-0.381310,2.580579,-0.819441,1.606620,-0.863832,0.494083,0.098351,0.186113,0.153851,-0.257363,-31.093178,23.506477,-17.725349,,,,,,,
1530638500.711129,-1.686834,-0.555349,-0.338589,1.761393,-1.403186,1.772166,-0.844001,0.527240,0.098378,0.124611,0.199094,0.104457,-30.474178,23.971977,-17.801300,,,,,,,
1530638500.731098,-1.696785,-0.597513,-0.310388,1.246862,-1.012319,2.104173,-0.820183,0.562588,0.103884,0.184106,0.314929,0.129133,-29.701550,24.822159,-17.666664,,,,,,,
1530638500.751068,-1.693350,-0.647359,-0.295603,0.680618,0.214310,2.584204,-0.791695,0.603082,0.097514,0.118767,0.378699,0.114156,-28.483126,25.992439,-18.385811,,,,,,,
1530638500.771037,-1.681081,-0.704386,-0.298263,-0.038847,0.920640,2.963059,-0.757379,0.647566,0.083868,0.061365,0.379228,0.125132,-26.433079,27.383110,-18.739098,,,,,,,
1530638500.791006,-1.673061,-0.763551,-0.317744,-0.586726,1.062844,3.018122,-0.718610,0.691491,0.073746,0.044523,0.262092,0.096344,-24.423780,29.203728,-18.856483,,,,,,,
1530638500.810976,-1.675603,-0.818477,-0.346178,-0.748726,0.728388,2.702226,-0.679583,0.730106,0.071487,-0.024198,0.125134,-0.033462,-22.623451,30.849678,-18.829567,,,,,,,
1530638500.830945,-1.688311,-0.865970,-0.374808,-0.619964,0.249435,2.355575,-0.643432,0.761724,0.075963,-0.051377,-0.018835,-0.107503,-20.880655,32.037506,-18.349884,,,,,,,
1530638500.850915,-1.703858,-0.913826,-0.398147,-0.324577,0.168881,2.656181,-0.605322,0.791846,0.081024,0.143835,-0.239249,-0.055709,-19.101416,33.223419,-18.349228,,,,,,,
1530638500.870884,-1.715000,-0.976790,-0.417888,-0.033062,0.298348,3.555342,-0.553875,0.828705,0.080429,0.304821,-0.472214,0.009552,-16.645660,34.398186,-18.259613,,,,,,,
1530638500.890853,-1.724437,-1.056334,-0.434490,0.281238,0.146693,4.239359,-0.486269,0.870558,0.075304,0.334170,-0.549818,-0.028338,-13.644846,35.669178,-18.706451,,,,,,,
1530638500.910823,-1.733012,-1.146762,-0.441966,0.720926,-0.245617,4.598396,-0.406038,0.911436,0.066450,0.292193,-0.609282,-0.097379,-10.304344,36.472946,-18.859154,,,,,,,
1530638500.930792,-1.731398,-1.241530,-0.430330,1.095761,-0.567530,4.678047,-0.319186,0.946280,0.051707,0.209262,-0.613944,-0.056193,-6.800741,36.863907,-19.685799,,,,,,,
1530638500.950762,-1.715734,-1.339039,-0.400482,1.142892,-0.694354,4.817142,-0.227279,0.973264,0.033174,0.121413,-0.600340,0.121688,-3.179604,37.024284,-20.520523,,,,,,,
1530638500.970731,-1.681701,-1.437955,-0.351160,1.002970,-0.769771,4.874356,-0.131637,0.991189,0.014659,-0.119309,-0.415887,0.258015,0.438707,36.372047,-21.244492,,,,,,,
1530638500.990701,-1.817625,-1.537615,-0.467820,-0.085917,-1.084190,5.057015,-0.032164,0.999450,0.008104,-0.264589,0.404512,0.488752,4.005262,36.132885,-21.706505,,,,,,,
1530638501.010670,2.032129,-1.505988,-2.869166,-1.671088,-1.990833,3.742964,0.057990,0.997901,0.028827,-0.633384,2.088647,0.364407,6.483156,36.150646,-20.821808,,,,,,,
1530638501.030639,2.233004,-1.460334,-2.623048,-2.137818,-2.015043,-0.236238,0.086936,0.993905,0.067780,-1.002052,2.844031,0.294113,6.560587,36.805279,-19.464302,,,,,,,
1530638501.050609,2.681966,-1.454621,-2.166348,-1.718137,1.124077,-2.270451,0.051420,0.993259,0.103883,-0.412230,0.989971,0.422729,5.213621,37.782089,-18.201004,,,,,,,
1530638501.070578,3.117035,-1.435248,-1.778511,-1.363991,2.777198,-1.888777,0.003318,0.990827,0.135090,0.043481,-0.039884,0.188351,4.319506,38.091286,-16.925690,,,,,,,
1530638501.090548,-2.941705,-1.409167,-1.587009,-1.072086,0.827320,-1.371735,-0.031953,0.986966,0.157718,0.142640,-0.215329,-0.291309,3.415548,38.772533,-15.674538,,,,,,,
1530638501.110517,-2.851719,-1.385615,-1.478009,-0.850400,-1.672772,-1.103581,-0.052627,0.982903,0.176439,0.139572,-0.160729,-0.494859,2.146421,39.186947,-15.067184,,,,,,,
1530638501.130486,-2.832208,-1.363917,-1.413201,-0.860860,-2.283990,-0.834633,-0.062540,0.978677,0.195653,0.124979,-0.091485,-0.372548,0.957441,39.489334,-14.468918,,,,,,,
1530638501.150456,-2.825902,-1.340398,-1.370066,-1.101322,-1.340171,-0.818889,-0.070901,0.973576,0.217079,-0.091636,-0.004200,-0.064628,-0.120104,39.706589,-13.592865,,,,,,,
1530638501.170425,-2.802953,-1.309394,-1.336328,-1.417474,-0.108526,-0.916354,-0.085853,0.966029,0.243756,-0.238412,0.102132,0.271731,-0.906141,39.862297,-12.493828,,,,,,,
1530638501.190395,-2.774787,-1.280158,-1.304156,-1.030565,-0.310747,-0.905273,-0.102771,0.958061,0.267498,-0.081830,0.113838,-0.044659,-1.794001,40.431202,-11.463554,,,,,,,
1530638501.210364,-2.753498,-1.261121,-1.266011,-0.504365,-0.966950,-0.861204,-0.115324,0.952433,0.282084,0.006041,0.032889,-0.250300,-2.790773,40.606705,-10.714096,,,,,,,
1530638501.230333,-2.737272,-1.246694,-1.228946,-0.468397,-0.858279,-0.773704,-0.125279,0.947937,0.292779,0.062931,-0.081756,-0.149468,-3.466721,40.410851,-10.015259,,,,,,,
1530638501.250303,-2.726383,-1.230608,-1.203330,-0.631824,-0.596201,-0.671470,-0.134593,0.942692,0.305311,0.107508,-0.167484,-0.160413,-4.098610,40.578037,-9.635712,,,,,,,
1530638501.270272,-2.723064,-1.213335,-1.185441,-0.658637,-0.756794,-0.594306,-0.142203,0.936788,0.319695,0.124854,-0.203115,-0.203987,-4.801826,40.692692,-8.940659,,,,,,,
1530638501.290242,-2.728407,-1.199084,-1.172982,-0.492278,-0.877300,-0.416552,-0.145839,0.931707,0.332644,0.163020,-0.214544,-0.163988,-5.405472,40.737812,-8.249130,,,,,,,
1530638501.310211,-2.741539,-1.190068,-1.168263,-0.320277,-0.864770,-0.161632,-0.144724,0.928394,0.342252,0.197870,-0.237583,-0.071195,-5.847967,40.744938,-8.077919,,,,,,,
1530638501.330180,-2.760838,-1.185593,-1.171767,-0.169924,-0.754747,0.044369,-0.139634,0.926722,0.348834,0.199632,-0.265345,0.006955,-5.940098,40.838673,-7.787575,,,,,,,
1530638501.350150,-2.776415,-1.185975,-1.176748,0.089559,-0.388765,0.106999,-0.134057,0.926866,0.350636,0.144845,-0.264802,0.024257,-5.813244,40.819599,-7.587494,,,,,,,
1530638501.370119,-2.779700,-1.191789,-1.177420,0.364128,-0.011405,0.119913,-0.130995,0.929032,0.346029,0.092863,-0.217836,0.032450,-5.745640,40.686035,-7.849365,,,,,,,
1530638501.390089,-2.776287,-1.201435,-1.175564,0.497051,0.115306,0.148225,-0.128968,0.932558,0.337195,0.069825,-0.186708,0.022043,-5.672453,40.826981,-8.143814,,,,,,,
1530638501.410058,-2.773104,-1.211162,-1.173612,0.434221,0.011617,0.139766,-0.126767,0.936026,0.328306,0.078809,-0.238577,0.022647,-5.490683,40.917141,-8.608246,,,,,,,
1530638501.430028,-2.775851,-1.220140,-1.174214,0.434784,-0.158828,0.203651,-0.122854,0.939148,0.320793,0.100226,-0.288391,0.034722,-5.286690,40.782738,-8.884430,,,,,,,
1530638501.449997,-2.782928,-1.233166,-1.179752,0.691124,-0.009034,0.400088,-0.116277,0.943542,0.310173,0.096395,-0.280823,0.114632,-5.086323,40.841068,-9.331146,,,,,,,
1530638501.469966,-2.790297,-1.254128,-1.191894,1.039372,0.340255,0.637491,-0.107158,0.950278,0.292383,0.047633,-0.148276,0.256155,-4.644360,40.665497,-10.315880,,,,,,,
1530638501.489936,-2.800902,-1.280162,-1.213999,1.105206,0.603029,0.787970,-0.095750,0.958062,0.270088,-0.098342,0.091224,0.323235,-4.107893,40.782158,-11.439789,,,,,,,
1530638501.509905,-2.813146,-1.302159,-1.239061,0.791224,0.552651,0.585080,-0.085616,0.964133,0.251228,-0.346833,0.248849,0.328866,-3.351032,40.524132,-12.182076,,,,,,,
1530638501.529875,-2.814262,-1.313614,-1.249599,0.309327,0.393592,0.142939,-0.081779,0.967111,0.240848,-0.514855,0.325294,0.375744,-3.075712,40.713890,-12.699440,,,,,,,
1530638501.549844,-2.805538,-1.314032,-1.245345,-0.076585,0.074198,-0.105777,-0.083743,0.967217,0.239742,-0.479642,0.348472,0.361638,-2.834930,40.527386,-12.907402,,,,,,,
1530638501.569813,-2.805082,-1.313258,-1.236954,0.134363,-0.652231,-0.108296,-0.084099,0.967020,0.240409,-0.222649,0.208853,0.222558,-3.042727,40.492477,-12.865166,,,,,,,
1530638501.589783,-2.804282,-1.323078,-1.218934,0.796172,-0.837634,0.012095,-0.081145,0.969474,0.231370,-0.047594,-0.064262,0.061126,-3.288357,40.497211,-13.215401,,,,,,,
1530638501.609752,-2.799329,-1.345520,-1.201303,1.298365,-0.443304,0.273958,-0.074968,0.974733,0.210415,0.069642,-0.238481,-0.030575,-3.275421,40.062344,-13.673836,,,,,,,
1530638501.629722,-2.789662,-1.377014,-1.187587,1.647973,-0.060631,0.472686,-0.066379,0.981283,0.180762,0.133289,-0.257986,-0.232016,-3.217659,40.122116,-15.285088,,,,,,,
1530638501.649691,-2.787307,-1.412105,-1.187905,1.563280,0.269064,0.690877,-0.054819,0.987435,0.148202,0.205240,-0.053231,-0.220163,-2.656208,39.516060,-16.714958,,,,,,,
1530638501.669660,-2.820866,-1.437871,-1.234179,0.749176,0.849800,0.718537,-0.041780,0.991178,0.125768,0.125581,0.718844,0.415751,-1.941004,39.239334,-17.588585,,,,,,,
1530638501.689631,-2.847613,-1.444499,-1.285376,0.013029,1.359294,0.189582,-0.036497,0.992035,0.120552,-0.049059,0.791366,0.640206,-1.057182,38.923759,-17.753777,,,,,,,
1530638501.709600,-2.818779,-1.446273,-1.286492,0.207315,1.564618,0.021334,-0.039399,0.992257,0.117781,0.185090,-0.138619,0.110674,-0.639515,38.989517,-18.002975,,,,,,,
1530638501.729570,-2.789253,-1.457116,-1.289659,0.662943,1.618540,0.343527,-0.039145,0.993545,0.106464,0.309286,-0.588562,-0.402164,-0.263664,39.289722,-18.493912,,,,,,,
1530638501.749539,-2.816465,-1.476002,-1.343956,0.839598,1.145870,0.682333,-0.030234,0.995510,0.089690,0.293524,-0.637020,-0.528441,0.694983,38.989594,-19.029099,,,,,,,
1530638501.769508,-2.897779,-1.495841,-1.441986,0.814929,0.632893,0.633745,-0.018077,0.997192,0.072668,0.187724,-0.486191,-0.444692,1.550951,38.606842,-19.553864,,,,,,,
1530638501.789478,-3.010183,-1.512902,-1.562816,0.724723,0.312500,0.515603,-0.007582,0.998325,0.057363,0.097105,-0.131915,-0.337209,2.036520,38.502918,-20.232803,,,,,,,
1530638501.809447,3.100979,-1.527213,-1.743987,0.707118,0.652761,0.479681,0.001769,0.999050,0.043531,-0.046813,0.361561,-0.050931,2.541185,38.109406,-20.698746,,,,,,,
1530638501.829417,2.792319,-1.542219,-2.075753,0.910967,1.336480,0.412861,0.009778,0.999592,0.026846,-0.319455,0.556103,0.171930,3.249254,37.687626,-21.379906,,,,,,,
1530638501.849386,2.097763,-1.551968,-2.793054,0.843797,0.914472,0.301533,0.016265,0.999823,0.009464,-0.335174,0.191172,-0.088031,3.990557,37.605808,-21.843552,,,,,,,
1530638501.869355,1.313931,-1.549067,2.696252,0.723050,0.281517,0.207016,0.021003,0.999764,-0.005517,-0.300102,-0.080834,-0.130424,4.252409,37.404030,-22.486130,,,,,,,
1530638501.889325,0.891908,-1.538899,2.271768,0.744209,0.067470,0.189580,0.024816,0.999491,-0.020022,-0.284017,-0.182719,-0.027921,4.698446,36.817909,-23.041054,,,,,,,
1530638501.909294,0.676508,-1.526449,2.057281,0.693639,-0.164786,0.095165,0.027755,0.999017,-0.034568,-0.244918,-0.121682,0.006553,4.654108,36.480881,-23.573166,,,,,,,
1530638501.929264,0.505300,-1.517007,1.893722,0.578409,-0.484158,-0.169386,0.026024,0.998554,-0.047043,-0.197259,0.003781,-0.048477,4.473948,36.303474,-23.843422,,,,,,,
1530638501.949233,0.331141,-1.508312,1.727199,0.623419,-0.275783,-0.292887,0.020301,0.998048,-0.059048,-0.137564,-0.006654,-0.022114,4.045153,36.123920,-24.374634,,,,,,,
1530638501.969202,0.211820,-1.495541,1.608098,0.793135,0.123920,-0.153640,0.015807,0.997170,-0.073503,-0.057280,-0.058327,-0.005781,3.893019,35.579914,-24.933342,,,,,,,
1530638501.989172,0.176789,-1.478997,1.567465,0.851141,0.324454,0.058094,0.016122,0.995789,-0.090241,-0.038751,-0.103272,-0.011184,4.029379,35.154980,-25.958443,,,,,,,
1530638502.009141,0.168225,-1.462403,1.553017,0.825971,0.256005,0.060193,0.018113,0.994131,-0.106654,-0.096543,-0.158758,0.021495,4.159533,34.557617,-26.221786,,,,,,,
1530638502.029111,0.151801,-1.445465,1.532396,0.883205,0.178106,-0.011972,0.018903,0.992156,-0.123565,-0.083692,-0.243606,0.063461,4.244883,34.181641,-26.609795,,,,,,,
1530638502.049080,0.131476,-1.427106,1.509238,0.958747,0.108558,-0.015274,0.018773,0.989694,-0.141960,-0.054844,-0.289591,0.090019,4.354166,33.790627,-27.372177,,,,,,,
1530638502.069050,0.126750,-1.407928,1.502981,0.941667,0.056628,0.151832,0.020497,0.986766,-0.160848,-0.025029,-0.256191,0.099722,4.459620,33.111633,-27.910019,,,,,,,
1530638502.089019,0.146974,-1.388779,1.523815,0.937630,-0.069780,0.392852,0.026509,0.983481,-0.179062,-0.028904,-0.046637,0.095322,4.538561,32.653610,-28.404579,,,,,,,
1530638502.108988,0.171463,-1.365898,1.552327,1.221246,-0.216102,0.466778,0.034717,0.979082,-0.200485,-0.054645,0.160857,0.109435,4.648081,31.878632,-29.289085,,,,,,,
1530638502.128958,0.184098,-1.335096,1.568968,1.623062,-0.120024,0.442463,0.042749,0.972351,-0.229578,-0.032083,0.201157,0.210901,4.892286,31.156578,-30.591896,,,,,,,
1530638502.148927,0.196731,-1.300590,1.579586,1.620599,0.309161,0.476919,0.052175,0.963716,-0.261781,-0.019003,0.206374,0.390672,5.250261,30.060898,-31.516655,,,,,,,
1530638502.168897,0.230922,-1.275219,1.601155,0.793140,0.864959,0.599506,0.066669,0.956634,-0.283560,-0.248646,0.275711,0.598928,6.030058,29.386856,-31.978943,,,,,,,
1530638502.188866,0.279719,-1.274564,1.636812,-0.624134,0.495773,0.416548,0.080594,0.956443,-0.280572,-0.444654,0.306207,0.477197,6.577471,29.323784,-31.664268,,,,,,,
1530638502.208835,0.315080,-1.293854,1.672432,-1.167429,-0.097670,0.056017,0.084729,0.961896,-0.259955,-0.531919,0.172580,0.218405,6.502871,30.036247,-30.747154,,,,,,,
1530638502.228805,0.319206,-1.311574,1.676606,-0.618359,0.077588,-0.410603,0.080439,0.966590,-0.243380,-0.669978,0.292032,0.243044,6.215204,30.280006,-30.024330,,,,,,,
1530638502.248774,0.270822,-1.325413,1.630304,-0.540310,-0.402098,-0.968105,0.064989,0.970044,-0.234073,-0.727769,0.495471,0.132831,5.696291,30.374481,-29.610008,,,,,,,
1530638502.268744,0.171644,-1.347585,1.541436,-1.105380,-0.678446,-1.366779,0.037809,0.975192,-0.218108,-0.719404,0.541929,0.274825,4.382074,30.717148,-29.092026,,,,,,,
1530638502.288713,0.048762,-1.385658,1.428837,-2.207215,-0.633444,-1.277161,0.008973,0.982911,-0.183862,-0.488068,0.447097,0.464746,3.155607,31.737602,-27.482300,,,,,,,
1530638502.308682,-0.141113,-1.441031,1.253381,-3.114267,-0.982010,-1.273482,-0.018199,0.991592,-0.128113,-0.218327,0.331650,0.274750,1.862841,32.762924,-25.563698,,,,,,,
1530638502.328652,-0.651378,-1.493200,0.764753,-3.339994,-1.280486,-1.362029,-0.046995,0.996991,-0.061642,-0.065417,0.304691,-0.055729,0.590546,34.003914,-23.172005,,,,,,,
1530638502.348621,-1.626252,-1.497281,-0.188502,-3.128469,-1.068609,-1.201488,-0.073329,0.997299,0.004071,0.083095,0.299530,-0.307461,-0.610395,35.087379,-20.777779,,,,,,,
1530638502.368591,-2.167855,-1.459441,-0.720924,-2.727454,-0.172091,-0.761405,-0.091896,0.993806,0.062474,0.231423,0.328902,-0.403584,-1.383965,36.112827,-18.709785,,,,,,,
1530638502.388560,-2.396785,-1.421489,-0.964056,-2.250105,1.056764,-0.173851,-0.100828,0.988874,0.109365,0.415129,0.386400,-0.430318,-1.275745,36.620064,-16.754654,,,,,,,
1530638502.408529,-2.522116,-1.392626,-1.119249,-1.692925,1.374390,0.162552,-0.102901,0.984170,0.144296,0.528087,0.392692,-0.390817,-0.771828,37.046135,-15.627228,,,,,,,
1530638502.428499,-2.594675,-1.369182,-1.203704,-1.332560,-0.074171,-0.141634,-0.104141,0.979745,0.171039,0.362915,0.393577,-0.193241,-0.425669,37.148235,-14.785736,,,,,,,
1530638502.448468,-2.633252,-1.341586,-1.228226,-1.322003,-0.957151,-0.643205,-0.110588,0.973846,0.198478,0.155312,0.190155,-0.241310,-0.918077,37.507549,-13.605507,,,,,,,
1530638502.468438,-2.647383,-1.313085,-1.219618,-1.110902,-1.194546,-0.805142,-0.120893,0.966976,0.224371,0.138135,0.011540,-0.502402,-1.586746,37.710373,-12.744171,,,,,,,
1530638502.488407,-2.652693,-1.287530,-1.197501,-0.966187,-1.407900,-0.928509,-0.131265,0.960148,0.246751,0.006326,-0.096866,-0.487351,-2.485924,37.855412,-11.857880,,,,,,,
1530638502.508376,-2.649849,-1.258260,-1.164587,-1.132451,-1.415600,-1.243860,-0.145177,0.951557,0.271040,-0.175486,-0.129825,-0.327010,-3.663893,38.030834,-11.169609,,,,,,,
1530638502.528346,-2.636806,-1.223561,-1.123003,-1.221514,-1.262466,-1.513961,-0.164575,0.940317,0.297856,-0.217901,-0.173700,-0.330357,-4.733532,38.188141,-10.020111,,,,,,,
1530638502.548315,-2.619377,-1.188302,-1.077873,-1.068204,-1.261237,-1.539318,-0.186171,0.927736,0.323489,-0.172701,-0.227022,-0.416568,-5.940802,38.194298,-8.889107,,,,,,,
1530638502.568285,-2.624435,-1.161389,-1.050189,-0.787672,-1.755332,-0.821001,-0.196808,0.917357,0.346010,0.162171,-0.407408,-0.507448,-6.909813,38.337486,-8.136154,,,,,,,
1530638502.588254,-2.667949,-1.149408,-1.052565,-0.388131,-2.194502,0.090442,-0.186571,0.912522,0.363999,0.349611,-0.501435,-0.578538,-7.076832,38.259499,-7.346001,,,,,,,
1530638502.608223,-2.732807,-1.152513,-1.079649,0.087123,-1.770323,0.826208,-0.161460,0.913787,0.372724,0.396308,-0.539276,-0.588407,-6.836020,38.579277,-6.758820,,,,,,,
1530638502.628193,-2.798088,-1.167811,-1.128916,0.491230,-0.483891,1.392171,-0.132077,0.919894,0.369256,0.441663,-0.605456,-0.552850,-5.794237,38.408737,-7.115410,,,,,,,
1530638502.648162,-2.857244,-1.189296,-1.200484,0.627483,0.770910,1.755916,-0.104446,0.928107,0.357363,0.470657,-0.665763,-0.479647,-4.418613,38.603733,-7.580391,,,,,,,
1530638502.668132,-2.925808,-1.209404,-1.293816,0.510647,0.755336,1.938278,-0.075706,0.935405,0.345377,0.527137,-0.680126,-0.337565,-2.706829,38.541138,-8.307777,,,,,,,
1530638502.688101,-3.029315,-1.232388,-1.388504,1.245788,-1.931815,1.615497,-0.037196,0.943284,0.329895,0.560985,-0.594301,-0.259064,-1.368414,38.701023,-8.866730,,,,,,,
1530638502.708070,3.129279,-1.265419,-1.460604,1.521599,-2.600947,0.987019,0.003702,0.953734,0.300630,0.185354,-0.110350,0.746321,-0.426144,38.280697,-10.009583,,,,,,,
1530638502.728040,3.113297,-1.279819,-1.480172,0.272409,2.048936,-0.257439,0.008117,0.957964,0.286774,-0.518950,0.821348,2.325424,-0.125666,38.111568,-10.986916,,,,,,,
1530638502.748009,-3.011957,-1.288954,-1.391364,0.872760,3.896202,-1.782122,-0.035954,0.960545,0.275792,-0.599620,1.457592,0.506252,-0.357012,38.088455,-11.624336,,,,,,,
1530638502.767979,-2.779997,-1.299125,-1.213978,1.022385,2.506939,-2.350171,-0.094930,0.963324,0.250989,-0.438654,1.071741,-0.184781,-1.418308,38.034348,-12.492279,,,,,,,
1530638502.787948,-2.583918,-1.289661,-1.042697,0.421592,0.985967,-2.194711,-0.146828,0.960741,0.235409,-0.489906,0.436064,0.248065,-2.941523,37.750225,-13.329979,,,,,,,
1530638502.807917,-2.462371,-1.278588,-0.920940,0.758143,-0.182166,-1.385337,-0.180960,0.957610,0.224134,-0.142145,-0.365035,-0.403608,-4.019894,37.524334,-13.874710,,,,,,,
1530638502.827887,-2.400458,-1.289333,-0.834099,1.449817,-1.633631,-0.008420,-0.187524,0.960650,0.204906,0.137735,-0.556780,-0.939556,-4.547066,37.385338,-14.549637,,,,,,,
1530638502.847856,-2.423535,-1.313786,-0.831006,-0.070969,-0.313310,1.016112,-0.167237,0.967154,0.191426,-0.005782,0.281701,0.367137,-4.214434,37.175617,-14.971825,,,,,,,
1530638502.867826,-2.527573,-1.302198,-0.957520,-1.662198,0.943123,0.906482,-0.152901,0.964144,0.216905,-0.109566,1.103712,0.748015,-3.252296,37.763378,-14.131676,,,,,,,
1530638502.887795,-2.613859,-1.295114,-1.052123,-0.519672,-0.125574,0.867575,-0.137075,0.962240,0.235170,0.196996,0.019465,-0.911745,-2.531767,38.177570,-13.208801,,,,,,,
1530638502.907765,-2.667707,-1.306809,-1.104722,0.543268,-0.047871,0.914850,-0.119075,0.965357,0.232177,0.272182,-0.537653,-0.788009,-1.724964,38.061714,-13.056808,,,,,,,
1530638502.927734,-2.687439,-1.332753,-1.132099,1.234766,0.579397,0.846874,-0.103447,0.971801,0.211900,0.285057,-0.655822,-0.597855,-0.932844,37.932373,-14.086792,,,,,,,
1530638502.947703,-2.671198,-1.364796,-1.136120,1.479190,1.239433,0.691061,-0.092708,0.978857,0.182331,0.313381,-0.634924,-0.401493,0.055084,37.749931,-15.308304,,,,,,,
1530638502.967673,-2.623346,-1.395934,-1.118127,1.410111,1.610332,0.537204,-0.086179,0.984751,0.151128,0.354428,-0.373697,-0.300497,1.046518,37.487083,-16.362686,,,,,,,
1530638502.987642,-2.566554,-1.424183,-1.087438,1.376450,0.820820,0.569345,-0.079454,0.989271,0.122594,0.413896,0.197099,-0.258978,1.865480,37.263271,-17.078972,,,,,,,
1530638503.007612,-2.532989,-1.459567,-1.036360,1.739297,-1.735083,0.760227,-0.063461,0.993820,0.091070,0.336609,0.816925,-0.124563,2.362535,36.751648,-18.609428,,,,,,,
1530638503.027581,-2.494363,-1.490971,-0.952245,1.329376,-2.376774,0.505896,-0.048081,0.996816,0.063612,0.113312,0.349132,0.000459,2.281580,36.145508,-19.583344,,,,,,,
1530638503.047550,-2.437273,-1.515457,-0.851217,1.153003,-2.023569,0.521344,-0.035814,0.998469,0.042149,0.047121,-0.112422,-0.020024,1.964022,35.721729,-20.522835,,,,,,,
1530638503.067520,-2.241919,-1.541535,-0.622695,1.315535,-1.444863,0.636720,-0.022912,0.999572,0.018194,-0.082755,-0.224425,-0.006521,1.709738,35.485081,-21.739792,,,,,,,
1530638503.087489,-0.808747,-1.556883,0.832198,1.454103,-0.869545,0.604581,-0.010063,0.999903,-0.009604,-0.210365,-0.162302,0.023886,1.686785,35.171867,-22.653778,,,,,,,
1530638503.107458,-0.018450,-1.531072,1.632908,1.538523,-0.321708,0.398176,-0.000733,0.999211,-0.039704,-0.301849,-0.121465,0.034913,1.774500,34.878288,-24.031487,,,,,,,
1530638503.127428,0.068163,-1.500730,1.719691,1.467682,0.170932,0.199619,0.004768,0.997546,-0.069847,-0.243568,-0.185382,0.064872,2.046564,34.086174,-25.028046,,,,,,,
1530638503.147397,0.072978,-1.473834,1.714535,1.273095,0.683480,0.001405,0.007059,0.995303,-0.096552,-0.183115,-0.197314,0.107584,2.305380,33.375389,-26.039101,,,,,,,
1530638503.167367,0.062723,-1.450211,1.685459,1.167974,1.037502,-0.104696,0.007540,0.992738,-0.120056,-0.147189,-0.161867,0.126678,2.820219,32.951462,-26.635269,,,,,,,
