timestamp(unix),attitude_roll(radians),attitude_pitch(radians),attitude_yaw(radians),rotation_rate_x(radians/s),rotation_rate_y(radians/s),rotation_rate_z(radians/s),gravity_x(G),gravity_y(G),gravity_z(G),user_acc_x(G),user_acc_y(G),user_acc_z(G),magnetic_field_x(microteslas),magnetic_field_y(microteslas),magnetic_field_z(microteslas),latitude(degree),longitude(degree),altitude(meter),speed(m/s),course(degree),timestamp(unix),User Mark
1530639606.079655,0.070268,0.468020,-1.734346,-0.189290,0.023408,-0.419592,0.062660,-0.451120,-0.890261,-0.019752,0.026132,-0.062101,8.020086,-6.633141,-19.969528,,,,,,,
,,,,,,,,,,,,,,,,39.779212,-84.064401,292.752808,-1.000000,-1.000000,1530639577.448986,
1530639606.099624,0.070934,0.463835,-1.742054,-0.215338,-0.237899,-0.305173,0.063387,-0.447381,-0.892094,0.067503,-0.002936,-0.012233,8.070429,-6.633293,-19.772072,,,,,,,
,,,,,,,,,,,,,,,,39.779212,-84.064401,292.752808,-1.000000,-1.000000,1530639586.448986,
1530639606.119592,0.066688,0.458549,-1.746161,-0.281602,-0.297454,-0.150523,0.059755,-0.442648,-0.894702,0.083495,-0.015299,0.005451,8.006853,-6.396553,-19.790520,,,,,,,
1530639606.139561,0.062153,0.452340,-1.747274,-0.310841,-0.190027,-0.039682,0.055866,-0.437072,-0.897690,0.046505,0.006881,-0.007187,7.800852,-6.191811,-19.917107,,,,,,,
1530639606.159529,0.060221,0.446499,-1.747127,-0.260804,-0.026890,-0.007074,0.054284,-0.431810,-0.900330,0.020850,0.012376,-0.041992,7.637037,-6.086151,-19.915840,,,,,,,
,,,,,,,,,,,,,,,,39.779140,-84.064509,292.752808,-1.000000,-1.000000,1530639606.155419,
,,,,,,,,,,,,,,,,39.779139,-84.064509,292.752808,-1.000000,-1.000000,1530639606.159835,
1530639606.179498,0.061265,0.442644,-1.746862,-0.149830,0.078913,0.012740,0.055326,-0.428330,-0.901927,0.009463,0.018097,-0.044194,7.833868,-6.041023,-19.748306,,,,,,,
1530639606.199466,0.062585,0.440800,-1.746601,-0.077383,0.033695,0.003126,0.056566,-0.426663,-0.902640,0.012343,0.017423,-0.031564,7.735765,-5.953514,-19.843018,,,,,,,
1530639606.219435,0.062357,0.440438,-1.746346,0.014850,-0.022686,0.010500,0.056369,-0.426336,-0.902807,0.017087,-0.001734,-0.020151,7.745825,-6.160538,-19.566444,,,,,,,
,,,,,,,,,,,,,,,,39.779139,-84.064509,292.752808,-1.000000,-1.000000,1530639606.208209,
,,,,,,,,,,,,,,,,39.779139,-84.064509,292.752808,-1.000000,-1.000000,1530639606.213347,
1530639606.239403,0.061374,0.441338,-1.747063,0.059455,-0.111657,-0.056198,0.055459,-0.427150,-0.902478,-0.003060,0.018031,0.000669,7.798944,-6.116638,-19.668655,,,,,,,
1530639606.259372,0.058652,0.441907,-1.748884,0.019798,-0.195392,-0.077750,0.052987,-0.427664,-0.902383,0.023551,0.026281,0.013315,7.481134,-5.942589,-19.907097,,,,,,,
1530639606.279340,0.055432,0.441243,-1.749696,-0.063649,-0.163858,-0.004445,0.050097,-0.427064,-0.902833,0.055814,0.017747,0.023453,7.501654,-5.865959,-20.140030,,,,,,,
1530639606.299309,0.053650,0.438607,-1.747807,-0.166559,0.026177,0.136697,0.048548,-0.424679,-0.904041,0.062032,0.032849,0.032841,7.441229,-5.944046,-19.768394,,,,,,,
1530639606.319277,0.055187,0.435190,-1.743886,-0.189701,0.244736,0.140157,0.050017,-0.421583,-0.905409,0.065904,0.046385,0.037642,7.578306,-5.937088,-19.891693,,,,,,,
1530639606.339246,0.057990,0.432363,-1.742437,-0.085876,0.091024,0.014275,0.052624,-0.419018,-0.906452,0.026965,0.012524,0.004459,7.589998,-5.835884,-19.962456,,,,,,,
1530639606.359214,0.057440,0.432277,-1.743979,0.029593,-0.171907,-0.121956,0.052128,-0.418940,-0.906517,0.010540,-0.012106,0.038398,7.554899,-5.836823,-19.905968,,,,,,,
1530639606.379182,0.052743,0.432495,-1.748058,0.010262,-0.386697,-0.189658,0.047864,-0.419138,-0.906660,0.030413,0.003855,0.026838,7.413801,-5.795441,-19.915443,,,,,,,
1530639606.399151,0.046801,0.431923,-1.749573,-0.047326,-0.276868,0.054153,0.042488,-0.418618,-0.907168,0.045082,0.032388,0.016512,7.232721,-5.773788,-20.144089,,,,,,,
1530639606.419119,0.041699,0.429813,-1.742261,-0.174610,0.006130,0.481815,0.037895,-0.416701,-0.908253,0.073097,0.071410,-0.015468,7.352171,-5.938446,-19.877960,,,,,,,
1530639606.439088,0.038348,0.425757,-1.728014,-0.244641,0.184536,0.706678,0.034916,-0.413010,-0.910057,0.057369,0.089158,-0.056511,7.227804,-5.994644,-20.036362,,,,,,,
1530639606.459056,0.035918,0.422319,-1.712530,-0.148855,0.156102,0.663456,0.032755,-0.409877,-0.911552,0.009451,0.025569,-0.091393,7.062181,-5.821892,-20.204819,,,,,,,
1530639606.479025,0.032849,0.422754,-1.700983,0.094087,0.019495,0.452050,0.029951,-0.410273,-0.911471,-0.077284,0.019007,-0.101560,7.056475,-5.956863,-20.135216,,,,,,,
1530639606.498993,0.029406,0.425845,-1.694707,0.160111,-0.096921,0.202726,0.026776,-0.413090,-0.910296,-0.082990,0.009328,-0.073957,6.998796,-6.274734,-19.991707,,,,,,,
,,,,,,,,,,,,,,,,39.779223,-84.064365,292.941711,-1.000000,-1.000000,1530639606.481909,
1530639606.518962,0.026514,0.426957,-1.692979,-0.006340,-0.116712,0.039390,0.024131,-0.414103,-0.909910,-0.059989,0.010355,-0.024874,6.974291,-6.327461,-19.990677,,,,,,,
1530639606.538930,0.024962,0.425746,-1.692385,-0.076450,0.000474,0.018054,0.022731,-0.413000,-0.910447,-0.048885,0.000189,-0.021239,6.776525,-6.478340,-20.202538,,,,,,,
1530639606.558899,0.028946,0.423368,-1.692748,-0.133676,0.292360,-0.044642,0.026387,-0.410833,-0.911329,-0.065953,0.003118,0.004956,6.795298,-6.603226,-20.465912,,,,,,,
1530639606.578867,0.035566,0.420018,-1.693786,-0.171337,0.306802,-0.056034,0.032468,-0.407777,-0.912504,-0.055509,-0.005446,-0.015871,6.742868,-6.866035,-20.444313,,,,,,,
1530639606.598836,0.040488,0.416860,-1.694863,-0.137691,0.176581,-0.063488,0.037011,-0.404891,-0.913615,-0.035607,-0.007920,-0.044087,6.663919,-7.079094,-20.763107,,,,,,,
1530639606.618804,0.043409,0.414816,-1.696273,-0.087282,0.105965,-0.070838,0.039715,-0.403022,-0.914328,-0.020397,0.008719,-0.046899,6.520304,-7.492821,-21.089432,,,,,,,
1530639606.638773,0.045741,0.412939,-1.696910,-0.097274,0.131998,-0.003742,0.041881,-0.401303,-0.914987,-0.002636,0.015302,-0.029242,6.416193,-7.752632,-21.536354,,,,,,,
1530639606.658741,0.049461,0.411035,-1.695399,-0.097054,0.294701,0.094110,0.045323,-0.399559,-0.915586,0.011882,0.019783,-0.008898,6.207258,-7.638336,-22.178268,,,,,,,
1530639606.678709,0.056053,0.409111,-1.692175,-0.107119,0.450954,0.167234,0.051400,-0.397794,-0.916034,0.010398,0.032392,-0.004285,6.092127,-7.942871,-23.108818,,,,,,,
1530639606.698678,0.063907,0.407426,-1.687610,-0.076107,0.491417,0.221020,0.058636,-0.396248,-0.916269,0.016422,0.026558,0.004938,6.154150,-7.882484,-23.930710,,,,,,,
1530639606.718646,0.070228,0.407006,-1.682677,-0.006845,0.344591,0.218495,0.064438,-0.395861,-0.916047,0.027969,0.040179,0.003769,6.571329,-7.926514,-24.624191,,,,,,,
1530639606.738615,0.072211,0.407693,-1.678092,0.032068,0.111707,0.210487,0.066235,-0.396492,-0.915646,0.043568,0.051323,0.020336,6.943140,-7.840385,-25.451996,,,,,,,
1530639606.758583,0.070803,0.408006,-1.673019,-0.004040,-0.017848,0.269570,0.064937,-0.396780,-0.915614,0.041005,0.050588,0.071360,7.418447,-7.876526,-25.729980,,,,,,,
1530639606.778552,0.068029,0.407128,-1.666220,-0.120744,0.047079,0.304552,0.062420,-0.395974,-0.916138,0.032337,0.051965,0.095612,7.835886,-7.774452,-26.537308,,,,,,,
1530639606.798520,0.068209,0.403323,-1.659833,-0.227656,0.136588,0.296425,0.062688,-0.392477,-0.917623,0.011165,0.048834,0.103124,8.209421,-7.614655,-27.444588,,,,,,,
1530639606.818489,0.066547,0.400026,-1.651504,-0.147842,0.022047,0.413656,0.061248,-0.389442,-0.919012,0.014451,0.015586,0.084341,8.878714,-7.203308,-28.591354,,,,,,,
1530639606.838457,0.060437,0.398172,-1.642297,-0.127857,-0.230746,0.412220,0.055675,-0.387734,-0.920088,0.017445,0.008874,0.076598,9.773550,-6.478157,-29.725601,,,,,,,
1530639606.858426,0.050402,0.394426,-1.633208,-0.271498,-0.354337,0.412077,0.046513,-0.384278,-0.922045,0.011501,-0.020461,0.086962,10.769732,-5.752815,-30.546616,,,,,,,
1530639606.878394,0.039732,0.388282,-1.624015,-0.338494,-0.349800,0.397718,0.036765,-0.378599,-0.924830,-0.005560,-0.016696,0.052226,12.066881,-4.878510,-30.841042,,,,,,,
1530639606.898363,0.031177,0.382785,-1.616263,-0.244560,-0.201367,0.319774,0.028916,-0.373505,-0.927177,-0.047578,-0.014007,-0.041451,13.371313,-3.775284,-30.768173,,,,,,,
1530639606.918331,0.028864,0.379911,-1.610302,-0.123466,0.119205,0.251007,0.026802,-0.370838,-0.928311,-0.068154,-0.023678,-0.079669,14.858866,-3.331985,-30.270203,,,,,,,
1530639606.938300,0.034828,0.377113,-1.605066,-0.200069,0.621557,0.244537,0.032375,-0.368238,-0.929168,-0.081660,-0.032748,-0.052003,16.359037,-2.486832,-29.669983,,,,,,,
1530639606.958268,0.051177,0.370181,-1.599051,-0.484483,1.061995,0.261560,0.047690,-0.361784,-0.931041,-0.189123,-0.072969,-0.077549,18.866385,-1.255669,-29.381760,,,,,,,
1530639606.978237,0.073669,0.359038,-1.596460,-0.541676,1.170198,-0.057627,0.068909,-0.351374,-0.933696,-0.233948,-0.101217,-0.114217,20.348318,-0.407379,-29.355049,,,,,,,
1530639606.998205,0.092182,0.351239,-1.601066,-0.261317,0.634499,-0.346855,0.086431,-0.344061,-0.934961,-0.038748,-0.067255,-0.135978,20.786261,-0.503593,-28.790199,,,,,,,
1530639607.018174,0.107122,0.347947,-1.603149,-0.149778,0.743844,0.118404,0.100511,-0.340969,-0.934686,-0.013978,0.026226,-0.060340,20.593222,-0.841423,-28.463577,,,,,,,
1530639607.038141,0.119160,0.345310,-1.596855,-0.166715,0.716326,0.267290,0.111860,-0.338489,-0.934298,0.090059,0.004947,0.048525,20.713720,-0.972519,-28.287773,,,,,,,
1530639607.058111,0.127089,0.344404,-1.591449,0.055600,0.252528,0.278859,0.119304,-0.337636,-0.933685,0.060140,0.087697,-0.041916,20.868372,-1.174721,-28.005951,,,,,,,
1530639607.078079,0.125846,0.350837,-1.585039,0.393021,-0.021611,0.316000,0.117869,-0.343684,-0.931659,0.099813,-0.020208,-0.065427,20.893007,-1.044952,-28.178955,,,,,,,
1530639607.098047,0.124196,0.360207,-1.584872,0.509692,-0.112599,-0.100916,0.115927,-0.352468,-0.928616,-0.145346,-0.145319,-0.090168,20.862036,-1.208694,-27.845276,,,,,,,
1530639607.118016,0.123505,0.371394,-1.588479,0.561650,-0.013651,-0.044907,0.114792,-0.362915,-0.924724,0.058013,-0.041321,-0.113178,21.024157,-1.367012,-28.001579,,,,,,,
1530639607.137985,0.125140,0.380097,-1.590505,0.371225,0.022110,-0.098788,0.115906,-0.371010,-0.921367,0.074081,0.080559,0.028438,21.284449,-1.263214,-28.108681,,,,,,,
1530639607.157953,0.125963,0.385932,-1.597940,0.361017,-0.246377,-0.383624,0.116389,-0.376423,-0.919108,-0.043407,0.045597,-0.025442,21.587484,-1.110527,-27.713974,,,,,,,
1530639607.177922,0.115150,0.392885,-1.605063,0.382873,-0.853569,-0.219616,0.106142,-0.382855,-0.917691,0.064650,-0.085849,-0.045642,21.768255,-1.164894,-27.837990,,,,,,,
1530639607.197890,0.100246,0.404160,-1.609046,0.747240,-0.760107,-0.023522,0.092016,-0.393246,-0.914817,-0.018636,-0.015567,-0.029961,21.725187,-1.467453,-27.855759,,,,,,,
1530639607.217859,0.090800,0.419373,-1.609268,0.703442,-0.407459,0.066002,0.082818,-0.407188,-0.909582,0.005942,0.090492,-0.033030,21.814013,-1.945251,-28.309532,,,,,,,
1530639607.237827,0.083814,0.430067,-1.608656,0.413695,-0.255266,0.101102,0.076092,-0.416932,-0.905747,0.007755,-0.042465,0.003236,21.659174,-2.333313,-28.143250,,,,,,,
1530639607.257796,0.078179,0.432593,-1.606127,-0.059402,-0.274009,0.120079,0.070905,-0.419226,-0.905109,0.037295,-0.033121,0.024844,21.482359,-2.527725,-28.032547,,,,,,,
1530639607.277764,0.071451,0.426528,-1.603480,-0.451256,-0.274692,0.077883,0.064994,-0.413712,-0.908085,0.032860,0.026658,0.019413,20.976355,-2.783089,-28.029694,,,,,,,
1530639607.297733,0.064400,0.414224,-1.602800,-0.669272,-0.406133,-0.060637,0.058913,-0.402480,-0.913531,-0.003645,0.050628,0.017871,20.412912,-2.597000,-28.099144,,,,,,,
1530639607.317701,0.056561,0.400894,-1.603458,-0.638992,-0.400733,-0.044758,0.052048,-0.390242,-0.919240,0.055785,-0.028368,-0.004115,19.885035,-2.300148,-27.893646,,,,,,,
1530639607.337670,0.047729,0.389852,-1.601361,-0.526312,-0.402149,0.154640,0.044131,-0.380051,-0.923912,0.045011,-0.148605,0.017952,19.978029,-1.752731,-27.952209,,,,,,,
1530639607.357638,0.037782,0.380239,-1.595199,-0.499262,-0.361275,0.308777,0.035075,-0.371143,-0.927913,0.009832,-0.089703,0.013210,20.130381,-1.372047,-28.055779,,,,,,,
1530639607.377607,0.031217,0.371048,-1.588428,-0.428831,-0.108311,0.281199,0.029088,-0.362592,-0.931494,-0.052357,0.060026,0.011923,20.442785,-0.963745,-28.258064,,,,,,,
1530639607.397575,0.029581,0.365688,-1.584500,-0.179869,0.013209,0.096859,0.027621,-0.357592,-0.933469,-0.063586,0.116366,-0.005190,20.423151,-0.722466,-28.186882,,,,,,,
1530639607.417544,0.030354,0.365206,-1.586401,0.035430,-0.026764,-0.198984,0.028348,-0.357142,-0.933620,-0.055325,0.104960,0.007137,20.387766,-1.077682,-27.866493,,,,,,,
1530639607.437512,0.032733,0.366458,-1.593637,0.048516,0.001046,-0.389886,0.030554,-0.358311,-0.933102,-0.057532,0.094929,0.035596,19.966360,-0.986206,-27.243294,,,,,,,
1530639607.457481,0.035014,0.365997,-1.601023,-0.052954,-0.008430,-0.291784,0.032689,-0.357881,-0.933195,-0.065159,0.061448,0.004103,19.438910,-1.519730,-27.138893,,,,,,,
1530639607.477449,0.036799,0.362889,-1.605552,-0.202581,0.026342,-0.204821,0.034395,-0.354977,-0.934242,-0.085481,0.069760,0.045662,18.991003,-1.644600,-26.719330,,,,,,,
1530639607.497418,0.039583,0.357768,-1.610774,-0.235337,0.048011,-0.303590,0.037067,-0.350185,-0.935947,-0.049167,0.070491,0.048709,18.591024,-1.740311,-26.742203,,,,,,,
1530639607.517386,0.042637,0.353205,-1.618920,-0.194416,0.023514,-0.434648,0.039993,-0.345907,-0.937416,-0.041534,0.054326,0.033974,18.495867,-2.152588,-26.805557,,,,,,,
1530639607.537355,0.046973,0.349261,-1.628074,-0.163119,0.089612,-0.416329,0.044120,-0.342204,-0.938589,-0.039070,0.021433,0.018255,18.480600,-2.076454,-26.806450,,,,,,,
1530639607.557324,0.052606,0.345738,-1.636073,-0.136173,0.186493,-0.379478,0.049470,-0.338891,-0.939524,-0.062409,0.032235,0.026560,18.562590,-2.116707,-26.803719,,,,,,,
1530639607.577291,0.060278,0.343989,-1.643553,-0.022106,0.303289,-0.353165,0.056712,-0.337245,-0.939707,-0.036006,0.037181,0.008829,18.591574,-1.940041,-26.680931,,,,,,,
1530639607.597261,0.068312,0.344133,-1.651520,0.058922,0.226213,-0.385677,0.064257,-0.337381,-0.939173,-0.009752,0.001962,0.011087,18.721914,-2.080597,-26.694717,,,,,,,
1530639607.617229,0.075103,0.344136,-1.660304,-0.021404,0.193475,-0.436751,0.070633,-0.337383,-0.938714,-0.003891,-0.004597,0.016503,18.460569,-2.491180,-26.420380,,,,,,,
1530639607.637197,0.081844,0.342138,-1.669624,-0.042386,0.192369,-0.435452,0.077015,-0.335502,-0.938886,0.020398,-0.001717,-0.009081,18.072927,-2.453911,-26.562157,,,,,,,
1530639607.657166,0.088856,0.342919,-1.679300,0.171838,0.206904,-0.472177,0.083572,-0.336238,-0.938062,0.040299,-0.031941,-0.073138,17.901136,-3.021156,-26.354309,,,,,,,
1530639607.677135,0.098124,0.346730,-1.689810,0.292500,0.229003,-0.480909,0.092136,-0.339824,-0.935965,0.068264,-0.046559,0.022528,17.543291,-3.334633,-26.271622,,,,,,,
1530639607.697103,0.105788,0.354016,-1.700677,0.416170,0.285209,-0.473327,0.099043,-0.346668,-0.932744,0.047655,0.003986,-0.047587,17.344091,-3.461525,-26.019455,,,,,,,
1530639607.717072,0.110750,0.360413,-1.708717,0.336472,-0.058816,-0.207744,0.103422,-0.352661,-0.930018,0.097277,-0.088227,-0.060750,17.422178,-3.472076,-25.279594,,,,,,,
1530639607.737040,0.107155,0.363612,-1.710294,0.031485,-0.209403,0.032056,0.099958,-0.355652,-0.929258,0.072680,-0.073974,0.076566,17.450781,-3.511742,-24.749847,,,,,,,
1530639607.757009,0.104510,0.360808,-1.707031,-0.253040,-0.027205,0.197750,0.097603,-0.353030,-0.930507,0.085823,-0.046384,0.139232,17.707857,-3.467033,-24.155403,,,,,,,
1530639607.776977,0.100869,0.355982,-1.700933,-0.254909,-0.165914,0.301714,0.094385,-0.348511,-0.932541,0.064932,-0.029816,0.049713,17.664759,-3.319519,-23.245255,,,,,,,
1530639607.796946,0.094958,0.349423,-1.691356,-0.491662,-0.112204,0.527753,0.089086,-0.342355,-0.935338,0.102717,-0.090628,0.252385,17.130938,-3.269058,-22.324631,,,,,,,
1530639607.816914,0.089410,0.338236,-1.674656,-0.676493,-0.001530,0.814986,0.084231,-0.331824,-0.939573,0.212735,-0.120660,0.207930,16.010679,-3.213242,-21.815025,,,,,,,
1530639607.836883,0.079386,0.324436,-1.655170,-0.861489,-0.169661,0.872233,0.075166,-0.318774,-0.944845,0.153640,-0.033231,0.070624,14.379122,-3.338020,-21.519012,,,,,,,
1530639607.856852,0.076157,0.303736,-1.635474,-1.240125,0.275359,0.869791,0.072601,-0.299088,-0.951460,0.047363,0.027908,0.200605,13.236975,-3.624512,-21.183762,,,,,,,
1530639607.876820,0.074094,0.279473,-1.614035,-1.268086,0.129035,0.958902,0.071154,-0.275849,-0.958564,0.079069,-0.001357,0.037818,12.030111,-3.497948,-21.425262,,,,,,,
1530639607.896789,0.070250,0.257187,-1.594685,-1.091203,-0.023002,0.747049,0.067883,-0.254361,-0.964724,0.099048,0.091932,0.030199,10.888083,-3.401527,-21.241531,,,,,,,
1530639607.916757,0.064309,0.240689,-1.583990,-0.728815,-0.193286,0.291537,0.062412,-0.238372,-0.969166,0.077053,0.156188,-0.074306,10.233587,-3.180779,-21.144531,,,,,,,
1530639607.936726,0.060815,0.228760,-1.581063,-0.547457,-0.118745,0.039747,0.059194,-0.226770,-0.972148,-0.001074,0.110864,-0.039403,9.642195,-3.047325,-21.032860,,,,,,,
1530639607.956694,0.058883,0.219199,-1.578037,-0.457564,-0.032688,0.202057,0.057441,-0.217448,-0.974380,-0.026709,0.025935,-0.093445,9.045607,-2.785477,-21.174408,,,,,,,
1530639607.976663,0.056135,0.210094,-1.570558,-0.514766,-0.064962,0.402040,0.054872,-0.208552,-0.976471,-0.038087,-0.047018,-0.107987,8.694609,-2.946854,-21.211029,,,,,,,
1530639607.996631,0.053581,0.198914,-1.561317,-0.600884,-0.042960,0.417083,0.052499,-0.197605,-0.978875,-0.071160,-0.008175,-0.107032,8.528036,-2.649017,-21.119522,,,,,,,
1530639608.016600,0.050947,0.187657,-1.553971,-0.544100,-0.062933,0.269701,0.050031,-0.186558,-0.981169,-0.105496,0.039249,-0.147111,8.288046,-2.604240,-21.286362,,,,,,,
1530639608.036568,0.047833,0.179778,-1.550252,-0.299385,-0.160070,0.097299,0.047044,-0.178811,-0.982758,-0.107286,0.029595,-0.176330,8.074530,-2.316124,-21.420349,,,,,,,
1530639608.056537,0.044664,0.177944,-1.550424,0.029183,-0.136919,-0.073265,0.043944,-0.177006,-0.983228,-0.128783,0.014088,-0.166628,8.036562,-2.450935,-21.455307,,,,,,,
1530639608.076506,0.044879,0.181728,-1.552429,0.280796,0.078244,-0.070597,0.044125,-0.180729,-0.982543,-0.153546,-0.002483,-0.119676,7.954668,-2.329620,-21.627457,,,,,,,
1530639608.096474,0.048731,0.189884,-1.552833,0.476057,0.239771,0.028404,0.047836,-0.188745,-0.980860,-0.138427,-0.026953,-0.093557,7.858694,-2.381401,-21.519371,,,,,,,
1530639608.116443,0.053956,0.200894,-1.552763,0.585135,0.275082,0.025249,0.052846,-0.199546,-0.978462,-0.075841,-0.041619,-0.040535,8.045977,-2.608566,-21.355103,,,,,,,
1530639608.136411,0.058961,0.213024,-1.553348,0.609519,0.209052,-0.005525,0.057595,-0.211416,-0.975698,-0.015236,-0.035089,-0.001139,8.197351,-2.830681,-21.277573,,,,,,,
1530639608.156380,0.060173,0.224198,-1.555123,0.521125,-0.059691,-0.090004,0.058632,-0.222325,-0.973208,0.017678,-0.044582,0.020678,8.170046,-3.102081,-21.470940,,,,,,,
1530639608.176348,0.060521,0.232313,-1.557704,0.344890,0.051831,-0.085429,0.058859,-0.230229,-0.971355,0.014581,0.027470,0.079509,8.193167,-3.199081,-21.390907,,,,,,,
1530639608.196317,0.062189,0.236706,-1.558711,0.148262,0.087884,-0.021687,0.060416,-0.234501,-0.970237,0.048608,0.059758,0.116446,8.224680,-3.266563,-21.385269,,,,,,,
1530639608.216285,0.065953,0.236684,-1.559374,-0.086524,0.262506,-0.039909,0.064068,-0.234481,-0.970007,0.096714,0.046889,0.274878,8.366022,-3.412392,-21.545395,,,,,,,
1530639608.236254,0.074233,0.231972,-1.559478,-0.318568,0.478739,-0.009424,0.072178,-0.229897,-0.970535,0.160915,0.001000,0.450683,8.657427,-3.432304,-21.347733,,,,,,,
1530639608.256223,0.085025,0.222726,-1.558664,-0.571501,0.651993,0.011362,0.082825,-0.220890,-0.971776,0.162460,0.020618,0.561635,8.916037,-3.353683,-21.428413,,,,,,,
1530639608.276191,0.103985,0.207397,-1.557686,-0.870909,1.129497,-0.062953,0.101573,-0.205913,-0.973284,0.165852,0.117168,0.708590,9.093454,-3.114685,-21.375412,,,,,,,
1530639608.296160,0.133254,0.187545,-1.558427,-1.034505,1.689116,-0.205193,0.130530,-0.186447,-0.973755,0.164834,0.227325,0.717392,10.110189,-2.749275,-21.257111,,,,,,,
1530639608.316128,0.176266,0.167641,-1.561163,-0.859402,2.431886,-0.349072,0.172896,-0.166857,-0.970704,0.183091,0.319705,0.680695,11.039862,-2.335587,-20.948471,,,,,,,
1530639608.336097,0.225825,0.155277,-1.571993,-0.283398,1.560839,-1.006535,0.221217,-0.154653,-0.962884,0.155584,0.551000,0.386254,11.966635,-2.300629,-20.801552,,,,,,,
1530639608.356065,0.275323,0.148628,-1.609365,0.290136,2.686622,-2.439497,0.268861,-0.148082,-0.951728,0.084090,0.761058,0.544654,13.187445,-2.085770,-20.163353,,,,,,,
1530639608.376034,0.346771,0.136415,-1.673202,0.470505,3.167130,-3.609299,0.336705,-0.135992,-0.931738,0.200831,0.777044,0.676947,14.577734,-1.827408,-19.751518,,,,,,,
1530639608.396002,0.421787,0.113625,-1.753848,0.376362,3.388004,-4.416127,0.406752,-0.113381,-0.906475,0.091219,0.566064,0.680233,16.225145,-1.543785,-19.107994,,,,,,,
1530639608.415971,0.513589,0.076337,-1.839479,0.189732,4.958807,-4.716092,0.489875,-0.076263,-0.868450,-0.058723,0.528824,0.575360,18.259226,-0.829269,-17.887299,,,,,,,
1530639608.435939,0.652750,0.029734,-1.917757,0.240137,7.893101,-4.411280,0.607105,-0.029729,-0.794066,-0.118900,0.621145,0.429197,21.295877,-0.154892,-15.642616,,,,,,,
1530639608.455908,0.839262,-0.019671,-1.990277,0.947817,9.856933,-4.439556,0.744006,0.019670,-0.667883,0.054547,0.783125,0.131476,24.106714,0.889282,-12.214226,,,,,,,
1530639608.475877,1.021980,-0.086104,-2.077406,1.897072,8.667538,-5.852101,0.849982,0.085997,-0.519745,0.136621,0.588731,-0.229675,26.175917,2.396988,-8.283432,,,,,,,
1530639608.495845,1.140072,-0.190309,-2.181856,2.262328,5.292541,-7.738117,0.892258,0.189162,-0.409991,0.418227,0.606477,-0.494230,27.072542,5.189117,-5.717918,,,,,,,
1530639608.515814,1.182590,-0.330240,-2.292982,2.106288,2.840833,-8.861311,0.875575,0.324270,-0.358075,0.882680,0.631418,-0.750888,26.664259,8.811897,-3.974014,,,,,,,
1530639608.535782,1.198791,-0.473542,-2.398990,1.609689,3.184273,-7.897709,0.829086,0.456042,-0.323486,1.130295,0.421247,-1.001923,26.003931,12.071518,-2.964027,,,,,,,
1530639608.555751,1.226028,-0.584578,-2.475592,1.002477,3.074568,-5.574015,0.784871,0.551847,-0.281856,1.275371,-0.126631,-0.842870,25.118368,14.984367,-1.892830,,,,,,,
1530639608.575719,1.229367,-0.666448,-2.540862,1.245424,1.435422,-4.333427,0.740651,0.618198,-0.263187,1.478603,-0.523838,-0.933911,24.209589,16.953918,-1.147873,,,,,,,
1530639608.595688,1.195549,-0.726438,-2.609637,1.516685,0.043159,-3.356185,0.695528,0.664211,-0.273977,1.525770,-0.827404,-0.623118,23.203127,18.387062,-1.395294,,,,,,,
1530639608.615657,1.145054,-0.764565,-2.675951,1.455015,-0.289482,-2.343323,0.657261,0.692223,-0.298053,1.404614,-0.949822,-0.191098,22.575674,19.394875,-1.692261,,,,,,,
1530639608.635625,1.110435,-0.786756,-2.731923,1.252606,0.765170,-1.595132,0.632630,0.708067,-0.313720,1.112167,-0.865751,0.185302,22.126299,19.831482,-1.999344,,,,,,,
1530639608.655594,1.121180,-0.794169,-2.775841,1.244246,2.951936,-0.623535,0.631220,0.713282,-0.304615,0.952139,-0.871454,0.444599,21.869738,20.105881,-1.686264,,,,,,,
1530639608.675562,1.180229,-0.780469,-2.813610,1.699209,4.963053,0.504058,0.657072,0.703613,-0.270528,0.800753,-0.882324,0.422628,22.147253,19.696945,-1.102386,,,,,,,
1530639608.695531,1.265638,-0.750641,-2.835368,0.183216,4.370251,1.373711,0.697467,0.682108,-0.219700,0.588559,-0.538645,0.683735,22.747152,19.234756,0.419273,,,,,,,
1530639608.715499,1.364917,-0.721865,-2.766585,-2.923846,2.452831,2.306789,0.734724,0.660786,-0.153439,0.433550,0.065182,1.013683,23.277983,18.120712,2.154259,,,,,,,
1530639608.735468,1.469273,-0.679385,-2.688150,-2.122516,2.722064,2.925090,0.773953,0.628315,-0.078845,0.451129,-0.360523,0.006046,23.965681,16.885574,3.847809,,,,,,,
1530639608.755436,1.533215,-0.607425,-2.661563,-0.274897,2.281638,4.109050,0.820541,0.570755,-0.030851,0.494721,-0.289611,-0.485414,24.773588,15.247490,4.911285,,,,,,,
1530639608.775405,1.583171,-0.514725,-2.661138,0.235947,2.444293,4.987691,0.870362,0.492295,0.010771,0.159134,-0.182328,-0.241636,25.779863,13.184921,6.071648,,,,,,,
1530639608.795374,1.622039,-0.405940,-2.676301,0.772417,2.497807,5.684348,0.917526,0.394882,0.047058,0.114823,-0.080231,-0.301224,26.444536,10.472649,6.715034,,,,,,,
1530639608.815342,1.675074,-0.303773,-2.717926,2.103246,3.637584,4.745968,0.949031,0.299123,0.099323,-0.160365,0.177577,-0.640247,26.871027,8.050690,8.000343,,,,,,,
1530639608.835311,1.725208,-0.247300,-2.787653,3.516021,3.056906,2.287404,0.958041,0.244787,0.149120,-0.576266,0.804819,-0.717495,26.695040,6.931778,8.782356,,,,,,,
1530639608.855278,1.746318,-0.248256,-2.866146,3.629183,1.562642,-0.494970,0.954449,0.245714,0.169268,-0.873593,0.803465,-0.433932,26.146261,6.823158,9.170807,,,,,,,
1530639608.875248,1.769382,-0.301486,-2.908151,1.682635,1.842344,-3.175639,0.936129,0.296940,0.188385,-0.826449,0.853863,0.216828,25.468458,8.127502,9.497635,,,,,,,
1530639608.895216,1.798934,-0.394226,-2.905073,0.583089,0.927500,-5.401947,0.899370,0.384094,0.208816,-0.713961,0.521897,-0.080657,24.190599,10.171211,10.160995,,,,,,,
1530639608.915184,1.805994,-0.522394,-2.881325,0.385674,-0.840910,-6.998110,0.842767,0.498956,0.201955,-0.613671,0.221869,-0.232365,22.860735,12.467583,9.991783,,,,,,,
1530639608.935153,1.788939,-0.665159,-2.846394,0.062335,-2.380867,-7.302998,0.768172,0.617184,0.170280,-0.522978,-0.180264,-0.286125,21.386827,14.712997,9.387482,,,,,,,
1530639608.955122,1.760122,-0.806748,-2.800439,-0.379565,-3.306530,-7.357751,0.679488,0.722041,0.130204,-0.453276,-0.370158,-0.169739,19.825655,16.691795,8.602615,,,,,,,
1530639608.975091,1.736381,-0.957606,-2.740330,-0.648499,-3.537784,-8.065667,0.567608,0.817816,0.094856,-0.326413,-0.324927,-0.044472,17.840143,18.510612,7.854111,,,,,,,
1530639608.995059,1.748685,-1.123008,-2.651469,-0.901266,-2.993589,-8.846592,0.426140,0.901407,0.076615,-0.072517,-0.242594,0.086227,15.370070,20.214233,7.354500,,,,,,,
1530639609.015028,1.864683,-1.301994,-2.480213,-0.758569,-1.698632,-9.660469,0.254190,0.964090,0.076931,0.086615,-0.192788,0.143269,12.396021,21.744881,7.287132,,,,,,,
1530639609.034996,2.527227,-1.467210,-1.796680,-0.403956,0.066003,-10.239222,0.059602,0.994640,0.084490,0.173918,0.024708,0.133161,8.811316,22.548218,7.556961,,,,,,,
1530639609.054965,-2.153012,-1.402708,-0.217797,-0.629029,2.739806,-8.808903,-0.139732,0.985906,0.091991,0.426994,2.302042,0.244892,5.205397,22.652260,8.046883,,,,,,,
1530639609.074934,-1.970651,-1.325106,-0.148779,-1.876523,7.646307,-0.231118,-0.224039,0.969970,0.094684,0.932214,1.926622,0.268353,3.073278,22.552582,8.852043,,,,,,,
1530639609.094902,-2.099353,-1.361766,-0.469338,-2.653480,9.485851,4.214450,-0.179193,0.978233,0.104645,0.470865,1.390145,-0.221894,2.612169,22.243248,9.901215,,,,,,,
1530639609.114871,-2.409829,-1.393736,-0.966886,-2.319305,8.360824,3.899164,-0.117691,0.984366,0.131044,0.159225,0.560755,-0.392458,2.541380,21.954956,10.848770,,,,,,,
1530639609.134839,-2.498362,-1.436370,-1.172542,2.308351,3.943799,1.960510,-0.080384,0.990978,0.107239,-0.098587,-0.354626,-0.956558,2.360765,22.461075,10.621231,,,,,,,
1530639609.154808,-2.099221,-1.505065,-0.806757,3.980681,0.684184,1.046883,-0.056723,0.997840,0.033115,-0.161539,-0.572700,-0.493808,2.615635,22.835648,8.945763,,,,,,,
1530639609.174776,-0.775672,-1.508780,0.533912,3.762364,-1.706265,0.486556,-0.043395,0.998078,-0.044248,-0.144974,-0.451035,-0.167361,2.975275,23.533669,7.179535,,,,,,,
1530639609.194745,-0.493359,-1.472235,0.885065,0.880026,-4.084268,-0.150993,-0.046602,0.995147,-0.086667,-0.276320,0.040040,1.094236,3.550909,23.533768,6.076553,,,,,,,
1530639609.214714,-0.821626,-1.492413,0.635951,-2.642350,-3.786042,-0.168078,-0.057337,0.996930,-0.053326,-0.113668,0.303134,1.188718,3.941851,23.155022,6.607407,,,,,,,
1530639609.234682,-1.937421,-1.509321,-0.421547,-3.953039,-2.537213,0.170086,-0.057355,0.998111,0.022023,-0.097659,0.227689,0.521769,4.413748,22.329018,7.891106,,,,,,,
1530639609.254651,-2.680076,-1.455696,-1.132979,-3.814041,-1.110051,0.192741,-0.051142,0.993383,0.102832,-0.092718,0.231730,0.267133,4.733385,21.789841,9.288063,,,,,,,
1530639609.274619,-2.839883,-1.398518,-1.294097,-2.546172,0.638039,-0.112174,-0.050940,0.985197,0.163684,-0.064950,0.330645,0.175504,4.819906,20.992737,10.467216,,,,,,,
1530639609.294588,-2.838553,-1.362048,-1.322160,-1.503215,1.839251,-0.342917,-0.061844,0.978291,0.197792,-0.005783,0.322536,0.104775,4.448912,20.315788,11.058067,,,,,,,
1530639609.314557,-2.818512,-1.333205,-1.343577,-1.562068,1.967667,-0.073120,-0.074725,0.971908,0.223184,0.170718,0.341966,0.258689,3.865088,20.127739,11.822685,,,,,,,
1530639609.334525,-2.846456,-1.299614,-1.400999,-1.880305,1.006104,0.268609,-0.077916,0.963455,0.256288,0.149800,0.240082,-0.171480,3.626745,19.583435,12.045555,,,,,,,
1530639609.354494,-2.883177,-1.268597,-1.452575,-1.571897,0.509242,0.268313,-0.076057,0.954684,0.287738,0.046912,0.027631,-0.563434,3.425371,19.192963,12.362625,,,,,,,
1530639609.374462,-2.922007,-1.237766,-1.502888,-1.836132,0.426973,0.524185,-0.071209,0.945056,0.319058,0.296642,-0.088672,-0.051068,3.382288,18.786346,12.622040,,,,,,,
1530639609.394431,-2.959293,-1.202853,-1.554665,-1.820814,0.715678,0.439135,-0.065210,0.933069,0.353737,0.168588,-0.186563,-0.051109,3.458803,18.294502,13.106575,,,,,,,
1530639609.414399,-2.961297,-1.173777,-1.577511,-1.288709,1.047565,-0.008209,-0.069338,0.922218,0.380404,-0.074262,-0.174430,-0.155764,3.360434,17.963615,13.394821,,,,,,,
1530639609.434368,-2.948546,-1.155520,-1.580658,-0.683871,0.493793,-0.093908,-0.077401,0.915005,0.395948,-0.026039,-0.211666,-0.164778,3.251345,17.630394,13.585899,,,,,,,
1530639609.454337,-2.960891,-1.150042,-1.590013,-0.077665,-0.570054,0.308648,-0.073406,0.912781,0.401798,0.100185,-0.233460,-0.224170,3.266577,17.336823,13.550751,,,,,,,
1530639609.474305,-3.002494,-1.157194,-1.617026,0.453745,-0.901040,0.734951,-0.055725,0.915679,0.398028,0.137482,-0.249480,-0.236331,3.867426,17.249680,13.181976,,,,,,,
1530639609.494274,-3.049258,-1.172113,-1.653424,0.737377,-0.466586,0.792260,-0.035794,0.921573,0.386551,0.052441,-0.238177,-0.182297,4.173330,17.243591,12.826508,,,,,,,
1530639609.514242,-3.079209,-1.186647,-1.684332,0.595799,0.159052,0.520690,-0.023364,0.927117,0.374041,-0.012875,-0.219522,-0.059299,4.504229,17.289452,12.363251,,,,,,,
1530639609.534211,-3.084496,-1.194145,-1.697949,0.214079,0.415786,0.129102,-0.020989,0.929901,0.367210,-0.074699,-0.185166,-0.033210,4.643625,17.057037,12.168297,,,,,,,
1530639609.554180,-3.076457,-1.194495,-1.695151,-0.067906,0.141723,-0.134533,-0.023919,0.930030,0.366704,-0.156882,-0.180122,-0.059957,4.753778,17.052917,11.899239,,,,,,,
1530639609.574148,-3.069969,-1.192337,-1.684107,-0.061745,-0.412867,-0.233259,-0.026442,0.929235,0.368542,-0.269960,-0.187688,0.033253,4.807322,16.913254,11.817261,,,,,,,
1530639609.594117,-3.077614,-1.197111,-1.674126,0.494153,-1.118268,-0.100223,-0.023339,0.930988,0.364302,-0.356345,-0.205509,0.094102,4.914232,16.632294,11.302040,,,,,,,
1530639609.614085,-3.106275,-1.213022,-1.672097,0.908356,-1.755275,0.046517,-0.012365,0.936679,0.349971,-0.382929,-0.202380,0.121251,5.367582,16.635658,11.084206,,,,,,,
1530639609.634054,3.131790,-1.230978,-1.676474,0.858584,-2.201729,0.117157,0.003267,0.942815,0.333300,-0.241747,-0.130041,0.240248,5.905554,16.468704,10.552895,,,,,,,
1530639609.654023,3.073767,-1.245955,-1.687773,0.699800,-2.457096,0.176937,0.021630,0.947701,0.318424,-0.015222,0.009421,0.301068,6.604250,16.337799,9.829323,,,,,,,
1530639609.673990,3.006908,-1.258534,-1.706206,0.652958,-2.415718,0.261758,0.041252,0.951641,0.304429,0.240502,0.072788,0.303283,7.072462,16.078140,9.061829,,,,,,,
1530639609.693960,2.938809,-1.270824,-1.735302,0.684428,-1.702254,0.371638,0.059511,0.955345,0.289438,0.374021,0.076241,0.318594,7.488379,16.101089,8.171989,,,,,,,
1530639609.713930,2.880853,-1.279423,-1.773775,0.411638,-0.666417,0.491711,0.074056,0.957850,0.277557,0.431712,0.067281,0.372315,7.897715,15.944344,7.530922,,,,,,,
1530639609.733898,2.844600,-1.278593,-1.811043,-0.048036,0.332644,0.511138,0.084300,0.957612,0.275450,0.451741,0.007598,0.408663,8.002951,15.632698,6.908195,,,,,,,
1530639609.753867,2.846200,-1.275035,-1.825446,-0.067678,0.967112,0.074365,0.084851,0.956580,0.278844,0.219059,-0.062904,0.339839,8.030458,15.241554,6.424400,,,,,,,
1530639609.773835,2.863344,-1.281120,-1.828336,0.615145,0.896134,-0.070231,0.078458,0.958336,0.274656,0.009372,-0.140908,0.209017,7.951651,15.129013,5.874146,,,,,,,
1530639609.793804,2.859701,-1.305002,-1.841269,1.517342,0.171625,-0.223554,0.073069,0.964884,0.252308,-0.216471,0.115102,-0.056431,7.802607,14.984650,4.891403,,,,,,,
1530639609.813773,2.829966,-1.341521,-1.870156,1.971643,-0.246570,-0.112856,0.069683,0.973831,0.216325,-0.197094,0.167984,-0.080064,8.074411,14.519073,3.746445,,,,,,,
1530639609.833741,2.750160,-1.373619,-1.934134,1.434703,-1.333532,0.174513,0.074739,0.980623,0.181084,-0.077806,0.263136,-0.006463,8.068693,14.451698,2.272171,,,,,,,
1530639609.853710,2.692002,-1.379524,-1.958479,-0.252377,-1.648784,0.027050,0.082620,0.981763,0.171215,-0.262460,1.116976,0.867802,7.919760,14.562782,1.687302,,,,,,,
1530639609.873678,2.687891,-1.371145,-1.942042,-0.368372,-0.730676,0.083409,0.086926,0.980136,0.178262,-0.324642,0.485318,0.149939,7.883070,14.497398,0.921753,,,,,,,
1530639609.893647,2.661362,-1.369277,-1.949035,0.129874,-1.320320,0.081721,0.092469,0.979764,0.177517,-0.282884,-0.248990,-0.605923,7.740698,14.830109,0.468941,,,,,,,
1530639609.913616,2.600833,-1.376808,-1.967021,0.577366,-2.656002,-0.107451,0.099237,0.981243,0.165268,-0.326349,-0.513103,-0.704926,7.641626,14.696709,-0.585114,,,,,,,
1530639609.933584,2.509230,-1.391453,-1.992202,0.803180,-3.685017,-0.253952,0.105434,0.983961,0.143890,-0.312587,-0.621824,-0.536331,7.369776,14.824921,-1.239044,,,,,,,
1530639609.953553,2.395246,-1.407669,-2.027320,0.797397,-4.079854,-0.306483,0.110267,0.986724,0.119234,-0.267005,-0.580199,-0.342668,7.195726,14.417412,-2.397018,,,,,,,
1530639609.973521,2.283158,-1.422958,-2.057492,0.624535,-4.117409,-0.454736,0.111479,0.989092,0.096278,-0.263045,-0.238497,-0.266047,6.679296,14.457718,-3.692459,,,,,,,
1530639609.993490,2.207658,-1.438309,-2.052391,0.335164,-3.954282,-0.723733,0.106204,0.991236,0.078557,-0.259479,0.238424,-0.249394,6.016062,14.413094,-4.435089,,,,,,,
1530639610.013459,2.195729,-1.453605,-1.991789,0.031137,-3.323882,-0.878146,0.094825,0.993141,0.068405,-0.164191,0.443901,-0.216598,5.468672,14.365509,-4.776718,,,,,,,
1530639610.033427,2.256070,-1.464914,-1.878088,-0.262471,-2.184118,-0.780005,0.081827,0.994400,0.066887,-0.022531,0.347885,-0.137886,4.803587,14.604202,-5.113281,,,,,,,
1530639610.053396,2.361186,-1.470405,-1.744479,-0.283059,-0.916948,-0.601106,0.070514,0.994965,0.071221,0.078000,0.148574,-0.108148,4.358164,14.798592,-5.301521,,,,,,,
1530639610.073365,2.371068,-1.488243,-1.729879,1.223707,0.091362,-0.735268,0.057433,0.996594,0.059167,0.202226,-0.016828,-0.134332,4.043951,14.684372,-5.727623,,,,,,,
1530639610.093333,2.039344,-1.521956,-2.070104,2.079197,0.551523,-0.591176,0.043558,0.998808,0.022047,0.315100,-0.076231,-0.061597,3.822721,14.448112,-6.521126,,,,,,,
1530639610.113302,1.133585,-1.530932,-2.992592,1.858213,0.932291,-0.249408,0.036105,0.999206,-0.016875,0.346585,-0.111495,0.047988,3.652258,14.170479,-7.334930,,,,,,,
1530639610.133270,0.622167,-1.511727,2.762028,1.430911,0.587742,-0.051301,0.034406,0.998256,-0.047974,0.367999,-0.183391,0.058991,3.747568,13.746765,-8.044022,,,,,,,
1530639610.153239,0.448052,-1.491821,2.591811,0.977431,-0.696574,0.036861,0.034177,0.996883,-0.071106,0.380404,-0.204677,0.056533,3.371328,13.658592,-8.725761,,,,,,,
1530639610.173208,0.384277,-1.478178,2.549488,0.551661,-1.145604,0.178366,0.034672,0.995714,-0.085742,0.299831,-0.118028,0.066088,3.169022,13.207809,-9.134010,,,,,,,
1530639610.193176,0.388308,-1.468280,2.575203,0.371718,-1.063050,0.381290,0.038747,0.994750,-0.094718,0.253169,-0.068831,0.088721,2.764292,13.280624,-9.809158,,,,,,,
1530639610.213145,0.411865,-1.456257,2.621421,0.538590,-1.158832,0.495523,0.045751,0.993448,-0.104730,0.199213,-0.103799,0.053934,2.710684,12.759361,-10.081970,,,,,,,
1530639610.233113,0.413031,-1.439468,2.646138,0.811632,-1.147549,0.447368,0.052562,0.991389,-0.119940,0.134053,-0.135264,0.065664,2.468382,12.681786,-10.695190,,,,,,,
1530639610.253082,0.385993,-1.418455,2.638994,1.092755,-0.876178,0.302239,0.057132,0.988419,-0.140588,0.093457,-0.097473,0.099404,2.120939,11.999741,-11.230354,,,,,,,
1530639610.273051,0.340905,-1.393952,2.605096,1.327184,-0.399003,0.090647,0.058818,0.984404,-0.165800,0.067921,-0.023802,0.145933,1.861696,11.639374,-12.045914,,,,,,,
1530639610.293019,0.286709,-1.366762,2.553212,1.524933,-0.057604,-0.120127,0.057301,0.979257,-0.194351,0.050472,0.014899,0.190307,1.726133,11.303818,-12.610107,,,,,,,
1530639610.312988,0.232456,-1.334097,2.499054,1.865965,-0.138132,-0.144641,0.054020,0.972117,-0.228188,0.051616,0.136785,0.249779,1.597075,10.556679,-13.463684,,,,,,,
1530639610.332957,0.187655,-1.297946,2.460883,1.737530,-0.562489,-0.073058,0.050272,0.963007,-0.264747,0.071844,0.369879,0.444572,1.227652,9.976707,-14.459160,,,,,,,
1530639610.352925,0.151109,-1.279964,2.438879,0.319996,-0.832527,-0.226414,0.043166,0.958005,-0.283482,0.067888,0.298983,0.694844,0.825418,9.204521,-14.518684,,,,,,,
1530639610.372894,0.121524,-1.294027,2.422120,-1.122028,-0.561860,-0.347781,0.033125,0.961943,-0.271235,0.165300,0.143556,0.594507,0.419931,9.432121,-14.994858,,,,,,,
1530639610.392862,0.102432,-1.319639,2.415655,-1.175301,-0.769913,-0.110944,0.025412,0.968625,-0.247222,0.314828,0.245288,0.376983,-0.107563,9.724655,-15.480141,,,,,,,
1530639610.412831,0.097438,-1.337172,2.430814,-0.783469,-1.051472,0.198450,0.022522,0.972834,-0.230406,0.457947,0.461462,0.291853,-0.717840,10.013008,-15.986908,,,,,,,
1530639610.432800,0.118842,-1.354632,2.471467,-1.085648,-0.773956,0.469409,0.025430,0.976727,-0.212972,0.581229,0.544849,0.350285,-1.265102,10.256264,-16.387573,,,,,,,
1530639610.452768,0.203297,-1.383467,2.569103,-1.929453,-0.454527,0.930765,0.037601,0.982505,-0.182401,0.640347,0.409096,0.550794,-1.533628,10.937798,-16.672112,,,,,,,
1530639610.472737,0.442738,-1.424809,2.813583,-2.975158,0.218912,1.452070,0.062321,0.989363,-0.131443,0.478969,0.113741,0.576023,-1.671511,12.410515,-16.511597,,,,,,,
1530639610.492706,0.994049,-1.457146,-2.930088,-3.664485,1.128833,1.601861,0.095062,0.993549,-0.061841,0.126069,0.141537,0.338330,-1.282808,13.750824,-16.439735,,,,,,,
1530639610.512674,1.691320,-1.444510,-2.258522,-3.648067,1.693397,1.374681,0.125036,0.992036,0.015143,-0.071753,0.300993,-0.080008,-0.671579,15.215988,-16.278114,,,,,,,
1530639610.532643,2.103078,-1.399185,-1.878570,-3.186744,1.771133,1.126392,0.147144,0.985311,0.086666,-0.077290,0.360377,-0.415066,0.025806,16.534897,-15.592407,,,,,,,
1530639610.552611,2.303502,-1.350233,-1.702852,-2.590592,1.078670,0.823338,0.162633,0.975774,0.146338,-0.173955,0.536845,-0.588416,0.752661,18.011932,-15.359108,,,,,,,
1530639610.572580,2.406561,-1.312659,-1.602942,-1.921976,-0.196019,0.264329,0.171193,0.966867,0.189369,-0.378301,0.722235,-0.743919,0.894537,18.992752,-14.974480,,,,,,,
1530639610.592549,2.468373,-1.289494,-1.520744,-1.423732,-1.111128,-0.243675,0.173090,0.960695,0.217038,-0.530741,0.626921,-0.648114,0.569130,19.980598,-14.477783,,,,,,,
1530639610.612517,2.518739,-1.272839,-1.460437,-1.079557,0.293793,-0.047517,0.171254,0.955938,0.238440,-0.501469,0.152277,0.197259,0.472202,20.712372,-14.187004,,,,,,,
1530639610.632486,2.565653,-1.251997,-1.435854,-1.103717,1.485952,0.442747,0.170699,0.949612,0.262865,-0.170516,-0.066083,0.174391,0.701841,21.842903,-13.730949,,,,,,,
1530639610.652455,2.599325,-1.227956,-1.427705,-1.024845,1.081122,0.554278,0.173487,0.941804,0.287937,-0.144068,-0.125992,-0.374531,1.194706,22.290573,-13.392021,,,,,,,
1530639610.672423,2.609229,-1.207455,-1.432611,-0.731660,0.604782,0.620036,0.180390,0.934714,0.306215,-0.113374,-0.271628,-0.626558,1.638393,22.796127,-13.029465,,,,,,,
1530639610.692392,2.609572,-1.189749,-1.446002,-0.624275,0.685920,0.694777,0.188652,0.928276,0.320490,-0.041969,-0.339118,-0.524119,2.222385,23.372841,-12.759651,,,,,,,
1530639610.712360,2.611414,-1.169725,-1.461299,-0.786516,0.889597,0.781616,0.197423,0.920643,0.336808,0.007366,-0.345387,-0.398453,2.884365,23.597038,-12.686623,,,,,,,
1530639610.732328,2.626313,-1.148761,-1.469138,-0.823448,1.250031,0.543234,0.201851,0.912257,0.356431,-0.109627,-0.331004,-0.444246,3.398935,24.212761,-12.304535,,,,,,,
1530639610.752297,2.660782,-1.133639,-1.463836,-0.626925,1.607415,0.096353,0.195806,0.905959,0.375365,-0.204473,-0.386321,-0.538008,3.912138,24.535301,-12.080627,,,,,,,
1530639610.772265,2.707645,-1.127428,-1.448986,-0.280979,1.666183,-0.276978,0.180369,0.903312,0.389223,-0.224787,-0.451667,-0.621248,4.208654,24.749123,-11.618164,,,,,,,
1530639610.792234,2.755959,-1.130393,-1.427571,0.096126,1.255444,-0.602226,0.160353,0.904580,0.394996,-0.288054,-0.495705,-0.672035,4.591322,25.073723,-12.066139,,,,,,,
1530639610.812203,2.798880,-1.141626,-1.396693,0.397825,0.413107,-0.928749,0.139833,0.909311,0.391918,-0.375887,-0.540705,-0.649166,4.534407,24.700874,-12.294930,,,,,,,
1530639610.832171,2.834250,-1.159089,-1.354923,0.666250,-0.437598,-1.161127,0.121064,0.916439,0.381423,-0.429215,-0.589229,-0.513182,4.148272,24.769630,-12.809631,,,,,,,
1530639610.852140,2.858681,-1.183872,-1.311562,1.145345,-0.903810,-1.131810,0.105336,0.926074,0.362341,-0.429051,-0.637942,-0.282980,3.397242,24.653236,-13.513992,,,,,,,
1530639610.872108,2.860371,-1.224260,-1.293065,2.371891,-0.683077,-0.703792,0.094261,0.940555,0.326300,-0.476478,-0.536502,0.386621,3.066029,24.054893,-14.649956,,,,,,,
1530639610.892077,2.825195,-1.269748,-1.304007,1.638258,-1.929470,-0.339596,0.092261,0.955026,0.281802,-0.217108,0.286536,1.624127,2.649622,23.186043,-15.910118,,,,,,,
1530639610.912046,2.726573,-1.274349,-1.326636,-0.126442,-4.878500,0.609784,0.117787,0.956380,0.267325,0.451992,1.413996,1.456232,1.668913,23.204231,-16.402756,,,,,,,
1530639610.932014,2.578586,-1.262475,-1.375093,-0.162088,-4.740932,0.991550,0.161966,0.952844,0.256622,0.295233,1.645392,0.276444,0.639578,23.798935,-16.220650,,,,,,,
1530639610.951983,2.475653,-1.249868,-1.423088,-0.011502,-1.444478,0.961621,0.194883,0.948943,0.248048,0.296557,0.721589,0.641646,-0.068556,24.034119,-16.242088,,,,,,,
1530639610.971952,2.443019,-1.241611,-1.468789,0.265002,1.290688,0.678506,0.207905,0.946306,0.247549,0.071011,-0.192964,0.154032,0.359812,24.354240,-16.089470,,,,,,,
1530639610.991920,2.436745,-1.247497,-1.503265,0.783872,1.119015,-0.062325,0.205841,0.948192,0.241993,-0.210083,-0.417553,-0.734348,1.027124,24.442200,-16.459846,,,,,,,
1530639611.011889,2.438946,-1.269063,-1.516013,0.950570,0.465118,-0.813598,0.192047,0.954823,0.226785,-0.152633,-0.064274,-0.890100,1.091829,24.383255,-17.148827,,,,,,,
1530639611.031858,2.448971,-1.288838,-1.485464,0.079132,-2.266369,-0.874640,0.177671,0.960512,0.214125,0.133746,0.853681,-0.370588,0.541765,24.261398,-17.508934,,,,,,,
1530639611.051826,2.403948,-1.288392,-1.458279,-0.325643,-3.751963,0.061906,0.187416,0.960388,0.206228,0.327889,0.557724,0.037775,-0.615776,24.473778,-17.292770,,,,,,,
1530639611.071795,2.347374,-1.282609,-1.461533,-0.040047,-1.950525,0.230404,0.202735,0.958760,0.199190,-0.249122,-0.317449,-0.146578,-1.660753,24.913010,-16.841255,,,,,,,
1530639611.091763,2.312018,-1.285513,-1.473711,0.382287,-0.904848,-0.147619,0.207594,0.959582,0.190018,-0.393629,-0.478671,-0.435898,-2.219454,25.031319,-17.007095,,,,,,,
1530639611.111732,2.284903,-1.298823,-1.485644,0.631731,-0.794172,-0.519681,0.202999,0.963243,0.175938,-0.432949,-0.342256,-0.499180,-2.543896,24.740501,-17.316795,,,,,,,
1530639611.131701,2.263831,-1.317813,-1.488375,0.627763,-1.019646,-0.798979,0.192553,0.968170,0.159906,-0.438845,-0.044250,-0.480645,-3.104179,24.549362,-17.606918,,,,,,,
1530639611.151670,2.253229,-1.338687,-1.476468,0.496671,-1.114778,-0.924229,0.178513,0.973183,0.145076,-0.384171,0.306495,-0.425990,-3.790716,24.200401,-17.835266,,,,,,,
1530639611.171638,2.251885,-1.356814,-1.458420,0.386051,-0.815747,-0.740417,0.164973,0.977193,0.133705,-0.260249,0.347835,-0.318214,-4.581129,23.910599,-18.093697,,,,,,,
1530639611.191607,2.244242,-1.370857,-1.454280,0.435252,-0.459885,-0.481462,0.155247,0.980079,0.123868,-0.154133,0.126992,-0.241742,-5.090673,23.809959,-18.240936,,,,,,,
1530639611.211576,2.188412,-1.389578,-1.502591,1.477148,-0.493967,-0.550973,0.146932,0.983625,0.104368,-0.073613,-0.050596,-0.201994,-5.564409,23.311073,-18.644707,,,,,,,
1530639611.231544,1.975018,-1.423723,-1.704462,2.562753,-0.783609,-0.701998,0.134731,0.989204,0.057635,0.033085,-0.131584,-0.114169,-5.946993,22.652939,-19.747803,,,,,,,
1530639611.251513,1.622143,-1.447015,-2.047992,2.388152,-0.459173,-0.517384,0.123300,0.992349,0.006337,0.105551,-0.116555,0.045940,-6.450190,21.607689,-20.766106,,,,,,,
1530639611.271482,1.274488,-1.450108,-2.392910,1.857229,-0.223867,-0.357433,0.115147,0.992726,-0.035154,0.143047,-0.205754,0.118360,-6.708166,20.897919,-21.520027,,,,,,,
1530639611.291451,1.018862,-1.443103,-2.640987,1.358629,-0.694463,-0.286442,0.108436,0.991858,-0.066772,0.213052,-0.242850,0.136474,-7.165634,20.185921,-22.169380,,,,,,,
1530639611.311419,0.848597,-1.433984,-2.790197,0.895394,-1.361850,-0.174711,0.102336,0.990656,-0.090155,0.294087,-0.163065,0.136419,-7.913588,20.000000,-22.267822,,,,,,,
1530639611.331388,0.731954,-1.425914,-2.874277,0.630741,-1.841277,-0.114881,0.096489,0.989523,-0.107395,0.271950,-0.104376,0.132618,-8.698578,19.339134,-22.053017,,,,,,,
1530639611.351357,0.616350,-1.416842,-2.948856,0.803378,-2.233840,-0.185480,0.088644,0.988172,-0.125130,0.229197,-0.082395,0.132775,-9.770157,19.271912,-21.745361,,,,,,,
1530639611.371325,0.484130,-1.399286,-3.037780,1.332168,-2.111018,-0.092383,0.079437,0.985328,-0.151058,0.184678,-0.058280,0.187908,-10.747461,18.663315,-21.935387,,,,,,,
1530639611.391294,0.388723,-1.371802,-3.102655,1.508828,-1.200452,0.082685,0.074924,0.980266,-0.182936,0.128430,-0.005931,0.331694,-11.441946,18.275902,-22.130295,,,,,,,
1530639611.411263,0.339781,-1.347468,-3.141522,1.114967,-0.202944,0.004331,0.073814,0.975166,-0.208815,0.035256,-0.008201,0.462431,-11.730259,17.440010,-22.307343,,,,,,,
1530639611.431231,0.308786,-1.332956,3.108617,0.619612,0.114444,-0.213183,0.071601,0.971849,-0.224461,-0.033759,0.109007,0.542500,-11.872986,17.199364,-22.952042,,,,,,,
1530639611.451200,0.273806,-1.332174,3.071938,-0.162109,-0.012207,-0.538722,0.063913,0.971664,-0.227560,0.052726,0.340179,0.485953,-12.061789,17.049461,-22.776611,,,,,,,
1530639611.471168,0.228802,-1.349929,3.024165,-1.015566,0.189826,-0.819846,0.049689,0.975708,-0.213366,0.239252,0.236206,0.303759,-12.295528,17.049026,-22.944855,,,,,,,
1530639611.491137,0.185810,-1.373334,2.976080,-0.873359,0.058256,-0.637571,0.036243,0.980568,-0.192803,0.421597,0.094536,0.093713,-12.701426,17.341431,-22.473137,,,,,,,
1530639611.511106,0.143446,-1.377223,2.944422,0.273879,-0.875336,-0.099946,0.027500,0.981323,-0.190390,0.582364,0.201782,-0.032144,-13.111059,17.520744,-22.442055,,,,,,,
1530639611.531074,0.146075,-1.366764,2.966775,0.482996,-0.968921,0.492719,0.029492,0.979258,-0.200461,0.601275,0.333380,0.204383,-13.691998,17.707726,-22.463631,,,,,,,
1530639611.551043,0.191209,-1.362152,3.037254,-0.251173,-1.419707,0.902818,0.039365,0.978313,-0.203358,0.612185,0.430562,0.478367,-14.031230,17.884201,-22.264206,,,,,,,
1530639611.571012,0.304345,-1.383232,-3.096581,-2.162197,-1.593195,1.337590,0.055878,0.982461,-0.177897,0.575439,0.418296,1.011515,-14.610123,19.134834,-21.051079,,,,,,,
1530639611.590980,0.636307,-1.428060,-2.747018,-3.770757,0.053166,1.672221,0.084530,0.989830,-0.114412,0.277744,0.273841,0.940142,-14.459905,21.379990,-19.577164,,,,,,,
1530639611.610949,1.322685,-1.445713,-2.082850,-4.129436,2.193226,1.752154,0.120936,0.992187,-0.030637,0.032964,0.307755,0.437909,-13.427147,23.338860,-18.569603,,,,,,,
1530639611.630918,1.919635,-1.407681,-1.543193,-3.746639,3.485825,1.587135,0.152612,0.986726,0.055507,0.032050,0.309096,-0.239894,-11.964539,25.462814,-17.668236,,,,,,,
1530639611.650886,2.219981,-1.349521,-1.308934,-3.087479,3.417448,1.386724,0.174828,0.975618,0.132680,0.011909,0.390440,-0.535314,-10.574223,27.174736,-17.075493,,,,,,,
1530639611.670855,2.371488,-1.297543,-1.211231,-2.331989,2.351482,0.971235,0.187883,0.962898,0.193720,-0.121751,0.547066,-0.716730,-9.201677,27.939430,-16.847603,,,,,,,
1530639611.690824,2.448385,-1.262492,-1.154840,-1.565911,0.344471,0.309509,0.193903,0.952849,0.233409,-0.327661,0.707322,-0.907695,-8.478432,28.545715,-16.259537,,,,,,,
1530639611.710792,2.478809,-1.244039,-1.103688,-1.066329,-1.549735,-0.209703,0.197499,0.947088,0.253018,-0.452473,0.671763,-0.849301,-8.444799,28.920387,-15.826706,,,,,,,
1530639611.730760,2.484541,-1.231835,-1.055376,-0.941480,-1.928435,-0.207467,0.203091,0.943100,0.263278,-0.437283,0.353744,-0.523486,-8.758236,29.559097,-14.972809,,,,,,,
1530639611.750729,2.510514,-1.215029,-1.024609,-1.036492,1.071771,0.310607,0.205508,0.937380,0.281222,-0.231250,-0.018358,0.589490,-8.465717,30.372604,-14.334206,,,,,,,
1530639611.770697,2.564896,-1.190846,-1.016164,-1.083737,2.804726,0.660278,0.202222,0.928683,0.310892,-0.062634,-0.212176,0.102255,-7.397585,31.250587,-13.903839,,,,,,,
1530639611.790666,2.618001,-1.166978,-1.019141,-0.913778,2.622557,0.655429,0.196463,0.919567,0.340290,-0.144416,-0.300701,-0.471561,-6.233938,31.938438,-13.951279,,,,,,,
1530639611.810634,2.654404,-1.147517,-1.024684,-0.744647,1.699507,0.513281,0.192291,0.911747,0.362962,-0.158447,-0.359898,-0.666902,-5.261961,32.499275,-13.769569,,,,,,,
1530639611.830603,2.675361,-1.130110,-1.025678,-0.807098,0.776679,0.349874,0.191748,0.904459,0.381032,-0.143057,-0.428110,-0.618550,-4.703625,32.678665,-13.778412,,,,,,,
1530639611.850572,2.692674,-1.112750,-1.016722,-0.878589,0.360974,0.125380,0.191909,0.896918,0.398381,-0.185775,-0.466910,-0.548802,-4.488420,33.344109,-13.246941,,,,,,,
1530639611.870540,2.714677,-1.098489,-1.002407,-0.684232,0.584028,-0.052497,0.188375,0.890521,0.414109,-0.209127,-0.491870,-0.557648,-4.302458,33.747261,-12.627869,,,,,,,
1530639611.890509,2.744217,-1.092821,-0.988381,-0.173964,1.001523,-0.267314,0.178013,0.887928,0.424139,-0.276295,-0.503223,-0.630591,-4.046080,33.858582,-12.625610,,,,,,,
1530639611.910478,2.777976,-1.101021,-0.973822,0.527099,0.966006,-0.592045,0.161000,0.891670,0.423087,-0.382604,-0.523353,-0.707144,-4.124268,34.021294,-13.127525,,,,,,,
1530639611.930446,2.806715,-1.124600,-0.952091,1.182922,0.084421,-1.006660,0.141826,0.902095,0.407565,-0.485225,-0.558299,-0.696734,-4.613985,33.815117,-13.959518,,,,,,,
1530639611.950415,2.824175,-1.160566,-0.922371,1.674453,-0.704746,-1.208764,0.124477,0.917029,0.378897,-0.501675,-0.628607,-0.382132,-5.388121,33.486610,-14.739159,,,,,,,
1530639611.970384,2.837953,-1.203004,-0.896866,1.915276,-0.319591,-1.044463,0.107505,0.933124,0.343106,-0.394355,-0.492053,0.780795,-6.330177,32.810509,-16.218529,,,,,,,
1530639611.990352,2.841996,-1.224267,-0.870237,0.031690,-1.766866,-0.470523,0.100238,0.940557,0.324505,0.415326,0.472910,2.129887,-7.212839,32.825890,-16.737808,,,,,,,
1530639612.010321,2.795176,-1.219447,-0.865775,-0.011510,-2.688991,0.221143,0.116854,0.938909,0.323718,0.612745,1.541758,0.935773,-7.991732,33.242142,-16.348770,,,,,,,
1530639612.030290,2.718641,-1.222783,-0.902397,0.492269,-1.710805,0.659438,0.139977,0.940052,0.310978,0.416832,1.389065,0.179409,-8.350548,33.551933,-15.925247,,,,,,,
1530639612.050258,2.646540,-1.220732,-0.957409,0.216421,-0.506641,1.021946,0.162931,0.939351,0.301783,0.447863,0.466136,0.450109,-8.044390,34.031960,-15.990372,,,,,,,
1530639612.070227,2.605730,-1.214872,-1.014052,0.280166,1.154616,0.879360,0.177916,0.937325,0.299613,-0.092223,-0.305290,0.205972,-6.943295,34.387627,-16.155441,,,,,,,
1530639612.090196,2.597687,-1.218792,-1.041626,0.507579,0.414056,-0.113482,0.178417,0.938684,0.295026,-0.522426,-0.258309,-0.584348,-6.290987,34.383408,-16.608086,,,,,,,
1530639612.110165,2.608144,-1.237852,-1.018740,0.655973,-0.997195,-1.173431,0.166193,0.945084,0.281417,-0.442454,-0.112946,-0.996062,-6.839787,34.831345,-17.065704,,,,,,,
1530639612.130133,2.642742,-1.261030,-0.953440,0.343580,-1.556320,-1.558907,0.145839,0.952405,0.267687,-0.257289,0.263110,-0.766893,-7.952324,34.612320,-17.069221,,,,,,,
1530639612.150102,2.668663,-1.277147,-0.890076,0.330401,-1.731305,-0.838078,0.131842,0.957194,0.257676,0.006006,0.983312,0.153732,-9.068432,34.276306,-16.915184,,,,,,,
1530639612.170071,2.637356,-1.285576,-0.894377,0.435525,-1.179563,0.145997,0.135940,0.959600,0.246350,-0.080978,0.113063,-0.043240,-9.369020,34.072937,-16.938454,,,,,,,
1530639612.190039,2.587608,-1.292754,-0.923596,0.565020,-1.053306,0.080516,0.144395,0.961594,0.233421,-0.296845,-0.290955,-0.498070,-9.529625,34.110741,-16.686279,,,,,,,
1530639612.210008,2.558554,-1.306427,-0.933056,0.678751,-0.955530,-0.495081,0.143862,0.965257,0.218131,-0.346361,-0.326753,-0.501136,-9.890867,34.098457,-17.173302,,,,,,,
1530639612.229977,2.565222,-1.326560,-0.908188,0.645835,-0.827538,-0.963274,0.131785,0.970322,0.202748,-0.261561,-0.213807,-0.467137,-10.553919,33.883972,-17.152496,,,,,,,
1530639612.249945,2.601071,-1.347331,-0.856297,0.505179,-0.645646,-1.079529,0.114036,0.975135,0.190015,-0.146598,-0.082374,-0.425474,-11.544584,33.679825,-17.164062,,,,,,,
1530639612.269914,2.654288,-1.364297,-0.793579,0.361261,-0.233765,-0.930410,0.096006,0.978755,0.181167,-0.043806,0.117223,-0.370223,-12.132196,33.182152,-17.490387,,,,,,,
1530639612.289883,2.709428,-1.376955,-0.739782,0.333701,0.347181,-0.651212,0.080680,0.981272,0.174919,0.044091,0.232687,-0.311210,-12.640347,33.073997,-17.521683,,,,,,,
1530639612.309851,2.742241,-1.392195,-0.717097,1.118973,0.349197,-0.501034,0.069075,0.984093,0.163674,0.116395,0.109184,-0.286141,-12.624584,32.782600,-18.247032,,,,,,,
1530639612.329820,2.666814,-1.447036,-0.777497,3.425874,-1.347135,-0.826096,0.056430,0.992351,0.109788,0.172635,-0.115841,-0.418778,-13.109641,31.856918,-19.572128,,,,,,,
1530639612.349789,2.222628,-1.512797,-1.195359,3.616729,-1.236147,-0.442563,0.046079,0.998319,0.035163,0.274264,-0.126645,0.010080,-13.819551,30.568916,-21.115578,,,,,,,
1530639612.369757,0.970025,-1.519189,-2.426131,2.839634,-1.298214,-0.050622,0.042549,0.998669,-0.029157,0.273613,-0.270824,0.257246,-14.361610,29.125450,-22.866333,,,,,,,
1530639612.389726,0.542226,-1.488823,-2.818071,1.381530,-2.069688,0.154263,0.042253,0.996642,-0.070134,0.293013,-0.351363,0.545949,-14.945414,28.394112,-23.227463,,,,,,,
1530639612.409695,0.507491,-1.479195,-2.815664,-0.074277,-1.597767,0.303642,0.044454,0.995808,-0.079943,0.236079,-0.140079,0.571962,-15.589946,28.291077,-23.065201,,,,,,,
1530639612.429663,0.584956,-1.481047,-2.715608,-0.262459,-0.838481,0.342746,0.049489,0.995975,-0.074726,0.124858,-0.043003,0.372379,-15.962751,28.834351,-22.722702,,,,,,,
1530639612.449632,0.603260,-1.474622,-2.689902,0.473520,-0.052966,0.216812,0.054477,0.995379,-0.079074,0.073132,0.032392,0.195987,-16.053772,29.055405,-22.196678,,,,,,,
1530639612.469601,0.550631,-1.463570,-2.753794,0.655260,0.912913,-0.104026,0.055995,0.994257,-0.091200,0.071615,0.050543,0.140547,-15.686434,29.023468,-22.775299,,,,,,,
1530639612.489569,0.476621,-1.456531,-2.857258,0.562392,1.714488,-0.437824,0.052308,0.993479,-0.101308,0.080352,-0.000574,0.114645,-15.197623,28.925858,-23.618767,,,,,,,
1530639612.509538,0.391490,-1.447510,-2.981088,0.883388,1.899962,-0.455452,0.046923,0.992410,-0.113670,0.102964,-0.038690,0.037834,-14.405478,28.582993,-24.566200,,,,,,,
1530639612.529507,0.306918,-1.425270,-3.095991,1.560424,1.086992,-0.257355,0.043812,0.989430,-0.138237,0.116283,0.012798,-0.041160,-13.766866,28.248001,-25.742188,,,,,,,
1530639612.549475,0.237132,-1.392112,3.110546,1.785862,-0.192545,-0.094453,0.041753,0.984078,-0.172761,0.096827,0.127647,0.055177,-13.469756,27.182755,-27.393242,,,,,,,
1530639612.569444,0.178584,-1.364616,2.436533,1.087878,-1.400952,-0.116563,0.036366,0.978820,-0.201466,0.123805,0.256028,0.267308,-13.818827,26.852234,-27.622063,,,,,,,
1530639612.589413,0.118019,-1.360708,2.376679,-0.293732,-1.716043,-0.301794,0.024555,0.978012,-0.207097,0.234340,0.200973,0.435475,-14.718420,27.138306,-26.979851,,,,,,,
1530639612.609382,0.071493,-1.378568,2.360316,-1.047720,-1.467158,-0.179310,0.013647,0.981581,-0.190558,0.408686,0.167406,0.417457,-15.408525,27.669952,-25.854805,,,,,,,
1530639612.629350,0.043971,-1.392035,2.338831,-0.370574,-1.603002,0.116958,0.007816,0.984065,-0.177639,0.534893,0.285100,0.356243,-15.868668,28.200783,-25.166115,,,,,,,
1530639612.649319,0.057996,-1.396316,2.366933,-0.318796,-0.701093,0.432450,0.010062,0.984817,-0.173304,0.575753,0.363648,0.531993,-15.798270,28.759483,-24.571770,,,,,,,
1530639612.669288,0.145846,-1.413886,2.439836,-1.427694,0.617609,0.713793,0.022710,0.987715,-0.154608,0.598887,0.329836,0.739462,-14.950089,29.891403,-23.787872,,,,,,,
1530639612.689256,0.367442,-1.453638,2.634266,-2.703611,1.285594,0.917204,0.041991,0.993145,-0.109088,0.505815,0.171681,0.642459,-13.624079,31.443909,-22.665672,,,,,,,
1530639612.709225,0.997454,-1.490671,-3.058564,-3.440715,2.181997,1.268042,0.067241,0.996792,-0.043417,0.295781,0.102177,0.402228,-11.672825,33.749718,-20.891968,,,,,,,
1530639612.729194,1.897890,-1.469881,-2.221693,-3.564174,3.250376,1.464332,0.095402,0.994912,0.032368,0.098277,0.275733,-0.090245,-9.343355,35.624001,-19.302765,,,,,,,
1530639612.749162,2.290644,-1.409509,-1.897772,-3.198506,3.046833,1.507985,0.120746,0.987021,0.105870,0.106457,0.376382,-0.520543,-6.795198,37.170906,-17.414261,,,,,,,
1530639612.769131,2.436883,-1.348350,-1.800985,-2.660330,1.734944,1.385914,0.142917,0.975361,0.168065,0.004452,0.478436,-0.711995,-4.865829,38.654861,-15.312370,,,,,,,
1530639612.789100,2.490354,-1.297434,-1.763829,-2.105663,0.020485,1.051406,0.163649,0.962868,0.214717,-0.151060,0.549796,-0.780574,-3.516068,39.493313,-13.323875,,,,,,,
1530639612.809068,2.505018,-1.259651,-1.730951,-1.667785,-1.494851,0.502324,0.181988,0.951984,0.246185,-0.348706,0.629391,-0.727096,-3.077917,40.329449,-11.798042,,,,,,,
1530639612.829037,2.517353,-1.237674,-1.698400,-0.887729,-0.227257,0.103225,0.191122,0.945026,0.265327,-0.560462,0.717831,0.013894,-2.924496,40.619122,-10.393585,,,,,,,
1530639612.849006,2.553565,-1.223626,-1.687878,-0.730428,1.695371,0.312499,0.188737,0.940339,0.283090,-0.323442,0.344237,0.381537,-2.256872,40.946022,-9.572044,,,,,,,
1530639612.868974,2.593851,-1.203383,-1.682630,-1.052362,1.351214,0.449088,0.187058,0.933260,0.306651,-0.147812,-0.016496,-0.184397,-1.302164,41.081749,-8.589584,,,,,,,
1530639612.888943,2.617528,-1.180384,-1.676557,-1.009978,0.501409,0.416498,0.190438,0.924752,0.329494,-0.207329,-0.263696,-0.593898,-0.516565,41.339066,-7.680573,,,,,,,
1530639612.908912,2.627564,-1.164121,-1.679177,-0.516931,0.562124,0.393195,0.194491,0.918441,0.344439,-0.191607,-0.405517,-0.692675,0.137730,41.296349,-6.829819,,,,,,,
1530639612.928880,2.636357,-1.156358,-1.695269,-0.072725,1.326761,0.426658,0.194899,0.915343,0.352364,-0.139052,-0.482405,-0.621712,0.827650,41.401794,-6.363121,,,,,,,
,,,,,,,,,,,,,,,,39.779240,-84.064326,293.072235,-1.000000,-1.000000,1530639612.894039,
1530639612.948849,2.653076,-1.150047,-1.718349,-0.176618,1.908809,0.550291,0.191689,0.912783,0.360667,-0.036065,-0.489306,-0.409205,1.568457,41.474339,-6.267105,,,,,,,
1530639612.968818,2.678135,-1.138415,-1.738850,-0.429441,2.063386,0.558044,0.187326,0.907970,0.374831,-0.025965,-0.421597,-0.431930,2.514732,41.688454,-5.826363,,,,,,,
