timestamp(unix),attitude_roll(radians),attitude_pitch(radians),attitude_yaw(radians),rotation_rate_x(radians/s),rotation_rate_y(radians/s),rotation_rate_z(radians/s),gravity_x(G),gravity_y(G),gravity_z(G),user_acc_x(G),user_acc_y(G),user_acc_z(G),magnetic_field_x(microteslas),magnetic_field_y(microteslas),magnetic_field_z(microteslas),latitude(degree),longitude(degree),altitude(meter),speed(m/s),course(degree),timestamp(unix),User Mark
,,,,,,,,,,,,,,,,39.779201,-84.064428,293.006531,-1.000000,-1.000000,1530639172.456463,
1530639231.382948,0.073112,0.388210,-2.214505,-0.498832,0.016902,0.376409,0.067611,-0.378532,-0.923115,0.131928,0.040123,0.109593,4.843704,-1.766052,-25.085121,,,,,,,
,,,,,,,,,,,,,,,,39.779201,-84.064428,293.006531,-1.000000,-1.000000,1530639181.456463,
1530639231.402917,0.068722,0.375416,-2.203485,-0.728619,-0.030395,0.522073,0.063885,-0.366660,-0.928159,0.100787,0.025977,0.047193,5.410004,-1.513214,-25.001282,,,,,,,
1530639231.422885,0.063996,0.363739,-2.189866,-0.531297,0.025107,0.628088,0.059768,-0.355771,-0.932660,0.057618,0.029554,-0.044803,5.815437,-0.774345,-24.805115,,,,,,,
1530639231.442853,0.059959,0.357526,-2.175893,-0.254526,0.045928,0.637106,0.056133,-0.349958,-0.935082,0.023594,0.037839,-0.067695,6.048622,-0.621521,-24.733559,,,,,,,
,,,,,,,,,,,,,,,,39.779065,-84.064653,293.006531,-1.000000,-1.000000,1530639231.440185,
,,,,,,,,,,,,,,,,39.779065,-84.064653,293.006531,-1.000000,-1.000000,1530639231.446551,
1530639231.462822,0.058007,0.353928,-2.163339,-0.224269,0.135007,0.525043,0.054382,-0.346585,-0.936441,0.016724,0.006741,0.048822,6.539665,-0.425148,-24.084541,,,,,,,
1530639231.482790,0.066205,0.350291,-2.164035,-0.165363,0.493582,-0.406777,0.062139,-0.343171,-0.937215,-0.397573,-0.006866,0.052083,6.821934,-0.088463,-23.501389,,,,,,,
,,,,,,,,,,,,,,,,39.779065,-84.064653,293.006531,-1.000000,-1.000000,1530639231.487228,
1530639231.502759,0.077472,0.342734,-2.175773,-0.478897,0.262727,-0.531814,0.072894,-0.336064,-0.939014,-0.128878,-0.140835,0.046222,7.000706,0.420967,-22.767860,,,,,,,
,,,,,,,,,,,,,,,,39.779065,-84.064653,293.006531,-1.000000,-1.000000,1530639231.492529,
1530639231.522727,0.083690,0.327420,-2.179704,-0.921941,0.246519,-0.082815,0.079152,-0.321601,-0.943561,0.003749,-0.092477,0.066379,7.202015,0.796455,-22.545815,,,,,,,
1530639231.542695,0.089904,0.305112,-2.176912,-1.203140,0.443223,0.060262,0.085636,-0.300400,-0.949961,-0.060673,-0.014038,0.039728,7.831196,0.742386,-22.496239,,,,,,,
1530639231.562664,0.094051,0.278660,-2.171666,-1.443218,0.124486,0.188545,0.090290,-0.275067,-0.957176,0.027813,-0.000842,0.050422,8.163177,1.349312,-22.514694,,,,,,,
1530639231.582632,0.091575,0.248488,-2.162654,-1.595460,-0.081878,0.345567,0.088638,-0.245938,-0.965224,0.059021,-0.010897,0.096327,8.501003,1.811363,-22.562004,,,,,,,
1530639231.602601,0.068211,0.220134,-2.149928,-1.307536,-1.594558,0.696506,0.066513,-0.218360,-0.973599,0.288574,0.032554,-0.291813,8.725979,2.196953,-22.523476,,,,,,,
1530639231.622569,0.031714,0.205919,-2.129368,-0.358872,-1.276777,0.992066,0.031039,-0.204467,-0.978381,0.222059,-0.006700,-0.360593,8.720364,2.574181,-22.725914,,,,,,,
1530639231.642537,0.011182,0.203839,-2.119892,-0.158850,-0.817054,0.113150,0.010951,-0.202431,-0.979235,-0.341227,-0.059578,-0.179807,8.594620,2.583450,-22.961037,,,,,,,
1530639231.662506,-0.001186,0.192247,-2.121321,-0.833689,-0.515203,-0.084196,-0.001164,-0.191065,-0.981577,0.137349,0.020777,0.206155,8.406460,2.850746,-23.157654,,,,,,,
1530639231.682474,-0.004345,0.173708,-2.120820,-0.925165,0.117702,0.187308,-0.004280,-0.172836,-0.984941,-0.076073,-0.211243,0.087908,8.220757,3.527954,-22.976692,,,,,,,
1530639231.702442,0.000645,0.158068,-2.107690,-0.671000,0.448257,0.903409,0.000637,-0.157411,-0.987533,0.038212,-0.226348,0.052764,8.267738,3.686935,-22.978508,,,,,,,
1530639231.722411,0.006934,0.150201,-2.088321,-0.230367,0.382031,0.881135,0.006856,-0.149637,-0.988717,-0.007390,-0.039496,-0.114859,8.697865,3.411652,-23.007111,,,,,,,
1530639231.742379,0.010467,0.149899,-2.077046,0.077138,0.231125,0.340026,0.010349,-0.149339,-0.988732,-0.051106,0.157258,-0.112632,8.857918,3.480270,-22.860260,,,,,,,
1530639231.762348,0.015281,0.153687,-2.076564,0.259230,0.233204,-0.128909,0.015100,-0.153083,-0.988098,-0.055612,0.167731,-0.066101,9.170033,3.652435,-22.666336,,,,,,,
1530639231.782316,0.017950,0.160694,-2.081616,0.393662,0.010089,-0.277019,0.017717,-0.160003,-0.986957,0.008345,0.056930,-0.098415,9.197388,3.550491,-22.724068,,,,,,,
,,,,,,,,,,,,,,,,39.779147,-84.064491,292.818146,-1.000000,-1.000000,1530639231.773525,
1530639231.802284,0.018321,0.167692,-2.087048,0.310502,-0.019963,-0.237449,0.018063,-0.166907,-0.985807,0.017215,-0.019220,0.020734,8.776211,3.735443,-22.444603,,,,,,,
1530639231.822253,0.019844,0.171740,-2.090859,0.159817,0.097609,-0.151148,0.019550,-0.170897,-0.985095,-0.042072,-0.001481,0.094149,8.703674,3.597786,-22.714722,,,,,,,
1530639231.842221,0.022466,0.175333,-2.093962,0.213589,0.073548,-0.186355,0.022120,-0.174436,-0.984420,-0.044352,0.066892,-0.001038,8.599697,3.552437,-22.914116,,,,,,,
1530639231.862189,0.024419,0.180424,-2.100336,0.277051,0.021881,-0.380336,0.024020,-0.179446,-0.983474,-0.069934,0.122379,-0.016480,8.398987,3.537437,-22.779228,,,,,,,
1530639231.882158,0.025847,0.184821,-2.109544,0.186533,-0.020543,-0.466935,0.025404,-0.183771,-0.982641,-0.089994,0.090280,0.007177,8.357788,3.432076,-22.685036,,,,,,,
1530639231.902126,0.027570,0.186520,-2.118122,0.044255,0.020859,-0.381094,0.027088,-0.185441,-0.982282,-0.084812,0.035279,0.030195,8.565063,3.430405,-22.705658,,,,,,,
1530639231.922095,0.028752,0.186477,-2.125723,0.016116,-0.018732,-0.401474,0.028249,-0.185399,-0.982257,-0.097646,0.041523,0.001987,8.459114,3.582909,-22.480629,,,,,,,
1530639231.942063,0.030375,0.186842,-2.136461,0.076530,-0.010692,-0.609160,0.029842,-0.185756,-0.982143,-0.094234,0.091793,0.011958,8.085999,3.748253,-22.428299,,,,,,,
1530639231.962031,0.032373,0.188672,-2.149966,0.143025,-0.010351,-0.661633,0.031793,-0.187555,-0.981739,-0.061074,0.038461,-0.008022,8.191422,3.596924,-22.383102,,,,,,,
1530639231.982000,0.035452,0.190744,-2.161649,0.112382,0.112233,-0.507565,0.034802,-0.189590,-0.981246,-0.066769,-0.011170,0.042846,8.091076,3.696396,-22.202202,,,,,,,
1530639232.001968,0.040613,0.192492,-2.170472,0.114665,0.225223,-0.404587,0.039852,-0.191306,-0.980721,-0.057903,-0.003335,0.012612,7.907024,3.505211,-22.117004,,,,,,,
1530639232.021937,0.048301,0.195407,-2.179021,0.237607,0.297160,-0.436828,0.047363,-0.194166,-0.979825,0.035874,0.007536,-0.025760,7.992310,3.355995,-22.248138,,,,,,,
1530639232.041905,0.051419,0.200998,-2.190149,0.321679,-0.093784,-0.577659,0.050361,-0.199648,-0.978573,0.092232,-0.030378,-0.106739,8.103123,3.246315,-22.118874,,,,,,,
1530639232.061873,0.049244,0.205383,-2.202402,0.181363,-0.303344,-0.597667,0.048190,-0.203942,-0.977796,0.145612,-0.088462,-0.053347,7.988087,3.379272,-21.501183,,,,,,,
1530639232.081842,0.041869,0.204180,-2.214635,-0.172118,-0.536263,-0.582084,0.040988,-0.202764,-0.978369,0.038602,-0.044168,0.016806,7.583794,3.661781,-21.048859,,,,,,,
1530639232.101810,0.035823,0.197492,-2.223291,-0.338786,-0.309380,-0.338697,0.035119,-0.196210,-0.979933,0.062506,-0.021563,0.123731,6.967354,4.047607,-20.868134,,,,,,,
1530639232.121778,0.032522,0.193994,-2.227822,-0.015096,-0.169344,-0.171069,0.031906,-0.192779,-0.980723,-0.008713,-0.112580,0.088877,6.303211,4.609810,-20.720177,,,,,,,
1530639232.141747,0.032192,0.199768,-2.230443,0.460316,0.024244,-0.092156,0.031546,-0.198442,-0.979605,-0.028830,-0.086501,0.079443,6.051147,4.426353,-20.250832,,,,,,,
1530639232.161715,0.033859,0.213400,-2.232840,0.777137,-0.017710,-0.106523,0.033085,-0.211784,-0.976756,-0.051777,-0.061852,0.015666,5.845684,4.349792,-19.763756,,,,,,,
1530639232.181684,0.031265,0.230893,-2.235948,0.926244,-0.199768,-0.126249,0.030431,-0.228847,-0.972987,-0.131398,-0.029347,-0.149618,5.541935,4.023781,-19.349335,,,,,,,
1530639232.201652,0.032713,0.248174,-2.237289,0.810330,0.191966,0.061299,0.031705,-0.245634,-0.968844,-0.209271,0.146147,-0.078229,5.313496,3.970306,-18.857986,,,,,,,
1530639232.221620,0.036032,0.263143,-2.234831,0.714252,0.128511,0.142913,0.034784,-0.260117,-0.964950,-0.093301,0.100784,-0.059754,5.361633,3.977013,-18.846680,,,,,,,
1530639232.241589,0.032015,0.278172,-2.232503,0.813892,-0.386020,0.153387,0.030779,-0.274599,-0.961066,0.074446,-0.087126,-0.016687,5.054409,3.983131,-19.001022,,,,,,,
1530639232.261557,0.016149,0.296835,-2.232535,0.965104,-0.909670,-0.116068,0.015442,-0.292495,-0.956142,0.075867,-0.174256,-0.138050,4.346214,3.932465,-18.795372,,,,,,,
1530639232.281526,0.004054,0.310139,-2.236231,0.380909,-0.464599,-0.116325,0.003860,-0.305191,-0.952283,-0.006699,0.040329,0.033857,3.308456,3.762558,-18.477196,,,,,,,
1530639232.301494,0.001801,0.306783,-2.236262,-0.452129,0.043435,0.049243,0.001717,-0.301994,-0.953308,-0.111443,0.085197,0.063660,2.335377,3.846367,-18.474281,,,,,,,
1530639232.321462,0.004680,0.296584,-2.232726,-0.440905,0.252058,0.210826,0.004475,-0.292255,-0.956330,0.018581,0.022876,-0.055511,1.878216,3.617363,-18.700279,,,,,,,
1530639232.341430,0.008831,0.292488,-2.229191,-0.030304,0.282221,0.139728,0.008456,-0.288336,-0.957492,0.108915,-0.127268,0.030353,1.351818,3.600830,-19.079132,,,,,,,
1530639232.361398,0.011490,0.296713,-2.226772,0.302206,0.043698,0.135025,0.010988,-0.292378,-0.956240,0.080458,-0.136852,-0.023726,1.041958,3.325409,-19.136848,,,,,,,
1530639232.381367,0.012015,0.302118,-2.222328,0.197417,0.173192,0.251093,0.011470,-0.297543,-0.954639,0.001073,-0.003299,0.000492,0.867836,3.200417,-19.186798,,,,,,,
1530639232.401335,0.015862,0.302438,-2.217157,-0.081309,0.309272,0.221293,0.015141,-0.297848,-0.954493,-0.061192,0.057812,0.010279,0.625351,3.148895,-19.262527,,,,,,,
1530639232.421303,0.021091,0.300087,-2.214246,-0.107480,0.272671,0.087652,0.020147,-0.295604,-0.955098,-0.038534,0.021632,-0.023768,0.636135,3.216202,-19.247688,,,,,,,
1530639232.441272,0.024938,0.299992,-2.213747,0.037990,0.150708,-0.001846,0.023822,-0.295513,-0.955042,-0.039645,-0.004155,-0.012427,0.634930,3.228668,-19.140999,,,,,,,
1530639232.461240,0.027542,0.302735,-2.214022,0.180617,0.121963,-0.002429,0.026287,-0.298132,-0.954163,-0.048259,-0.009028,0.006302,0.597210,3.198349,-19.168205,,,,,,,
1530639232.481209,0.030335,0.306636,-2.212835,0.190219,0.187455,0.104558,0.028915,-0.301853,-0.952916,-0.030670,-0.022945,0.026936,0.499832,3.297806,-19.041672,,,,,,,
1530639232.501177,0.033043,0.309366,-2.209194,0.104397,0.204400,0.212333,0.031469,-0.304455,-0.952007,-0.030065,-0.027058,0.036067,0.580437,2.996704,-19.169327,,,,,,,
1530639232.521146,0.035510,0.310434,-2.203966,0.001219,0.218441,0.262031,0.033806,-0.305472,-0.951601,-0.005333,-0.020532,0.039903,0.584869,2.979820,-19.082016,,,,,,,
1530639232.541114,0.038642,0.309213,-2.198898,-0.103293,0.251898,0.218013,0.036800,-0.304309,-0.951862,-0.022624,0.001773,0.058719,0.429180,3.454712,-18.949974,,,,,,,
1530639232.561082,0.042539,0.307585,-2.194413,-0.058215,0.281683,0.218750,0.040531,-0.302758,-0.952205,-0.008884,-0.010642,0.011653,0.618938,2.999908,-19.013802,,,,,,,
1530639232.581051,0.045802,0.308900,-2.188853,0.103699,0.219266,0.297615,0.043619,-0.304011,-0.951669,0.013236,-0.015325,-0.052878,0.632095,3.040253,-18.942833,,,,,,,
1530639232.601019,0.047684,0.311511,-2.182538,0.095326,0.179535,0.296430,0.045372,-0.306497,-0.950789,0.021706,-0.001471,0.002196,0.648453,3.094429,-18.901703,,,,,,,
1530639232.620988,0.047897,0.312354,-2.177430,-0.019279,0.023425,0.208460,0.045562,-0.307300,-0.950521,0.033799,0.027148,-0.002543,0.660038,3.082489,-19.019951,,,,,,,
1530639232.640956,0.045036,0.310000,-2.174073,-0.194751,-0.149265,0.126452,0.042875,-0.305059,-0.951368,0.045352,0.030523,0.027433,0.522297,3.173141,-18.555099,,,,,,,
1530639232.660925,0.040265,0.304014,-2.171888,-0.360007,-0.217298,0.075038,0.038409,-0.299353,-0.953369,0.068006,0.030584,0.093185,0.556042,2.981544,-18.823555,,,,,,,
1530639232.680893,0.036214,0.295594,-2.169984,-0.453445,-0.133447,0.086147,0.034636,-0.291308,-0.956002,0.131472,0.029772,0.163384,0.463665,3.175926,-18.728195,,,,,,,
1530639232.700861,0.036392,0.285773,-2.167279,-0.524131,0.155490,0.131438,0.034908,-0.281899,-0.958809,0.196766,0.002114,0.258675,0.291615,3.516365,-18.789062,,,,,,,
1530639232.720830,0.041636,0.274559,-2.163311,-0.597034,0.418932,0.191724,0.040065,-0.271123,-0.961710,0.210454,-0.008449,0.327372,0.488571,3.580879,-18.739662,,,,,,,
1530639232.740798,0.053302,0.261668,-2.157900,-0.691975,0.813758,0.250721,0.051464,-0.258692,-0.964588,0.237858,0.034526,0.422901,0.654778,3.850670,-18.626602,,,,,,,
1530639232.760767,0.074243,0.248028,-2.152492,-0.683052,1.295599,0.173138,0.071905,-0.245493,-0.966728,0.238337,0.118204,0.467277,1.036137,4.112923,-18.715866,,,,,,,
1530639232.780735,0.105778,0.235991,-2.151222,-0.546668,1.775461,-0.103184,0.102654,-0.233807,-0.966849,0.179572,0.196896,0.542868,1.524776,4.208733,-18.507027,,,,,,,
1530639232.800704,0.147020,0.227072,-2.156068,-0.319979,2.048928,-0.389008,0.142731,-0.225126,-0.963818,0.161056,0.238203,0.623975,2.292854,4.388939,-18.554558,,,,,,,
1530639232.820672,0.183213,0.222955,-2.158520,-0.103100,1.651856,0.030622,0.177680,-0.221112,-0.958926,0.407906,0.212048,0.638934,2.868340,4.294662,-17.990410,,,,,,,
1530639232.840640,0.196239,0.219245,-2.165738,0.089887,1.667314,-0.617399,0.190314,-0.217493,-0.957328,0.786676,0.562815,0.180122,3.231220,4.427994,-17.871613,,,,,,,
1530639232.860609,0.269554,0.218402,-2.196081,0.350959,3.914114,-1.954264,0.259975,-0.216670,-0.940992,0.138523,0.345088,0.451582,4.016590,4.589241,-17.747482,,,,,,,
1530639232.880577,0.373725,0.217227,-2.253076,1.067601,4.762675,-3.054673,0.356505,-0.215522,-0.909095,-0.093947,0.449424,0.456962,5.520069,4.366730,-17.243118,,,,,,,
1530639232.900546,0.493795,0.212563,-2.329309,1.526401,5.512913,-3.653447,0.463303,-0.210966,-0.860722,-0.152344,0.584334,0.618046,7.277210,4.399467,-16.587082,,,,,,,
1530639232.920514,0.639877,0.203387,-2.415666,2.118641,7.008141,-3.916791,0.584789,-0.201988,-0.785635,-0.143779,0.563880,0.632009,9.144123,4.394745,-15.584007,,,,,,,
1530639232.940483,0.814933,0.185950,-2.511501,2.638912,8.138263,-4.218880,0.715134,-0.184880,-0.674092,-0.187180,0.447606,0.479298,11.426453,4.253159,-14.080704,,,,,,,
1530639232.960451,0.983411,0.148948,-2.614228,2.871481,7.092218,-4.936067,0.823175,-0.148398,-0.548050,-0.216928,0.444800,0.021423,13.395390,4.307625,-11.996529,,,,,,,
1530639232.980419,1.117299,0.072884,-2.718065,2.410563,5.540056,-6.502499,0.896532,-0.072819,-0.436948,-0.106462,0.729237,-0.061388,14.763008,5.199181,-10.244835,,,,,,,
1530639233.000388,1.219786,-0.042606,-2.809041,1.647044,4.788150,-7.244318,0.938172,0.042593,-0.343533,0.395874,0.863581,-0.741382,15.369434,6.904930,-8.821045,,,,,,,
1530639233.020356,1.274944,-0.169041,-2.869899,0.288429,1.714897,-6.708623,0.942917,0.168237,-0.287399,0.748413,0.333426,-0.897233,15.479366,8.703026,-7.334480,,,,,,,
1530639233.040325,1.293985,-0.285093,-2.899672,-0.444721,1.053381,-5.517622,0.923101,0.281247,-0.262258,0.906886,-0.290158,-1.065394,15.014793,10.778099,-6.696663,,,,,,,
1530639233.064037,1.297003,-0.396556,-2.926030,0.025793,0.116164,-4.423830,0.888036,0.386244,-0.249402,0.838297,-0.361143,-0.842059,14.022144,12.881271,-6.052933,,,,,,,
1530639233.084006,1.277334,-0.474953,-2.961816,0.707412,-0.370552,-4.153030,0.851292,0.457296,-0.257250,0.955471,-0.355352,-0.677366,13.275661,13.817871,-6.230759,,,,,,,
1530639233.103974,1.244629,-0.545833,-3.012922,1.244906,-0.300249,-3.968604,0.809631,0.519130,-0.273856,1.077042,-0.489803,-0.498971,12.315510,14.983131,-6.501640,,,,,,,
1530639233.123943,1.209654,-0.603302,-3.078571,1.866204,0.246461,-3.398817,0.770345,0.567365,-0.290965,1.101374,-0.680310,-0.267888,11.702591,15.456184,-6.570488,,,,,,,
1530639233.143911,1.175495,-0.641724,3.124486,2.604444,0.896488,-2.769386,0.739285,0.598577,-0.308478,1.036381,-0.721472,-0.109781,11.196651,15.481476,-6.821747,,,,,,,
1530639233.163880,1.148915,-0.660837,3.036072,2.517484,1.427163,-1.762873,0.720255,0.613778,-0.323273,1.014227,-0.784325,0.184204,11.049648,15.568268,-7.193291,,,,,,,
1530639233.183848,1.164695,-0.656777,3.047629,-1.828512,-0.026872,1.660866,0.727549,0.610568,-0.312849,1.883382,-0.881121,1.827741,11.150959,15.489990,-6.968819,,,,,,,
1530639233.203816,1.224869,-0.627114,3.135155,-2.940304,0.870670,2.822438,0.761755,0.586810,-0.274552,1.131098,-0.862994,0.805069,11.654018,15.260468,-6.120697,,,,,,,
1530639233.223785,1.298797,-0.594691,-3.068838,-2.237991,1.564034,2.454831,0.797866,0.560252,-0.222534,0.573930,-0.632030,0.405548,12.515850,14.624702,-5.123138,,,,,,,
1530639233.243753,1.360736,-0.544078,-3.019195,-0.921482,1.885876,3.422725,0.836794,0.517629,-0.178409,0.892759,-0.227102,0.081180,13.231739,13.567657,-4.537270,,,,,,,
1530639233.263722,1.414829,-0.466099,-2.995028,-0.091384,2.216643,4.240532,0.882482,0.449405,-0.138765,0.656596,0.009091,0.054064,14.112652,12.198586,-4.222000,,,,,,,
1530639233.283690,1.466481,-0.380153,-2.987718,0.438896,2.700880,4.270649,0.923557,0.371062,-0.096692,0.307293,0.019532,-0.061633,14.872044,10.472031,-3.649902,,,,,,,
1530639233.303659,1.524035,-0.291908,-3.003788,1.406577,3.404783,4.282060,0.956646,0.287780,-0.044766,0.244861,-0.136016,-0.423984,15.675541,8.799446,-3.091034,,,,,,,
1530639233.323627,1.582083,-0.202221,-3.040848,2.090786,3.127162,4.486969,0.979557,0.200846,0.011056,0.100231,0.049398,-0.506128,16.017864,7.078339,-2.392181,,,,,,,
1530639233.343596,1.630165,-0.129507,-3.085946,2.148573,2.462419,3.074600,0.989875,0.129145,0.058836,-0.388755,0.678304,-0.269774,16.265491,5.474274,-1.931374,,,,,,,
1530639233.363564,1.657345,-0.104248,3.141269,3.112265,1.307322,0.532848,0.990845,0.104059,0.085971,-0.820939,1.146505,-0.780810,16.336754,4.806992,-1.500633,,,,,,,
1530639233.383533,1.677757,-0.115354,3.069503,3.651215,1.666424,-0.497923,0.987674,0.115099,0.106047,-0.612125,1.130705,-0.684996,16.123482,4.285309,-1.563362,,,,,,,
1530639233.403501,1.707908,-0.135494,3.017418,1.834657,1.636544,-0.720276,0.981532,0.135080,0.135430,-0.500469,0.660162,0.204002,16.150478,4.045166,-1.022430,,,,,,,
1530639233.423469,1.715328,-0.153182,3.013332,-0.420044,-0.494350,-1.044091,0.977983,0.152583,0.142342,-0.468858,0.582036,0.432945,15.920872,4.339249,-0.938354,,,,,,,
1530639233.443438,1.681953,-0.179713,3.040760,-1.489957,-2.528178,-1.731665,0.977820,0.178747,0.109141,-0.417929,0.378596,-0.115565,15.635674,4.667122,-1.777702,,,,,,,
1530639233.463406,1.635269,-0.215927,3.079213,-1.803554,-2.589483,-2.110414,0.974746,0.214253,0.062932,-0.133605,0.446163,-0.025349,15.211517,5.274345,-2.305840,,,,,,,
1530639233.483375,1.603251,-0.268488,3.115331,-1.438441,-1.742996,-3.053930,0.963662,0.265274,0.031287,-0.045937,0.624619,0.015222,14.798973,5.904343,-3.351067,,,,,,,
1530639233.503343,1.579358,-0.326625,3.137769,-0.579739,-1.668576,-2.522386,0.947093,0.320848,0.008109,0.327489,0.415450,-0.090812,14.255695,6.996323,-3.866341,,,,,,,
1530639233.523312,1.543765,-0.344158,3.129322,0.532537,-1.143823,0.081540,0.941013,0.337404,-0.025443,0.928830,-0.454881,-0.603113,14.073044,6.974670,-4.301781,,,,,,,
1530639233.543280,1.529708,-0.324289,3.137506,-0.821766,-1.070093,1.296734,0.947074,0.318635,-0.038936,0.616937,-0.484544,0.496028,13.839996,7.024841,-4.712242,,,,,,,
1530639233.563249,1.506523,-0.306781,-3.122390,-1.114805,-1.525675,0.463963,0.951339,0.301992,-0.061230,0.182267,0.191417,0.018887,13.704769,6.999657,-5.110428,,,,,,,
1530639233.583217,1.488063,-0.320525,-3.103707,-0.796635,-1.062267,-1.272538,0.945821,0.315065,-0.078430,-0.117680,0.517973,0.008697,13.419819,7.113548,-5.453239,,,,,,,
1530639233.603186,1.472748,-0.362446,-3.096318,-0.395833,-0.765820,-2.335573,0.930538,0.354562,-0.091531,-0.388012,0.612418,-0.034720,12.983906,7.867035,-5.837868,,,,,,,
1530639233.623154,1.462037,-0.407020,-3.098992,0.053156,-0.424448,-2.235178,0.912875,0.395874,-0.099677,-0.448047,0.522079,-0.077645,12.700436,8.617012,-6.088974,,,,,,,
1530639233.643122,1.448172,-0.462315,-3.104975,-0.199930,-0.746358,-3.083904,0.888298,0.446021,-0.109476,-0.365136,0.172647,0.030771,12.383274,9.074654,-6.385025,,,,,,,
1530639233.663091,1.426075,-0.523959,-3.102928,-0.638904,-1.402377,-2.861291,0.856790,0.500312,-0.124868,-0.031198,-0.119636,-0.183207,11.654579,10.428902,-6.887856,,,,,,,
1530639233.683059,1.398189,-0.573788,-3.094542,-0.771810,-1.642616,-2.116851,0.827367,0.542817,-0.144245,0.004359,-0.527589,-0.250606,11.048031,10.889938,-7.163971,,,,,,,
1530639233.703028,1.373074,-0.609155,-3.084066,-0.739912,-1.483084,-1.402440,0.804150,0.572174,-0.161103,0.029972,-0.599244,-0.140136,10.263676,11.622551,-7.377174,,,,,,,
1530639233.722996,1.352902,-0.627077,-3.069488,-0.791105,-1.465521,-0.268282,0.790596,0.586781,-0.175045,0.305290,-0.667545,-0.073169,9.850868,11.874252,-7.795670,,,,,,,
1530639233.742965,1.334644,-0.616881,-3.045277,-0.869181,-1.718380,1.340489,0.793045,0.578493,-0.190841,0.642517,-0.784808,0.010390,9.577824,11.847641,-7.926170,,,,,,,
1530639233.762933,1.320840,-0.578944,-3.009177,-1.114357,-1.618819,2.598985,0.811025,0.547140,-0.207051,0.700282,-0.714682,0.203954,9.473984,11.454468,-8.298950,,,,,,,
1530639233.782902,1.322548,-0.531934,-2.960173,-1.615122,-0.921115,2.778093,0.835405,0.507201,-0.211756,0.599669,-0.483672,0.392267,9.611038,10.932655,-8.365715,,,,,,,
1530639233.802870,1.334172,-0.492557,-2.912593,-1.340436,-0.429898,2.130421,0.856571,0.472880,-0.206555,0.407193,-0.093089,0.060330,9.706276,10.665855,-8.327370,,,,,,,
1530639233.822839,1.346543,-0.463311,-2.885622,-0.514373,0.289503,1.503853,0.872175,0.446913,-0.198934,0.267764,0.128420,-0.082346,9.915470,10.329659,-8.455887,,,,,,,
1530639233.842807,1.361398,-0.439414,-2.879727,0.276094,0.726529,1.005724,0.885230,0.425409,-0.188123,0.264322,0.210318,-0.145083,10.069374,10.229782,-8.372398,,,,,,,
1530639233.862776,1.378521,-0.431595,-2.886755,0.362199,1.230354,-0.179145,0.891558,0.418320,-0.173569,-0.157870,0.394744,0.099396,10.092899,9.966644,-8.610962,,,,,,,
1530639233.882744,1.408927,-0.449638,-2.895372,0.187227,1.900126,-1.243940,0.888829,0.434640,-0.145144,-0.607838,0.414603,0.277423,10.208885,10.245789,-8.104324,,,,,,,
1530639233.902713,1.441392,-0.468220,-2.902483,0.150287,1.602684,-0.692776,0.884909,0.451299,-0.115154,-0.512290,0.232753,0.142605,10.209015,10.281441,-7.774986,,,,,,,
1530639233.922681,1.460493,-0.477699,-2.903052,-0.183505,0.478758,-0.497267,0.882656,0.459737,-0.097757,-0.458004,0.256846,0.270746,10.209679,10.424606,-7.928886,,,,,,,
1530639233.942650,1.454545,-0.498651,-2.891239,-0.957533,-1.221804,-1.341696,0.872298,0.478241,-0.101865,-0.565718,0.372803,0.223996,9.636482,11.002647,-8.355629,,,,,,,
1530639233.962618,1.426784,-0.544549,-2.862077,-1.904199,-2.530661,-2.629987,0.846504,0.518032,-0.122756,-0.684135,0.107059,0.069824,8.595154,11.701180,-8.589943,,,,,,,
1530639233.982586,1.394207,-0.621889,-2.822778,-2.391293,-2.707956,-4.106456,0.800137,0.582572,-0.142783,-0.695583,-0.009879,0.083014,7.201897,12.799355,-8.736679,,,,,,,
1530639234.002555,1.371532,-0.727002,-2.782947,-2.574497,-2.122173,-5.317170,0.732383,0.664633,-0.147900,-0.494544,-0.164923,0.161069,5.466408,13.872635,-8.815903,,,,,,,
1530639234.022523,1.363137,-0.856691,-2.745814,-2.614802,-1.493137,-6.563717,0.640868,0.755679,-0.135029,-0.223540,-0.188861,0.105656,3.454536,14.895416,-8.597961,,,,,,,
1530639234.042492,1.368479,-1.010587,-2.710809,-2.533136,-0.914441,-7.720128,0.520522,0.847144,-0.106771,0.403230,0.018609,0.030447,1.235634,15.453789,-8.256371,,,,,,,
1530639234.062460,1.377241,-1.177955,-2.692301,-1.737576,0.016883,-8.341041,0.375661,0.923825,-0.073633,1.370158,0.353320,-0.220724,-1.109837,15.644958,-8.468758,,,,,,,
1530639234.082429,1.338832,-1.349251,-2.754126,-0.361263,1.791804,-8.699835,0.213843,0.975559,-0.050513,1.440805,0.258724,-0.148797,-3.225534,15.105965,-8.798447,,,,,,,
1530639234.102397,0.649032,-1.502745,2.776884,1.028297,3.390840,-9.006765,0.041081,0.997685,-0.054148,1.106822,0.081553,0.015132,-4.681383,13.981812,-9.634544,,,,,,,
1530639234.122366,-0.975782,-1.407976,1.076210,2.024061,3.505838,-9.081546,-0.134234,0.986774,-0.090855,0.799700,-0.061725,-0.028163,-5.797626,12.272697,-10.752785,,,,,,,
1530639234.142334,-1.098231,-1.226477,0.878456,2.670507,3.520591,-9.010711,-0.300557,0.941305,-0.153644,0.625539,-0.113562,0.134708,-6.155348,10.193703,-11.866112,,,,,,,
1530639234.162303,-1.093984,-1.042003,0.802166,2.749339,3.743965,-8.910176,-0.448219,0.863417,-0.231535,0.566765,0.109285,0.306257,-5.860991,7.851616,-13.084427,,,,,,,
1530639234.182271,-1.072443,-0.912889,0.731971,-0.670161,4.026089,-4.050277,-0.537089,0.791274,-0.292266,0.512507,0.468767,0.557464,-5.000576,6.685081,-13.849236,,,,,,,
1530639234.202240,-1.144679,-0.992620,0.579112,-8.124221,1.800744,4.261632,-0.497626,0.837461,-0.225887,0.304038,0.337619,1.183025,-4.146400,8.356216,-13.636597,,,,,,,
1530639234.222208,-1.390631,-1.149688,0.296461,-8.561383,-0.842729,5.340698,-0.402152,0.912636,-0.073248,-0.530999,0.917793,-0.213892,-3.646929,11.211372,-12.537880,,,,,,,
1530639234.242177,-1.697043,-1.235785,-0.026199,-4.389531,0.358397,3.218298,-0.326158,0.944407,0.041396,-1.056502,0.847921,0.039017,-3.198084,13.074585,-11.918427,,,,,,,
1530639234.262145,-1.857006,-1.261584,-0.204818,-1.651384,0.111038,1.025464,-0.291923,0.952574,0.085910,-0.840631,0.331118,-0.535647,-2.881901,13.765205,-11.650879,,,,,,,
1530639234.282114,-1.927381,-1.256464,-0.252531,-0.357398,-2.030661,-0.457904,-0.289726,0.951003,0.107925,-0.711479,0.151948,-0.843872,-3.632366,14.431831,-11.834328,,,,,,,
1530639234.302082,-1.969300,-1.249770,-0.239725,0.235713,-2.879853,-0.126432,-0.290810,0.948912,0.122440,-0.469886,-0.232680,-0.581302,-4.505857,14.576935,-11.915985,,,,,,,
1530639234.322051,-2.025251,-1.261630,-0.239466,0.226766,-2.687813,0.837707,-0.273376,0.952588,0.133561,-0.437851,-0.382901,-0.347672,-5.171370,14.816460,-11.987679,,,,,,,
1530639234.342019,-2.090068,-1.274885,-0.263603,-0.235910,-1.648206,0.581261,-0.253166,0.956537,0.144709,-0.543877,-0.161920,0.059469,-5.729679,15.176994,-11.918755,,,,,,,
1530639234.361988,-2.158281,-1.268583,-0.313888,-1.147539,-0.699949,-0.172352,-0.247728,0.954680,0.164966,-0.347213,-0.032012,0.256054,-6.075665,15.934174,-11.883232,,,,,,,
1530639234.381956,-2.223403,-1.238648,-0.373735,-1.871094,-0.278106,-0.957473,-0.259063,0.945344,0.198008,-0.229936,-0.020326,0.027440,-6.496395,16.429237,-11.551865,,,,,,,
1530639234.401925,-2.278328,-1.192367,-0.427356,-2.366668,-0.280202,-1.269285,-0.280776,0.929246,0.240132,-0.045900,0.096282,-0.105290,-7.044783,16.807526,-10.915688,,,,,,,
1530639234.421893,-2.341146,-1.142578,-0.484836,-2.520448,-0.636925,-0.919920,-0.298009,0.909707,0.289173,0.199316,0.144614,-0.159122,-7.672525,17.561501,-10.396606,,,,,,,
1530639234.441862,-2.401473,-1.101998,-0.536161,-1.979070,-0.671350,-0.437288,-0.304691,0.892112,0.333612,0.296283,0.132638,-0.275369,-8.107798,18.097725,-9.634476,,,,,,,
1530639234.461830,-2.442773,-1.078938,-0.572266,-1.081262,-0.323968,0.049853,-0.303813,0.881457,0.361565,0.345698,0.040235,-0.316673,-8.450966,18.899521,-9.331284,,,,,,,
1530639234.481799,-2.467668,-1.070653,-0.595079,-0.475001,-0.256487,0.160189,-0.299266,0.877514,0.374709,0.081141,-0.203075,-0.296950,-8.427437,19.353821,-9.011444,,,,,,,
1530639234.501767,-2.482394,-1.066366,-0.605221,-0.262809,-0.275233,-0.012571,-0.296017,0.875450,0.382045,-0.095325,-0.302635,-0.275615,-8.583223,19.505043,-8.981850,,,,,,,
1530639234.521735,-2.485921,-1.061419,-0.607127,-0.206081,0.049227,-0.161523,-0.297304,0.873048,0.386515,-0.109389,-0.338090,-0.242441,-8.712393,19.777519,-8.877602,,,,,,,
1530639234.541704,-2.477998,-1.056463,-0.604098,-0.105909,0.361018,-0.236585,-0.303019,0.870621,0.387551,-0.059713,-0.354737,-0.263528,-8.703308,19.705826,-9.196709,,,,,,,
1530639234.561672,-2.462981,-1.053089,-0.595175,0.078109,0.313907,-0.297014,-0.310647,0.868956,0.385242,-0.021277,-0.390669,-0.323780,-8.775553,20.109245,-9.419930,,,,,,,
1530639234.581641,-2.448174,-1.052670,-0.580210,0.311994,-0.072578,-0.291669,-0.316549,0.868749,0.380879,0.020376,-0.465612,-0.348287,-8.907040,19.980705,-9.525063,,,,,,,
1530639234.601609,-2.436762,-1.057725,-0.559158,0.683576,-0.491744,-0.196272,-0.318026,0.871241,0.373893,0.068286,-0.523798,-0.306083,-8.927357,19.836670,-9.961525,,,,,,,
1530639234.621578,-2.420528,-1.071280,-0.526242,1.264235,-0.674367,-0.154806,-0.316227,0.877814,0.359777,0.085835,-0.448737,-0.143636,-9.103424,19.677284,-10.564667,,,,,,,
1530639234.641546,-2.388226,-1.093629,-0.474607,1.854510,-0.650373,-0.140494,-0.314180,0.888300,0.334981,0.054476,-0.275858,0.223445,-9.235012,19.404274,-11.060898,,,,,,,
1530639234.661515,-2.340410,-1.121143,-0.404932,2.136753,-0.825888,-0.155140,-0.312157,0.900598,0.302455,-0.006538,-0.021096,0.649129,-9.296602,18.961761,-12.338501,,,,,,,
1530639234.681483,-2.301377,-1.145291,-0.333001,1.756112,-1.680321,-0.136866,-0.307432,0.910830,0.275448,0.001524,0.358137,1.038151,-9.723019,18.791550,-12.739334,,,,,,,
1530639234.701452,-2.295345,-1.162282,-0.279845,1.133507,-2.221765,-0.031455,-0.297456,0.917712,0.263293,-0.040160,0.770688,1.061399,-10.370419,18.502777,-13.199760,,,,,,,
1530639234.721420,-2.310523,-1.173180,-0.261310,0.294779,-1.069094,0.301210,-0.286021,0.921987,0.261020,-0.101537,0.770182,0.701444,-10.921637,18.728004,-13.319771,,,,,,,
1530639234.741389,-2.333977,-1.174058,-0.288761,-0.748734,0.785175,0.395702,-0.279236,0.922326,0.267096,-0.084015,0.335883,0.558649,-10.799866,19.371109,-13.293289,,,,,,,
1530639234.761357,-2.345235,-1.161396,-0.335866,-1.166249,1.939440,-0.000884,-0.284537,0.917360,0.278367,-0.017633,-0.102998,0.265486,-10.263395,19.689850,-13.630600,,,,,,,
1530639234.781326,-2.316727,-1.146336,-0.346403,-0.206286,1.774129,-0.565202,-0.302469,0.911261,0.279489,-0.075811,-0.268301,-0.335947,-9.880781,20.146461,-13.741989,,,,,,,
1530639234.801294,-2.248896,-1.151291,-0.299094,1.576238,0.829792,-0.259815,-0.317197,0.913291,0.255509,-0.017886,-0.383917,-0.852113,-9.633760,19.977577,-14.339500,,,,,,,
1530639234.821263,-2.164084,-1.182126,-0.203495,2.741319,-1.003639,0.298085,-0.314196,0.925414,0.211871,-0.062040,-0.170256,-0.631030,-9.620235,19.555168,-15.224602,,,,,,,
1530639234.841231,-2.146337,-1.209422,-0.117393,1.574254,-3.899462,0.229701,-0.296599,0.935412,0.192438,-0.530992,0.998029,0.643576,-10.471260,19.289986,-15.614197,,,,,,,
1530639234.861200,-2.159175,-1.226954,-0.063417,1.182436,-2.590429,0.279017,-0.280418,0.941466,0.187098,-0.355034,0.338105,-0.010935,-11.491810,19.470154,-15.618835,,,,,,,
1530639234.881168,-2.149908,-1.246839,-0.014502,1.273478,-1.499550,0.404102,-0.266417,0.947983,0.174210,-0.166093,-0.327988,-0.494400,-12.003702,19.359146,-15.892593,,,,,,,
1530639234.901137,-2.108364,-1.266100,0.053232,1.475900,-1.023046,0.131377,-0.257688,0.953938,0.153615,-0.125247,-0.523808,-0.501897,-12.602417,19.379807,-16.213387,,,,,,,
1530639234.921105,-2.037380,-1.278365,0.151763,1.606644,-1.332277,-0.334197,-0.257465,0.957546,0.129679,-0.109631,-0.498226,-0.493723,-12.770195,18.880150,-16.388618,,,,,,,
1530639234.941074,-1.957919,-1.280470,0.270983,1.577873,-2.012536,-0.776132,-0.265080,0.958150,0.108072,-0.094524,-0.380498,-0.454828,-13.547911,18.428780,-16.577820,,,,,,,
1530639234.961042,-1.895019,-1.270381,0.388518,1.292280,-2.725749,-1.229507,-0.280498,0.955214,0.094270,-0.155461,-0.120863,-0.405733,-14.662109,17.741188,-16.672966,,,,,,,
1530639234.981011,-1.873057,-1.250824,0.471810,0.645804,-2.855358,-1.293340,-0.300281,0.949244,0.093632,-0.203717,0.185522,-0.311588,-16.136639,17.339966,-16.264038,,,,,,,
1530639235.000979,-1.889469,-1.232870,0.504191,0.014773,-1.944288,-0.833552,-0.314839,0.943444,0.103871,-0.123623,0.355979,-0.213261,-17.279858,17.162704,-15.622917,,,,,,,
1530639235.020948,-1.904523,-1.218844,0.512387,-0.083026,-0.649158,-0.703309,-0.325711,0.938701,0.112922,-0.021258,0.279515,-0.183357,-17.888519,17.214096,-15.533134,,,,,,,
1530639235.040916,-1.798456,-1.203302,0.592575,1.916303,2.759303,-1.373642,-0.350007,0.933231,0.081088,0.125428,0.178937,0.138776,-17.894855,16.427940,-16.157516,,,,,,,
1530639235.060885,-1.598526,-1.185264,0.735040,2.600142,3.339472,-1.015754,-0.375908,0.926598,0.010426,0.385033,0.028465,0.101207,-17.096611,15.323914,-17.747391,,,,,,,
1530639235.080853,-1.443399,-1.171413,0.856105,2.085133,1.243916,-0.306391,-0.385699,0.921301,-0.049405,0.523135,-0.020590,0.125378,-16.305376,14.306374,-19.227791,,,,,,,
1530639235.100822,-1.378483,-1.167528,0.929695,1.072599,-0.776114,0.200498,-0.385191,0.919783,-0.075004,0.464857,-0.110213,0.101036,-16.227810,13.723656,-19.822296,,,,,,,
1530639235.120790,-1.371708,-1.171087,0.963103,0.396366,-1.317664,0.323735,-0.381463,0.921174,-0.076964,0.305566,-0.163362,0.062667,-16.593035,13.290756,-19.875465,,,,,,,
1530639235.140759,-1.379425,-1.174202,0.981720,0.371600,-1.149704,0.141457,-0.379227,0.922382,-0.073472,0.224671,-0.135577,0.034700,-16.923044,13.426262,-19.654648,,,,,,,
1530639235.160727,-1.357067,-1.171300,1.020946,1.082904,-0.305245,-0.046485,-0.380103,0.921257,-0.082499,0.173499,-0.030174,0.120432,-17.307316,13.210358,-19.545471,,,,,,,
1530639235.180696,-1.284113,-1.163541,1.091751,1.561568,0.758468,-0.002237,-0.379924,0.918211,-0.112003,0.172053,0.048402,0.193226,-17.262806,12.796417,-19.995369,,,,,,,
1530639235.200664,-1.196126,-1.154323,1.163543,1.451048,1.253900,0.035842,-0.376472,0.914521,-0.148046,0.145439,0.040740,0.201513,-16.809473,11.897263,-20.788826,,,,,,,
1530639235.220633,-1.110038,-1.143405,1.228281,1.480286,1.386276,0.048035,-0.371271,0.910050,-0.184297,0.076822,0.038696,0.217423,-16.304258,11.433487,-21.540291,,,,,,,
1530639235.240601,-1.021227,-1.128864,1.299144,1.748329,1.010441,0.108073,-0.364709,0.903927,-0.223389,-0.051749,0.068302,0.329468,-15.659073,10.640839,-22.433731,,,,,,,
1530639235.260570,-0.958725,-1.112612,1.364472,1.465529,-0.386977,0.101115,-0.362020,0.896857,-0.254141,-0.138453,0.048532,0.447790,-15.559359,9.962776,-23.097183,,,,,,,
1530639235.280538,-0.950010,-1.102952,1.400901,0.619864,-1.558748,0.055949,-0.366822,0.892543,-0.262313,-0.133208,0.133413,0.490158,-16.405182,9.242485,-23.094009,,,,,,,
1530639235.300507,-0.980230,-1.099654,1.406275,-0.020057,-1.775572,-0.166921,-0.377024,0.891051,-0.252748,-0.036505,0.222597,0.338456,-17.139841,9.150436,-22.618835,,,,,,,
1530639235.320475,-1.028378,-1.096582,1.387370,-0.415197,-1.372697,-0.459514,-0.391094,0.889652,-0.235721,0.112224,0.289441,0.171207,-17.978573,9.340393,-22.227318,,,,,,,
1530639235.340444,-1.071166,-1.091908,1.357709,-0.408260,-0.397227,-0.562735,-0.404464,0.887508,-0.220766,0.243011,0.346303,0.167528,-18.335011,9.272308,-22.353813,,,,,,,
1530639235.360412,-1.060105,-1.082161,1.354820,0.576332,1.304222,-0.335308,-0.409526,0.882974,-0.229444,0.322139,0.479208,0.355435,-18.074421,9.061172,-22.737259,,,,,,,
1530639235.380381,-1.005410,-1.073045,1.386156,0.863612,0.949415,0.194868,-0.403150,0.878658,-0.255790,0.360212,0.640705,0.438712,-17.702179,8.543625,-23.442459,,,,,,,
1530639235.400350,-1.009122,-1.081002,1.402888,-0.515274,-2.121916,0.772848,-0.398167,0.882430,-0.250561,0.396901,0.757143,0.631283,-18.543207,9.203171,-23.162651,,,,,,,
1530639235.420318,-1.105718,-1.117322,1.364326,-2.228310,-3.303483,1.387238,-0.391560,0.898930,-0.196480,0.368229,0.603877,0.656716,-19.964241,10.240662,-21.837669,,,,,,,
1530639235.440287,-1.243334,-1.168700,1.272740,-2.968775,-2.208522,1.759562,-0.370552,0.920243,-0.125874,0.196876,0.318176,0.484547,-21.012161,12.448410,-20.241692,,,,,,,
1530639235.460255,-1.408202,-1.219296,1.122528,-3.472426,-0.742352,1.759058,-0.339766,0.938857,-0.055736,-0.079881,0.208756,0.281459,-21.342560,14.417549,-19.158722,,,,,,,
1530639235.480224,-1.617316,-1.255681,0.906472,-3.680287,-0.009777,1.511356,-0.309591,0.950761,0.014412,-0.104869,0.225295,-0.157357,-21.371986,16.847664,-18.236710,,,,,,,
1530639235.500192,-1.851224,-1.270832,0.655340,-3.547361,0.412408,1.274698,-0.283944,0.955347,0.081781,-0.205375,0.274008,-0.304620,-21.257050,18.900024,-17.435104,,,,,,,
1530639235.520161,-2.063243,-1.266660,0.422848,-3.074316,0.521214,1.002708,-0.263886,0.954106,0.141584,-0.373795,0.388851,-0.472974,-20.917137,20.672852,-16.634224,,,,,,,
1530639235.540129,-2.218116,-1.252378,0.250199,-2.321298,0.443319,0.737613,-0.249732,0.949732,0.188793,-0.612908,0.491858,-0.623440,-20.631863,21.775078,-16.108154,,,,,,,
1530639235.560098,-2.318367,-1.237657,0.135386,-1.664271,0.616715,0.535150,-0.239811,0.945020,0.222322,-0.757244,0.416079,-0.582429,-20.447401,22.872002,-15.567604,,,,,,,
1530639235.580066,-2.355701,-1.219660,0.051045,-1.735547,2.875339,0.217853,-0.243339,0.938982,0.243099,-0.689980,0.176511,0.391483,-19.679958,23.693741,-15.749565,,,,,,,
1530639235.600035,-2.381652,-1.190677,-0.029487,-2.198252,1.751766,-0.110506,-0.255595,0.928620,0.268952,-0.221151,-0.008363,0.053985,-19.035168,24.652489,-15.546410,,,,,,,
1530639235.620003,-2.439319,-1.156340,-0.092849,-1.934985,-0.937203,-0.307468,-0.260121,0.915335,0.307405,-0.016537,-0.131293,-0.601625,-19.503197,25.560455,-14.535095,,,,,,,
1530639235.639972,-2.505687,-1.128455,-0.128789,-1.355525,-1.815539,-0.230525,-0.254225,0.903752,0.344386,0.069579,-0.363942,-0.715129,-20.136959,26.071182,-13.649841,,,,,,,
1530639235.659940,-2.556529,-1.108642,-0.155889,-1.077716,-0.907699,0.014633,-0.246237,0.895094,0.371717,0.140035,-0.472257,-0.552183,-20.473583,26.613312,-12.567680,,,,,,,
1530639235.679909,-2.587665,-1.091813,-0.188394,-1.163973,0.341274,0.273953,-0.242435,0.887464,0.391959,0.172901,-0.476240,-0.431250,-20.445089,27.052231,-12.063187,,,,,,,
1530639235.699877,-2.607311,-1.074352,-0.230580,-1.288167,1.127268,0.438690,-0.242543,0.879282,0.409921,0.193685,-0.473261,-0.472879,-20.150669,27.864563,-11.729042,,,,,,,
1530639235.719846,-2.613076,-1.057340,-0.267957,-1.093756,1.456362,0.251620,-0.247684,0.871052,0.424170,0.107456,-0.507649,-0.643958,-19.656597,28.280243,-11.514099,,,,,,,
1530639235.739814,-2.597188,-1.043357,-0.285424,-0.631402,1.560368,-0.123818,-0.260675,0.864099,0.430560,0.013635,-0.584588,-0.771609,-19.300430,28.703590,-11.672546,,,,,,,
1530639235.759783,-2.567211,-1.035726,-0.280488,-0.028253,1.051997,-0.389393,-0.277037,0.860233,0.428076,-0.033159,-0.684757,-0.853064,-19.254658,28.770180,-12.258972,,,,,,,
1530639235.779751,-2.539352,-1.036795,-0.261129,0.509367,0.298529,-0.328658,-0.288333,0.860777,0.419435,-0.046689,-0.811629,-0.741060,-19.322145,28.668068,-12.631516,,,,,,,
1530639235.799720,-2.514536,-1.049026,-0.238223,1.083296,0.417386,0.016317,-0.292452,0.866938,0.403595,-0.072859,-0.914439,-0.265213,-19.356920,28.558594,-13.754471,,,,,,,
1530639235.819688,-2.454687,-1.075858,-0.195854,1.945178,1.353071,-0.121020,-0.301206,0.879998,0.367258,-0.117221,-0.620553,0.823141,-19.301422,28.417503,-15.088310,,,,,,,
1530639235.839657,-2.430351,-1.086989,-0.156410,0.325839,-1.735398,-0.405535,-0.303640,0.885230,0.352378,-0.164331,0.545327,2.219537,-19.789143,27.836586,-15.442917,,,,,,,
1530639235.859625,-2.439868,-1.090588,-0.411044,0.950548,-1.263081,-0.252454,-0.298214,0.886899,0.352816,-0.226597,1.645404,1.202757,-20.631275,28.054771,-15.295784,,,,,,,
1530639235.879594,-2.437400,-1.113361,-0.395041,1.143960,-0.925395,0.712390,-0.285931,0.897188,0.336596,-0.247607,1.427199,0.164366,-20.563377,27.966942,-15.880966,,,,,,,
1530639235.899562,-2.467911,-1.134526,-0.417957,0.249345,-0.422396,0.970258,-0.263623,0.906334,0.330245,-0.048633,0.535500,0.472764,-20.378242,28.503517,-15.732323,,,,,,,
1530639235.919531,-2.475582,-1.147561,-0.450216,0.288909,1.449484,0.701685,-0.253760,0.911765,0.322940,-0.034753,-0.434684,0.329923,-19.837986,29.200172,-16.092255,,,,,,,
1530639235.939500,-2.429321,-1.162896,-0.429379,1.273196,0.885115,-0.263867,-0.259254,0.917956,0.300241,-0.288170,-0.509081,-0.682459,-19.272825,29.186920,-16.767387,,,,,,,
1530639235.959468,-2.345766,-1.177089,-0.343120,1.812570,-0.223243,-0.924236,-0.274070,0.923493,0.268413,-0.249199,-0.224473,-0.992382,-19.616161,28.774796,-18.054016,,,,,,,
1530639235.979437,-2.286029,-1.184369,-0.250589,1.204743,-1.997897,-0.800122,-0.284523,0.926262,0.247156,-0.295677,0.504448,-0.693063,-20.568262,28.152977,-18.430420,,,,,,,
1530639235.999405,-2.304091,-1.188952,-0.216121,0.462569,-2.395605,0.076242,-0.276856,0.927979,0.249411,-0.123794,0.824172,0.194559,-21.432449,28.060356,-17.867294,,,,,,,
1530639236.019374,-2.330552,-1.200666,-0.209854,0.581271,-1.313908,0.410214,-0.262261,0.932280,0.249144,-0.035987,-0.013014,-0.277678,-21.921410,28.141922,-17.217484,,,,,,,
1530639236.039342,-2.332183,-1.216603,-0.191779,0.958078,-0.940772,0.231121,-0.251066,0.937927,0.239290,-0.117571,-0.354476,-0.574373,-22.020058,28.168083,-17.232513,,,,,,,
1530639236.059311,-2.299222,-1.232304,-0.137291,1.386906,-1.068804,-0.271268,-0.247795,0.943256,0.221054,-0.130303,-0.389133,-0.573212,-22.478483,28.056061,-17.507866,,,,,,,
1530639236.079279,-2.233067,-1.242726,-0.041493,1.602080,-1.420668,-0.801579,-0.254099,0.946666,0.198134,-0.150075,-0.312541,-0.526488,-23.266232,27.564644,-17.772118,,,,,,,
1530639236.099248,-2.162115,-1.244938,0.069929,1.420230,-1.937022,-0.993024,-0.265766,0.947376,0.178453,-0.165844,-0.117954,-0.459688,-24.195370,26.637215,-17.775734,,,,,,,
1530639236.119216,-2.120958,-1.242683,0.156905,0.928426,-2.100928,-0.734043,-0.274704,0.946652,0.168484,-0.189834,0.113407,-0.375912,-25.396698,26.168800,-17.443634,,,,,,,
1530639236.139185,-2.106189,-1.240113,0.207970,0.537123,-1.442453,-0.474319,-0.279253,0.945821,0.165648,-0.167250,0.181911,-0.270049,-26.395536,25.903206,-17.008018,,,,,,,
1530639236.159153,-2.081964,-1.235960,0.247881,0.522214,-0.263670,-0.604372,-0.286607,0.944464,0.160756,-0.090987,0.116998,-0.200016,-26.777134,25.802620,-16.425728,,,,,,,
1530639236.179122,-1.954074,-1.229367,0.345941,1.917294,2.815780,-1.239649,-0.310537,0.942277,0.125214,0.055975,0.026198,0.063125,-26.735825,24.713051,-17.994530,,,,,,,
1530639236.199090,-1.731634,-1.220649,0.494186,2.452368,4.425146,-0.924822,-0.338605,0.939322,0.054935,0.268003,-0.128455,0.058056,-25.453533,23.417862,-20.686569,,,,,,,
1530639236.219059,-1.508170,-1.210526,0.634667,2.563384,4.028153,-0.511610,-0.351833,0.935802,-0.022063,0.363307,-0.166530,0.113432,-23.672817,21.988579,-23.937683,,,,,,,
1530639236.239027,-1.348754,-1.196064,0.768216,2.324796,-0.027397,-0.215852,-0.357035,0.930606,-0.080606,0.509149,-0.150546,0.192071,-23.018719,20.580101,-25.994026,,,,,,,
1530639236.258996,-1.305236,-1.191269,0.854392,1.169899,-2.532756,0.400220,-0.357492,0.928840,-0.097232,0.402567,-0.121863,0.216983,-23.626724,20.117119,-25.855972,,,,,,,
1530639236.278964,-1.314271,-1.197609,0.901821,0.659447,-2.598412,0.500253,-0.352653,0.931170,-0.092503,0.218208,-0.063006,0.181415,-25.065905,20.265160,-25.130104,,,,,,,
1530639236.298933,-1.305222,-1.196855,0.952565,1.183332,-1.375363,0.009835,-0.352479,0.930895,-0.095874,0.065934,-0.052782,0.242572,-25.938658,20.137085,-24.569664,,,,,,,
1530639236.318902,-1.236029,-1.183093,1.030399,1.770914,0.394179,-0.331944,-0.357075,0.925780,-0.124212,0.038654,0.012300,0.301199,-26.280796,19.686760,-24.923943,,,,,,,
1530639236.338870,-1.148736,-1.162612,1.102019,1.594623,1.238566,-0.467278,-0.362110,0.917843,-0.162604,0.057866,0.104542,0.259101,-25.973843,18.847038,-25.964851,,,,,,,
1530639236.358840,-1.073218,-1.141383,1.150737,1.301246,1.561272,-0.505734,-0.365852,0.909210,-0.198717,0.056343,0.070709,0.323671,-25.348454,18.088791,-27.147064,,,,,,,
1530639236.378808,-1.012880,-1.120617,1.185289,1.103143,1.095484,-0.505868,-0.369144,0.900369,-0.230365,0.002170,0.141303,0.527026,-24.822266,17.485558,-28.511559,,,,,,,
1530639236.398777,-0.997363,-1.104895,1.198748,0.375442,-0.506277,-0.474552,-0.377371,0.893417,-0.243715,-0.008677,0.341538,0.563646,-24.804333,16.964935,-28.862114,,,,,,,
1530639236.418745,-1.037362,-1.099037,1.177990,-0.554419,-1.303982,-0.492216,-0.391314,0.890770,-0.231086,0.144549,0.300514,0.274192,-25.554838,17.237488,-28.401115,,,,,,,
1530639236.438714,-1.098368,-1.099349,1.134247,-0.946191,-0.937820,-0.424794,-0.404428,0.890912,-0.206673,0.306009,0.288928,0.150551,-26.363554,17.819160,-27.693741,,,,,,,
1530639236.458682,-1.119451,-1.097800,1.110005,0.041535,0.602416,-0.191702,-0.409937,0.890207,-0.198703,0.343088,0.432898,0.328128,-26.741318,18.687843,-27.497864,,,,,,,
1530639236.478651,-1.080542,-1.093762,1.129679,0.600551,0.832597,0.178770,-0.405065,0.888360,-0.216189,0.300833,0.554541,0.446063,-26.000202,18.618759,-28.189995,,,,,,,
1530639236.498619,-1.088710,-1.102298,1.131317,-0.788524,-1.512191,0.573782,-0.400084,0.892247,-0.209350,0.305968,0.681697,0.595962,-26.062378,19.505463,-27.841393,,,,,,,
1530639236.518588,-1.197875,-1.135897,1.063684,-2.675456,-2.692439,1.165216,-0.392361,0.906912,-0.153502,0.345257,0.615335,0.587951,-27.006830,21.044441,-26.150131,,,,,,,
1530639236.538556,-1.369382,-1.182383,0.925167,-3.557724,-1.872554,1.573322,-0.371065,0.925511,-0.075765,0.162584,0.282375,0.402669,-27.650707,23.850914,-23.742073,,,,,,,
1530639236.558525,-1.581599,-1.221260,0.721763,-3.921752,-0.873339,1.565842,-0.342441,0.939532,0.003699,-0.008267,0.245206,0.015221,-27.422054,27.005753,-20.835297,,,,,,,
1530639236.578494,-1.826387,-1.241154,0.472399,-3.917246,-0.369605,1.515380,-0.313189,0.946158,0.081838,-0.051786,0.310266,-0.276174,-26.712105,29.659515,-18.285225,,,,,,,
1530639236.598462,-2.062542,-1.241722,0.225972,-3.471961,-0.217934,1.431551,-0.284875,0.946342,0.152588,-0.242514,0.437142,-0.458268,-25.728693,32.143440,-15.714996,,,,,,,
1530639236.618431,-2.255769,-1.230691,0.028356,-2.644068,-0.549227,1.249636,-0.258341,0.942720,0.211044,-0.486745,0.577300,-0.636703,-24.827621,34.162643,-13.176682,,,,,,,
1530639236.638399,-2.385660,-1.220569,-0.102549,-1.422149,0.144834,1.076021,-0.235363,0.939295,0.249659,-0.741627,0.548834,-0.609034,-23.974754,35.508240,-11.221939,,,,,,,
1530639236.658368,-2.404810,-1.223632,-0.170840,-0.345411,3.166895,0.772810,-0.228605,0.940341,0.251988,-0.826174,0.252591,0.035579,-22.598701,36.236946,-11.141289,,,,,,,
1530639236.678335,-2.365943,-1.222342,-0.208460,-0.717220,3.427125,0.194550,-0.239072,0.939902,0.243779,-0.407656,-0.003119,0.122676,-21.059605,36.829323,-11.914055,,,,,,,
1530639236.698305,-2.392206,-1.202547,-0.270608,-1.781705,0.122378,0.030342,-0.245216,0.932959,0.263545,0.044502,-0.142645,-0.120845,-20.241543,37.562019,-11.566360,,,,,,,
1530639236.718272,-2.478506,-1.174892,-0.334535,-1.691498,-2.024229,-0.047841,-0.237383,0.922648,0.303923,0.028277,-0.322260,-0.637343,-20.346226,38.500160,-8.611557,,,,,,,
1530639236.738241,-2.552070,-1.151568,-0.377988,-1.280083,-1.379064,0.023142,-0.226308,0.913403,0.338347,0.058461,-0.443036,-0.601927,-20.301655,38.740532,-6.858124,,,,,,,
1530639236.758209,-2.589927,-1.133474,-0.412354,-1.073481,0.172365,0.111468,-0.221967,0.905889,0.360688,0.108274,-0.472784,-0.496338,-20.252056,39.013184,-5.721619,,,,,,,
1530639236.778178,-2.600429,-1.116016,-0.448496,-1.192084,1.413544,0.222258,-0.226280,0.898358,0.376498,0.170158,-0.451977,-0.384127,-19.901356,39.497841,-4.989975,,,,,,,
1530639236.798146,-2.603541,-1.097270,-0.492663,-1.313985,1.820997,0.372202,-0.233697,0.889966,0.391594,0.209070,-0.414059,-0.460838,-19.598183,40.061111,-4.511536,,,,,,,
1530639236.818115,-2.598017,-1.079580,-0.531451,-1.085831,1.942664,0.167593,-0.243962,0.881760,0.403709,0.099568,-0.443680,-0.636635,-19.100393,40.122120,-4.039429,,,,,,,
1530639236.838084,-2.573918,-1.065740,-0.548163,-0.559593,1.759510,-0.190501,-0.260156,0.875147,0.407965,-0.005743,-0.551722,-0.773993,-19.023449,40.336388,-3.990601,,,,,,,
1530639236.858052,-2.540600,-1.059802,-0.542140,0.104698,1.021949,-0.360761,-0.276536,0.872258,0.403351,-0.052871,-0.669271,-0.857926,-19.373686,40.327999,-3.999908,,,,,,,
1530639236.878021,-2.512625,-1.063824,-0.521836,0.659785,0.157761,-0.253295,-0.285643,0.874219,0.392618,-0.115038,-0.775525,-0.742227,-19.810448,40.259995,-4.351662,,,,,,,
1530639236.897990,-2.485444,-1.078218,-0.496866,1.182826,0.568540,0.023524,-0.288501,0.881116,0.374700,-0.220090,-0.866224,-0.220098,-19.882843,40.391907,-5.228096,,,,,,,
1530639236.917958,-2.410558,-1.098557,-0.453108,1.262316,1.870539,-0.369015,-0.303697,0.890552,0.338652,-0.394073,-0.506839,1.257219,-20.249540,40.379337,-6.431160,,,,,,,
1530639236.937927,-2.411125,-1.089233,-0.440477,-0.734375,-1.768402,-0.531362,-0.309032,0.886272,0.344994,-0.237187,1.084950,2.477027,-20.901234,40.202061,-5.646736,,,,,,,
1530639236.957896,-2.426204,-1.083805,-0.429937,0.476674,-0.728220,-0.152071,-0.306945,0.883745,0.353240,-0.323960,1.899092,0.881272,-21.263485,39.987045,-5.075096,,,,,,,
1530639236.977864,-2.432172,-1.101587,-0.425371,0.729599,-0.530996,0.848128,-0.294548,0.891926,0.343088,-0.035347,1.028011,0.122336,-20.810387,40.196053,-5.080589,,,,,,,
1530639236.997833,-2.458384,-1.122717,-0.446544,0.431805,-0.033600,1.089898,-0.273495,0.901281,0.335996,0.048565,0.036311,0.116244,-20.038296,40.744961,-4.861885,,,,,,,
1530639237.017801,-2.464525,-1.143388,-0.464300,0.760677,0.503003,0.740615,-0.259697,0.910043,0.323077,-0.021858,-0.604364,-0.071124,-19.252861,40.903763,-5.252243,,,,,,,
1530639237.037770,-2.428952,-1.165695,-0.426602,1.693653,-0.165073,-0.231361,-0.257683,0.919062,0.298200,-0.208625,-0.598842,-0.726606,-19.185974,40.730511,-6.199661,,,,,,,
1530639237.057739,-2.350925,-1.184857,-0.332136,1.926673,-0.778815,-0.886074,-0.267575,0.926445,0.264770,-0.131991,-0.156349,-0.866866,-19.782307,40.047417,-6.939453,,,,,,,
1530639237.077707,-2.309193,-1.188632,-0.247469,0.842181,-2.371834,-0.825030,-0.275800,0.927860,0.251020,-0.404636,0.998059,-0.322095,-20.609154,39.681393,-6.837959,,,,,,,
1530639237.097676,-2.327252,-1.191287,-0.219999,0.394827,-1.847586,0.010573,-0.269429,0.928847,0.254268,-0.235744,0.736971,-0.154063,-21.094984,39.731594,-6.015312,,,,,,,
1530639237.117644,-2.333749,-1.198123,-0.198305,0.622180,-1.067447,-0.112121,-0.263175,0.931357,0.251619,-0.178811,0.012033,-0.453279,-21.205460,39.678864,-5.866463,,,,,,,
1530639237.137613,-2.307445,-1.205392,-0.153364,0.983029,-0.645028,-0.393267,-0.264681,0.933979,0.240055,-0.108229,-0.339848,-0.524617,-21.515736,39.553982,-5.909195,,,,,,,
1530639237.157581,-2.250002,-1.212634,-0.081154,1.324778,-0.469009,-0.640887,-0.272756,0.936543,0.220209,-0.057780,-0.411411,-0.484339,-21.838615,39.148521,-6.432961,,,,,,,
1530639237.177550,-2.178000,-1.218081,0.009006,1.455799,-0.767425,-0.754814,-0.283697,0.938438,0.197103,-0.046152,-0.350166,-0.455587,-22.529087,38.620499,-7.126762,,,,,,,
1530639237.197518,-2.111546,-1.221047,0.103274,1.393871,-1.277551,-0.735042,-0.293772,0.939459,0.176395,-0.099035,-0.135855,-0.437092,-23.222918,38.158936,-7.407425,,,,,,,
1530639237.217487,-2.064508,-1.221310,0.183481,1.058434,-1.401877,-0.619899,-0.301524,0.939549,0.162270,-0.170415,0.161892,-0.342140,-23.709557,37.455963,-7.718781,,,,,,,
1530639237.237456,-2.032297,-1.218871,0.242344,0.728546,-0.923104,-0.556907,-0.308645,0.938711,0.153495,-0.113231,0.225840,-0.217872,-24.284365,37.329468,-7.704735,,,,,,,
1530639237.257424,-1.939400,-1.215213,0.327668,1.772350,1.800284,-0.929153,-0.324754,0.937443,0.125439,0.021836,0.162532,0.060230,-24.664228,36.604729,-8.969772,,,,,,,
1530639237.277393,-1.749496,-1.210915,0.463874,2.370160,3.592542,-0.725202,-0.346555,0.935939,0.062597,0.240598,0.001226,0.094965,-24.572290,35.871445,-11.494293,,,,,,,
1530639237.297361,-1.551174,-1.204787,0.597924,2.347536,3.333002,-0.387557,-0.357823,0.933763,-0.007022,0.356007,-0.096727,0.160358,-23.772968,34.760292,-14.535919,,,,,,,
1530639237.317330,-1.408900,-1.195967,0.713781,1.898109,0.570380,-0.116748,-0.361326,0.930570,-0.059014,0.465925,-0.226499,0.218315,-23.493130,34.103149,-16.439796,,,,,,,
1530639237.337297,-1.362051,-1.195572,0.785350,0.916628,-1.621140,0.443978,-0.358525,0.930426,-0.075947,0.425130,-0.240561,0.163654,-23.731419,33.914749,-16.711761,,,,,,,
1530639237.357266,-1.365893,-1.204707,0.823057,0.438523,-1.944202,0.570474,-0.350478,0.933734,-0.072837,0.242583,-0.127536,0.119483,-23.989792,34.054382,-15.994568,,,,,,,
1530639237.377234,-1.366417,-1.208043,0.857949,0.725599,-1.292844,0.071198,-0.347464,0.934923,-0.072020,0.095709,-0.043490,0.125273,-24.523346,34.106720,-15.802467,,,,,,,
1530639237.397203,-1.320558,-1.199142,0.917546,1.341815,0.059611,-0.299867,-0.351846,0.931728,-0.089930,0.087381,-0.054927,0.197032,-24.709202,33.885864,-16.170006,,,,,,,
1530639237.417172,-1.239967,-1.183962,0.990738,1.563397,0.914383,-0.359582,-0.356800,0.926108,-0.122544,0.132710,-0.044776,0.156968,-24.940617,33.383408,-17.084114,,,,,,,
1530639237.437140,-1.152987,-1.165123,1.061887,1.648522,1.169559,-0.388379,-0.360690,0.918837,-0.160127,0.115237,0.015001,0.112215,-24.825588,33.034271,-18.371872,,,,,,,
1530639237.457109,-1.061303,-1.142972,1.133057,1.876419,1.539861,-0.310293,-0.362197,0.909870,-0.202357,0.074600,0.071529,0.216288,-24.513371,32.228539,-20.032753,,,,,,,
1530639237.477077,-0.957976,-1.117342,1.209832,2.108198,1.637182,-0.187189,-0.358357,0.898939,-0.251970,-0.032314,0.236849,0.547715,-24.069508,31.294373,-21.688324,,,,,,,
1530639237.497046,-0.907312,-1.094620,1.261386,1.050367,-0.779346,-0.288943,-0.361139,0.888754,-0.282303,-0.102378,0.481470,0.777451,-24.087021,30.547554,-22.502159,,,,,,,
1530639237.517014,-0.957694,-1.089518,1.252965,-0.621453,-2.455261,-0.344986,-0.378601,0.886404,-0.266363,0.117828,0.368006,0.478949,-25.264378,30.575607,-21.520569,,,,,,,
1530639237.536983,-1.043508,-1.097061,1.208485,-1.208929,-1.816875,-0.204055,-0.394248,0.889870,-0.229563,0.305702,0.311851,0.337046,-26.513117,31.365677,-19.535690,,,,,,,
1530639237.556951,-1.071580,-1.101937,1.185206,-0.181722,0.709005,0.049542,-0.396722,0.892085,-0.216327,0.334008,0.412710,0.568225,-26.686682,31.500725,-18.873932,,,,,,,
1530639237.576920,-1.041283,-1.105456,1.191439,-0.146899,1.194308,0.268295,-0.387275,0.893669,-0.226658,0.267905,0.554161,0.630085,-26.279930,32.083229,-19.072006,,,,,,,
1530639237.596889,-1.084652,-1.123181,1.152726,-2.033901,-1.373614,0.388199,-0.382671,0.901482,-0.202221,0.259868,0.727547,0.737575,-26.185936,33.053001,-18.095642,,,,,,,
1530639237.616857,-1.248480,-1.160692,1.025698,-3.783600,-2.470330,0.866407,-0.378173,0.917079,-0.126296,0.345290,0.501271,0.446288,-26.418734,34.624130,-14.755341,,,,,,,
1530639237.636826,-1.481523,-1.201603,0.822721,-4.438152,-1.844495,1.388708,-0.359426,0.932619,-0.032173,0.204518,0.279860,0.017448,-26.317291,36.665382,-10.601494,,,,,,,
1530639237.656794,-1.759319,-1.229723,0.560803,-4.497778,-1.238659,1.741707,-0.328572,0.942396,0.062688,0.104543,0.354998,-0.280491,-25.304258,38.322212,-6.194733,,,,,,,
1530639237.676763,-2.036969,-1.236622,0.287960,-3.968528,-0.692574,1.767816,-0.292991,0.944681,0.147421,-0.157998,0.625997,-0.467810,-24.089401,39.881962,-2.290398,,,,,,,
1530639237.696731,-2.261269,-1.225341,0.067805,-3.041759,-0.785371,1.414515,-0.261061,0.940921,0.215671,-0.508241,0.880551,-0.651309,-22.757116,40.693165,1.068977,,,,,,,
1530639237.716700,-2.408434,-1.214977,-0.075050,-1.526112,-0.114291,1.357369,-0.233128,0.937362,0.258852,-0.715755,0.734742,-0.628557,-21.324375,41.426304,3.512962,,,,,,,
1530639237.736669,-2.455277,-1.223630,-0.148849,-0.036940,2.008264,1.167300,-0.215604,0.940341,0.263200,-0.821018,0.380842,-0.317140,-20.216917,41.846542,3.823013,,,,,,,
1530639237.756637,-2.424663,-1.236338,-0.177878,0.059903,3.429777,0.572385,-0.215689,0.944588,0.247449,-0.587992,0.038566,0.030810,-19.159119,42.089436,3.296463,,,,,,,
1530639237.776606,-2.417740,-1.228173,-0.227760,-1.542096,1.860138,0.310109,-0.222498,0.941877,0.251721,-0.080801,-0.119748,0.330845,-18.712595,42.390289,3.059731,,,,,,,
1530639237.796574,-2.499236,-1.197439,-0.305549,-2.159314,-1.437891,-0.048657,-0.218512,0.931108,0.292045,-0.074076,-0.228319,-0.482795,-18.195930,42.412102,4.584778,,,,,,,
1530639237.816543,-2.581413,-1.164432,-0.348593,-1.622470,-2.022628,-0.282608,-0.210023,0.918564,0.334858,-0.056014,-0.432068,-0.747761,-17.980848,41.994438,6.703079,,,,,,,
1530639237.836511,-2.626004,-1.140030,-0.368574,-1.105489,-0.599396,-0.188511,-0.205880,0.908646,0.363284,0.057946,-0.538025,-0.636768,-17.773369,41.703136,8.512390,,,,,,,
1530639237.856480,-2.631605,-1.122704,-0.385666,-0.919733,1.238324,0.006036,-0.211497,0.901275,0.378116,0.148295,-0.556427,-0.505878,-17.888264,41.651657,9.444641,,,,,,,
1530639237.876448,-2.621727,-1.105937,-0.415192,-1.210762,2.123873,0.308927,-0.222698,0.893885,0.389071,0.266872,-0.501581,-0.372607,-17.917572,41.601177,9.995529,,,,,,,
1530639237.896417,-2.619234,-1.087222,-0.459031,-1.331712,2.132660,0.480663,-0.231973,0.885339,0.402943,0.253168,-0.414971,-0.531040,-17.842793,41.154194,10.495880,,,,,,,
1530639237.916386,-2.606873,-1.070749,-0.490068,-0.910915,2.018399,0.062548,-0.244336,0.877560,0.412538,0.029782,-0.459255,-0.758119,-18.022995,41.164749,10.973434,,,,,,,
1530639237.936354,-2.573647,-1.060396,-0.489409,-0.161450,1.457237,-0.397892,-0.262779,0.872549,0.411832,-0.051705,-0.590856,-0.926541,-18.569962,41.049980,10.919815,,,,,,,
1530639237.956323,-2.536434,-1.061154,-0.464152,0.644298,0.444826,-0.418917,-0.277543,0.872919,0.401226,-0.037444,-0.739008,-0.967144,-19.292744,40.905956,10.862892,,,,,,,
1530639237.976291,-2.512432,-1.075816,-0.431765,1.194586,-0.358722,0.018927,-0.279530,0.879978,0.384059,-0.040722,-0.890598,-0.709773,-19.583326,40.797005,10.175743,,,,,,,
1530639237.996260,-2.468543,-1.102622,-0.399001,1.687606,1.993417,0.199735,-0.281302,0.892394,0.352849,-0.309427,-0.990264,0.657131,-19.602852,41.111294,9.225594,,,,,,,
1530639238.016228,-2.438583,-1.100373,-0.382774,-1.370236,-0.636800,-0.513732,-0.293043,0.891376,0.345795,-0.457766,0.450558,2.802017,-20.122845,40.909386,8.258369,,,,,,,
1530639238.036197,-2.457994,-1.076809,-0.380949,0.049857,-0.718117,-0.794591,-0.299461,0.880449,0.367603,-0.335396,1.897184,1.354733,-20.432755,40.391594,9.570442,,,,,,,
1530639238.056166,-2.441814,-1.094753,-0.339506,1.655580,-1.047549,0.473379,-0.295145,0.888815,0.350566,-0.015402,1.388224,-0.102993,-20.200977,40.008598,9.207642,,,,,,,
1530639238.076134,-2.462819,-1.134041,-0.332101,1.432068,-1.248153,1.396929,-0.265577,0.906129,0.329240,0.273649,0.350478,0.055998,-18.954586,40.350174,8.549698,,,,,,,
1530639238.096103,-2.486867,-1.169416,-0.347460,1.091281,0.033636,1.233102,-0.237907,0.920522,0.309901,0.081291,-0.406164,0.230565,-17.920345,40.957542,7.747505,,,,,,,
1530639238.116071,-2.467350,-1.196148,-0.324567,1.452472,-0.061874,0.021922,-0.228462,0.930636,0.285869,-0.286919,-0.359851,-0.561275,-17.866751,41.004986,6.707542,,,,,,,
1530639238.136040,-2.396236,-1.210233,-0.239329,1.387166,-0.505453,-0.960975,-0.239282,0.935698,0.259255,-0.284094,-0.027831,-0.763833,-18.209394,40.885059,6.120056,,,,,,,
1530639238.156008,-2.367913,-1.202651,-0.172916,-0.123725,-1.968807,-0.952997,-0.251479,0.932996,0.257442,-0.435213,1.034380,0.005482,-18.580334,40.359211,6.257996,,,,,,,
1530639238.175977,-2.398348,-1.192739,-0.175977,-0.414864,-0.603987,0.123343,-0.249773,0.929384,0.271771,-0.112409,0.641371,0.263019,-18.396397,39.940037,6.816872,,,,,,,
1530639238.195946,-2.414598,-1.195127,-0.189164,0.108954,0.080166,0.297932,-0.243849,0.930262,0.274135,-0.128847,-0.176798,-0.606197,-18.250788,40.243996,6.948723,,,,,,,
,,,,,,,,,,,,,,,,39.779258,-84.064315,293.005157,-1.000000,-1.000000,1530639238.178713,
1530639238.215914,-2.401046,-1.204774,-0.171061,0.812105,-0.164037,-0.020273,-0.241475,0.933758,0.264169,-0.120678,-0.439664,-0.764779,-17.971794,39.991970,6.273392,,,,,,,
1530639238.235883,-2.354408,-1.218060,-0.108611,1.422064,-0.710828,-0.477002,-0.244718,0.938431,0.243845,-0.097934,-0.489258,-0.679377,-18.184635,40.029633,5.486191,,,,,,,
